TimeMS,Beat,Type,Forehand,numNotes,SwingSpeed,Angle Diff,AngleChangeDiff,Pos Diff,C Stamina,C Pattern Diff,C CombinedDiff,C SmoothedDiff
2057.142857142857,12,1,True,1,0,1.0,0,1,1.827897135416671,0,0.0,0.0
2228.5714285714284,13,1,False,1,1.1666666666666667,1.0,1.0,1,0.036458333333333336,0.03125,4.6893028042057744e-05,0.00010126549405682369
2400.0,14,1,True,1,1.1666666666666667,1.0,1.0,1,0.08152331167967984,0.0625,0.00040126714931876673,0.0006452012686738003
2571.428571428571,15,1,False,1,1.1666666666666667,1.0,1.0,1,0.1314523902512913,0.09375,0.0014190673828125,0.002016138958097147
2657.142857142857,15.5,0,True,1,0,1.0,0,1.05,0,0,0,0.0016129111664777175
2828.5714285714284,16.5,1,True,1,0.7777777777777779,1.0,1.0,1,0.17272342504316543,0.125,0.0033314017598025203,0.0037421466721626125
3000.0,17.5,1,False,1,1.1666666666666667,1.0,1.0,1,0.21637405677665628,0.15625,0.00651593879227626,0.007227888525259548
3085.7142857142853,18,0,False,1,0.4666666666666667,1.0,1.0,1,0.014583333333333334,0.03125,3.3677053542575785e-05,0.0063425838588834025
3171.428571428571,18.5,1,True,1,1.1666666666666667,1.0,1.0,1,0.26763716808822346,0.1875,0.011488398930408327,0.011151007316833422
3257.142857142857,19,1,False,1,2.3333333333333335,1.0,1.0,1,0.3475779427865474,0.21875,0.01965190843475179,0.018523565838119378
3342.8571428571427,19.5,0,True,1,0.7777777777777779,1.0,1.0,1.05,0.041533351539738,0.0640625,0.0003133326539787948,0.016962631101248016
3428.5714285714284,20,0,False,2,2.3333333333333335,1.0,1.0,1,0.11837579115722424,0.0953125,0.0013806396298207213,0.016045993722910323
3514.285714285714,20.5,1,False,1,2.3333333333333335,1.0,1.0,1,0.5010718642243684,0.28125,0.04545240590223997,0.029912374289746024
3599.9999999999995,21,0,True,2,1.1666666666666667,1.0,1.0,1,0.18569508071444224,0.1265625,0.003599638724340441,0.028886264672651762
3685.7142857142853,21.5,1,False,1,2.3333333333333335,1.0,1.0,1,0.7065353678905585,0.34375,0.09284389502311273,0.05369336586812989
3771.428571428571,22,0,False,2,1.1666666666666667,1.0,1.0,1,0.23686384302204685,0.1578125,0.007088431490604181,0.05225096397686674
3857.142857142857,22.5,1,False,1,2.3333333333333335,1.0,1.0,1,0.9123491017629461,0.40625,0.16482602014835887,0.09105288262650764
3942.8571428571427,23,0,True,2,1.1666666666666667,1.0,1.0,1,0.2881720623838825,0.1890625,0.012319601240800063,0.08895040902275807
4028.5714285714284,23.5,1,False,1,2.3333333333333335,1.0,1.0,1,1.118319715170714,0.46875,0.26643742060162384,0.14483424115726629
4114.285714285714,24,0,False,2,1.1666666666666667,1.0,1.0,1,0.33955652728782204,0.2203125,0.01964641230987658,0.1418351718377208
4200.0,24.5,1,False,1,2.3333333333333335,1.0,1.0,1,1.3243740150107912,0.53125,0.4027238649941303,0.21790799093638405
4285.714285714285,25,0,True,2,1.1666666666666667,1.0,1.0,1,0.3909871777779016,0.2515625,0.029422130002591324,0.21377918132478435
4371.428571428572,25.5,1,False,1,2.3333333333333335,1.0,1.0,1,1.5304782005558075,0.59375,0.5787337112307156,0.3131605603456833
4457.142857142857,26,0,False,2,1.1666666666666667,1.0,1.0,1,0.4424479081513091,0.2828125,0.04200002011590072,0.3076704572846371
4542.857142857142,26.5,1,False,1,2.3333333333333335,1.0,1.0,1,1.7366145103510238,0.65625,0.799516438439625,0.4334880988980812
4628.571428571428,27,0,True,2,1.1666666666666667,1.0,1.0,1,0.49392931675087653,0.3140625,0.057733348713029986,0.42640587713629263
4714.285714285714,27.5,1,False,1,2.3333333333333335,1.0,1.0,1,1.9427727188714987,0.71875,1.070122074800509,0.5817929646891484
4800.0,28,0,False,2,1.1666666666666667,1.0,1.0,1,0.5454255483036013,0.3453125,0.07697538201022786,0.5728880971967565
4885.714285714285,28.5,1,False,1,2.3333333333333335,1.0,1.0,1,2.1489465235936955,0.78125,1.3956009429658367,0.7609816273854699
4971.428571428571,29,0,True,2,1.1666666666666667,1.0,1.0,1,0.5969327665795857,0.3765625,0.10007938631638598,0.7500236687893033
5057.142857142857,29.5,1,False,1,2.3333333333333335,1.0,1.0,1,2.355131828536133,0.84375,1.7810035349966022,0.9739633655267557
5142.857142857142,30,0,False,2,1.1666666666666667,1.0,1.0,1,0.6484483535087509,0.4078125,0.12739862799901333,0.9607218439267862
5228.571428571428,30.5,1,False,1,2.3333333333333335,1.0,1.0,1,2.5613258564163432,0.90625,2.2313804460036133,1.2236494288468722
5314.285714285714,31,0,True,2,1.1666666666666667,1.0,1.0,1,0.6999704613752208,0.4390625,0.1592863734641224,1.2078937940864216
5400.0,31.5,1,False,1,2.3333333333333335,1.0,1.0,1,2.767526657532737,0.96875,2.751782336696665,1.5129524831751777
5485.714285714285,32,0,False,2,1.1666666666666667,1.0,1.0,1,0.7514977489688488,0.4703125,0.19609588914383982,1.4944520848984295
5571.428571428571,32.5,1,False,1,2.3333333333333335,1.0,1.0,1,2.840059472322549,0.9705882352941176,2.82737709975932,1.7841004527082156
5657.142857142857,33,1,True,1,2.3333333333333335,1.0,1.0,1,2.8533911705545623,0.9714285714285714,2.844438260411982,2.0604433051821913
5700.0,33.25,0,True,1,0.9333333333333333,1.0,1.0,1,0.797725958739537,0.5015625,0.23704995886363575,2.033863188955265
5742.857142857142,33.5,1,False,1,2.3333333333333335,1.0,1.0,1,2.865971406846564,0.9722222222222222,2.860587983753026,2.291888596777116
5785.714285714285,33.75,0,False,1,2.3333333333333335,1.0,1.0,1,0.8711702453887054,0.5328125,0.2899044573920817,2.2665278346966105
5828.571428571428,34,1,True,1,2.3333333333333335,1.0,1.0,1,2.877861982711808,0.972972972972973,2.875897283165048,2.508300990203592
5871.428571428571,34.25,0,True,1,2.3333333333333335,1.0,1.0,1,0.9741283397871879,0.5640625,0.3581447757542142,2.4859411366286817
5914.285714285714,34.5,1,False,1,2.3333333333333335,1.0,1.0,1,2.88911810303521,0.9736842105263158,2.890429994913572,2.71316445506966
5957.142857142857,34.75,0,False,1,2.3333333333333335,1.0,1.0,1,1.077117361021342,0.5953125,0.43615006105316406,2.6947326252611923
6000.0,35,1,True,1,2.3333333333333335,1.0,1.0,1,2.8997892333937094,0.9743589743589743,2.904243660734399,2.9088347066840328
6042.857142857142,35.25,0,True,1,2.3333333333333335,1.0,1.0,1,1.1801292122313254,0.6265625,0.5245448639634542,2.895146931381355
6085.714285714285,35.5,1,False,1,2.3333333333333335,1.0,1.0,1,2.909919827055591,0.975,2.917390283585469,3.097335716869363
6128.571428571428,35.75,0,False,1,2.3333333333333335,1.0,1.0,1,1.2831583950631302,0.6578125,0.6239556314283345,3.089122015956498
6171.428571428571,36,1,True,1,2.3333333333333335,1.0,1.0,1,2.9195499441995185,0.975609756097561,2.929916977281201,3.2804258041349175
6257.142857142857,36.5,1,False,1,2.3333333333333335,1.0,1.0,1,2.9287157815458906,0.9761904761904762,2.9418665269577997,3.4652394458171893
6342.857142857142,37,0,True,2,0.9333333333333333,1.0,1.0,1,1.3544629305547329,0.6890625,0.7215470330193666,3.4585302571593703
6428.571428571428,37.5,0,False,1,2.3333333333333335,1.0,1.0,1,1.4274212225025305,0.7203125,0.8295732337486142,3.4608773616763684
6514.285714285714,38,0,True,2,2.3333333333333335,1.0,1.0,1,1.5304782005558086,0.7515625,0.9630933525996777,3.473816673309732
6599.999999999999,38.5,0,False,1,2.3333333333333335,1.0,1.0,1,1.6335430999559155,0.7828125,1.1100325772202486,3.4978242010861775
6685.714285714285,39,0,True,2,2.3333333333333335,1.0,1.0,1,1.7366145103510249,0.8140625,1.271020381224584,3.5333905015401563
6771.428571428571,39.5,0,False,1,2.3333333333333335,1.0,1.0,1,1.8396913373772752,0.8453125,1.4466866215199687,3.5810194316595347
6857.142857142857,40,0,True,2,2.3333333333333335,1.0,1.0,1,1.942772718871499,0.8765625,1.637661445825287,3.6412270239502225
6942.857142857142,40.5,0,False,1,2.3333333333333335,1.0,1.0,1,2.0458579663976764,0.9078125,1.8445752255991203,3.714540470991111
7028.571428571428,41,0,True,2,2.3333333333333335,1.0,1.0,1,2.148946523593695,0.9390625,2.06805850662876,3.801497207976752
7114.285714285714,41.5,0,False,1,2.3333333333333335,1.0,1.0,1,2.2520379359524854,0.9703125,2.308741972106447,3.902644082887424
7199.999999999999,42,0,True,2,2.3333333333333335,1.0,1.0,1,2.31816010045372,0.9712121212121211,2.370760731399391,4.004848462178176
7285.714285714285,42.5,0,False,1,2.3333333333333335,1.0,1.0,1,2.3474722951303355,0.9720588235294116,2.4007716915643305,4.105865676046241
7371.428571428571,43,0,True,1,2.3333333333333335,1.0,1.0,1,2.375084710622046,0.9728571428571428,2.4291690882961645,4.2056424825510055
7457.142857142857,43.5,0,False,1,2.3333333333333335,1.0,1.0,1,2.401141021377542,0.973611111111111,2.456078264096236,4.304137244706089
7499.999999999999,43.75,1,True,1,0.6666666666666666,1.0,1.0,1,2.788189477841274,0.9795918367346939,2.835874330444745,4.424500941501313
7542.857142857142,44,0,True,1,2.3333333333333335,1.0,1.0,1,2.425769156630041,0.9743243243243243,2.4816120952890355,4.51843499669612
7585.714285714285,44.25,1,False,1,2.3333333333333335,1.0,1.0,1,2.774413091173168,0.98,2.825889159238771,4.631472942020475
7628.571428571428,44.5,0,False,1,2.3333333333333335,1.0,1.0,1,2.449083399020529,0.975,2.505872472779518,4.721203235758364
7671.428571428571,44.75,1,True,1,2.3333333333333335,1.0,1.0,1,2.7848191723485,0.9803921568627451,2.8377092690246144,4.828844137146348
7714.285714285714,45,0,True,1,2.3333333333333335,1.0,1.0,1,2.471186156450559,0.9756410256410256,2.5289515828430407,4.914670866007653
7757.142857142857,45.25,1,False,1,2.3333333333333335,1.0,1.0,1,2.794821041642518,0.9807692307692307,2.8490893526172623,5.017317338895797
7799.999999999999,45.5,0,False,1,2.3333333333333335,1.0,1.0,1,2.492169464979905,0.97625,2.550933017348502,5.099511343868842
7842.857142857142,45.75,1,True,1,2.3333333333333335,1.0,1.0,1,2.8044418031387903,0.9811320754716981,2.8600534862005267,5.197525663639534
7885.714285714285,46,0,True,1,2.3333333333333335,1.0,1.0,1,2.512116269193663,0.9768292682926829,2.5718927383434615,5.27633205128308
7928.571428571428,46.25,1,False,1,2.3333333333333335,1.0,1.0,1,2.8137028330001956,0.9814814814814815,2.8706240247091173,5.370041171170391
7971.428571428571,46.5,0,False,1,2.3333333333333335,1.0,1.0,1,2.5311015175334184,0.9773809523809524,2.59189991810018,5.445682399418498
8014.285714285714,46.75,1,True,1,2.3333333333333335,1.0,1.0,1,2.822623938042033,0.9818181818181818,2.8808217525729622,5.535382229545986
8057.142857142857,47,0,True,1,2.3333333333333335,1.0,1.0,1,2.5491931030420054,0.977906976744186,2.6110176724705427,5.60806074977199
8099.999999999999,47.25,1,False,1,2.3333333333333335,1.0,1.0,1,2.8312234971570542,0.9821428571428571,2.8906660189360474,5.694019822097149
8142.857142857142,47.5,0,False,1,2.3333333333333335,1.0,1.0,1,2.5664526743799234,0.9784090909090909,2.6293037026531096,5.763920351352231
8185.714285714285,47.75,1,True,1,2.3333333333333335,1.0,1.0,1,2.83951858771752,0.9824561403508771,2.9001748591777976,5.846382971662434
8228.571428571428,48,0,True,1,2.3333333333333335,1.0,1.0,1,2.582936337508254,0.9788888888888888,2.646810858165408,5.913674455093205
8271.42857142857,48.25,1,False,1,2.3333333333333335,1.0,1.0,1,2.8475250987836587,0.9827586206896551,2.9093651043240327,5.9928634245037085
8314.285714285714,48.5,0,False,1,2.3333333333333335,1.0,1.0,1.5,2.5986952648507837,0.9902173913043477,2.7268176430312803,6.060913565394865
8400.0,49,0,True,1,2.3333333333333335,1.0,1.0,1,2.613776225858087,0.9904255319148936,2.7418654788092978,6.1281368611807086
8442.857142857143,49.25,1,True,1,1.1666666666666667,1.0,1.0,1,2.8412912128248022,0.9830508474576272,2.905493832389183,6.20193790716816
8485.714285714284,49.5,0,False,1,2.3333333333333335,1.0,1.0,1.5,2.6282220505531466,1.0010416666666666,2.8182696661365503,6.2697807342235645
8571.42857142857,50,0,True,1,2.3333333333333335,1.0,1.0,1,2.642072035729215,1.0010204081632652,2.831116103160459,6.336722416418245
8614.285714285714,50.25,1,False,1,1.1666666666666667,1.0,1.0,1,2.8212644763275483,0.9833333333333333,2.88896037072545,6.404952387804303
8657.142857142857,50.5,0,False,1,2.3333333333333335,1.0,1.0,1.5,2.6553623019084576,1.011,2.9041675537749496,6.4724045556828695
8742.857142857143,51,0,True,1,2.3333333333333335,1.0,1.0,1,2.6681261078859198,1.0107843137254902,2.915041291189545,6.538900846780313
8785.714285714284,51.25,1,True,1,1.1666666666666667,1.0,1.0,1,2.801899961735634,0.9836065573770492,2.872969149226045,6.602013243648346
8828.571428571428,51.5,0,False,1,2.3333333333333335,1.0,1.0,1.5,2.68039412862358,1.0201923076923076,2.98497085734013,6.66892894459732
8914.285714285714,52,0,True,1,2.3333333333333335,1.0,1.0,1,2.6921947013810454,1.019811320754717,2.994074672489004,6.734849782132927
9000.0,52.5,0,False,1,2.3333333333333335,1.0,1.0,1,2.703554044238885,1.0194444444444444,3.0028290592297453,6.799791125098348
9085.714285714284,53,0,True,2,2.3333333333333335,1.0,1.0,1,2.7144964505606404,1.019090909090909,3.011253660995341,6.863768583209074
9171.42857142857,53.5,0,False,1,2.3333333333333335,1.0,1.0,1,2.7250444624284613,1.01875,3.0193666833682298,6.926797931395384
9257.142857142857,54,0,True,2,2.3333333333333335,1.0,1.0,1,2.735219025657618,1.018421052631579,3.027185022557737,6.988895044335095
9342.857142857141,54.5,0,False,1,2.3333333333333335,1.0,1.0,1,2.745039628632682,1.018103448275862,3.034724380425981,7.050075839882344
9428.571428571428,55,0,True,2,2.3333333333333335,1.0,1.0,1,2.75452442690147,1.0177966101694915,3.0419993676661594,7.110356230269153
9514.285714285714,55.5,0,False,1,2.3333333333333335,1.0,1.0,1,2.763690355202514,1.0174999999999998,3.0490235965238788,7.169752080103639
9600.0,56,0,True,2,2.3333333333333335,1.0,1.0,1,2.7725532283802305,1.0172131147540984,3.055809764270088,7.228279170315083
9685.714285714284,56.5,1,False,1,2.3333333333333335,1.0,1.0,1,2.715643500317343,0.9848484848484849,2.801836606547668,7.275133527366663
9771.42857142857,57,0,False,2,1.1666666666666667,1.0,1.0,1,2.767833784464124,1.0169354838709677,3.049461363837127,7.331281052157577
9857.142857142857,57.5,1,False,1,2.3333333333333335,1.0,1.0,1,2.7329543801728438,0.9852941176470589,2.820323936287601,7.377032920352564
9942.857142857141,58,0,True,2,1.1666666666666667,1.0,1.0,1,2.749944186215918,1.0166666666666666,3.0304032623871575,7.430409357454411
10028.571428571428,58.5,1,False,1,2.3333333333333335,1.0,1.0,1,2.7492688289252003,0.9857142857142858,2.8377848232990845,7.475094387957877
10114.285714285714,59,0,False,2,1.1666666666666667,1.0,1.0,1,2.732618178753575,1.01640625,3.011975022880176,7.525861596543763
10200.0,59.5,1,False,1,2.3333333333333335,1.0,1.0,1,2.764670474915659,0.9861111111111112,2.8543022621605405,7.569514959032197
10285.714285714284,60,1,True,2,2.3333333333333335,1.0,1.0,1,2.7720526070835017,0.9863013698630136,2.862230716424762,7.61269026988991
10328.571428571428,60.25,0,True,1,0.9333333333333333,1.0,1.0,1,2.713300136965568,1.0161538461538462,2.9917001392232723,7.660087257670405
10371.42857142857,60.5,1,False,1,2.3333333333333335,1.0,1.0,1,2.779233842731051,0.9864864864864865,2.8699505562793446,7.701991940811116
10414.285714285714,60.75,0,False,1,2.3333333333333335,1.0,1.0,1,2.707006699426594,1.0159090909090909,2.9840885306907627,7.7474856813658715
10457.142857142857,61,1,True,1,2.3333333333333335,1.0,1.0,1,2.7862222727146833,0.9866666666666667,2.8774698929375155,7.788184001246144
10500.0,61.25,0,True,1,2.3333333333333335,1.0,1.0,1,2.7159221986964006,1.0156716417910447,2.9912204075432123,7.83241587140936
10542.857142857141,61.5,1,False,1,2.3333333333333335,1.0,1.0,1,2.7930255591745157,0.9868421052631579,2.884796423412084,7.871963049882072
10585.714285714284,61.75,0,False,1,2.3333333333333335,1.0,1.0,1,2.724573501807094,1.0154411764705882,2.998137107944402,7.9149883983509675
10628.571428571428,62,1,True,1,2.3333333333333335,1.0,1.0,1,2.7996509635591775,0.987012987012987,2.891937456553757,7.953436209077899
10671.42857142857,62.25,0,True,1,2.3333333333333335,1.0,1.0,1,2.732972181084152,1.0152173913043478,3.0048481884353855,7.995307068384352
10714.285714285714,62.5,1,False,1,2.3333333333333335,1.0,1.0,1,2.806105372480629,0.9871794871794872,2.8988999371554627,8.032704107724767
10757.142857142857,62.75,0,False,1,2.3333333333333335,1.0,1.0,1,2.741129142717246,1.015,3.011362650242482,8.07346944525487
10800.0,63,1,True,1,2.3333333333333335,1.0,1.0,1,2.812395321592534,0.9873417721518988,2.9056904682876383,8.109861377671775
10842.857142857141,63.25,0,True,1,2.3333333333333335,1.0,1.0,1,2.749054674010941,1.014788732394366,3.017688978851194,8.149567323816829
10885.714285714284,63.5,1,False,1,2.3333333333333335,1.0,1.0,1,2.8185270176662462,0.9875,2.912315332013601,8.184997104578029
10928.571428571428,63.75,0,False,1,2.3333333333333335,1.0,1.0,1,2.756758486669792,1.0145833333333334,3.0238351802607255,8.223687160442855
10971.42857142857,64,1,True,1,2.3333333333333335,1.0,1.0,1,2.824506359021152,0.9876543209876543,2.918780508620004,8.258195238051414
11014.285714285714,64.25,0,True,1,2.3333333333333335,1.0,1.0,1,2.7642497565007598,1.0143835616438355,3.0298088142375725,8.295910464853293
11057.142857142857,64.5,1,False,1,2.3333333333333335,1.0,1.0,1,2.8303389544507294,0.9878048780487805,2.9250916944847054,8.394609457263288
11100.0,64.75,0,False,1,2.3333333333333335,1.0,1.0,1,2.771537159874185,1.0141891891891892,3.035617024852484,8.497036233820708
11142.857142857141,65,1,True,1,2.3333333333333335,1.0,1.0,1,2.836030140771982,0.9879518072289156,2.931254318693048,8.595929627020844
11228.571428571428,65.5,1,False,1,2.3333333333333335,1.0,1.0,1,2.841584999113664,0.9880952380952381,2.9372735585033585,8.694991779732954
11314.285714285714,66,0,True,2,0.9333333333333333,1.0,1.0,1,2.7654443952029113,1.014,3.0285353396347867,8.797181187013287
11400.0,66.5,1,False,1,2.3333333333333335,1.0,1.0,1,2.852304867659106,0.9883720930232558,2.948901420290811,8.896571162872938
11485.714285714284,67,0,False,2,1.1666666666666667,1.0,1.0,1,2.7484606329809904,1.0138157894736841,3.010986243906367,8.99794856324628
11571.42857142857,67.5,1,False,1,2.3333333333333335,1.0,1.0,1,2.8625346444790134,0.9886363636363636,2.9600121850263226,9.09782471305827
11657.142857142857,68,1,True,1,2.3333333333333335,1.0,1.0,1,2.867476132843286,0.9887640449438202,2.965384303662422,9.19749562253122
11700.0,68.25,0,True,1,0.9333333333333333,1.0,1.0,1,2.7319626727191517,1.0136363636363637,2.993958651251747,9.297855238329866
11742.857142857141,68.5,1,False,1,2.3333333333333335,1.0,1.0,1,2.8723071881710585,0.9888888888888889,2.9706395556208602,9.39808054268138
11785.714285714284,68.75,0,False,1,2.3333333333333335,1.0,1.0,1,2.72642018702854,1.0134615384615384,2.987526884228195,9.49883964916904
11828.571428571428,69,1,True,1,2.3333333333333335,1.0,1.0,1,2.877031471581653,0.989010989010989,2.975781709078927,9.59771536995357
11871.42857142857,69.25,0,True,1,2.3333333333333335,1.0,1.0,1,2.7337252882638245,1.0132911392405064,2.9934932413754733,9.698600920499276
11914.285714285714,69.5,1,False,1,2.3333333333333335,1.0,1.0,1,2.8816524841276947,0.9891304347826086,2.980814372144584,9.796047361832773
12000.0,70,1,True,1,2.3333333333333335,1.0,1.0,1,2.8861735754484057,0.989247311827957,2.985741001254451,9.896553615339101
12042.857142857141,70.25,0,False,1,1.1666666666666667,1.0,1.0,1,2.7305408259572324,1.013125,2.989387750320478,9.991860506843894
12085.714285714284,70.5,1,False,1,2.3333333333333335,1.0,1.0,1,2.890597951867537,0.9893617021276596,2.9905649090494317,10.092353018440967
12171.42857142857,71,1,True,1,2.3333333333333335,1.0,1.0,1,2.8949286839770845,0.9894736842105263,2.9952892717654187,10.184430449262658
12214.285714285714,71.25,0,True,1,1.1666666666666667,1.0,1.0,1,2.7171156028679873,1.0129629629629628,2.975462168832394,10.284166138734694
12257.142857142857,71.5,1,False,1,2.3333333333333335,1.0,1.0,1,2.8991687137444826,0.9895833333333334,2.999917136173509,10.37180112106457
12300.0,71.75,0,False,1,2.3333333333333335,1.0,1.0,1,2.7140749905310075,1.0128048780487804,2.9715545381209254,10.471075104429122
12342.857142857141,72,1,True,1,2.3333333333333335,1.0,1.0,1,2.9033208611778467,0.9896907216494846,3.004451426101355,10.552924126386358
12428.571428571428,72.5,1,False,1,2.3333333333333335,1.0,1.0,1,2.907387830580998,0.9897959183673469,3.008894948564844,10.653033651354882
12471.42857142857,72.75,0,True,1,1.1666666666666667,1.0,1.0,1,2.71124162382655,1.0126506024096384,2.9678719900920822,10.726198710945404
12514.285714285714,73,1,True,1,2.3333333333333335,1.0,1.0,1,2.911372216427425,0.98989898989899,3.013250399536922,10.82592432143375
12600.0,73.5,1,False,1,2.3333333333333335,1.0,1.0,1,2.915276508879999,0.99,3.017520369378352,10.891633799826577
12642.857142857141,73.75,0,False,1,1.1666666666666667,1.0,1.0,1,2.6985299847539217,1.0125,2.9547308620374704,10.98873556481281
12685.714285714284,74,1,True,1,2.3333333333333335,1.0,1.0,1,2.919103098981113,0.9900990099009901,3.0217073479532597,11.043603952024847
12771.42857142857,74.5,1,False,1,2.3333333333333335,1.0,1.0,1,2.92285428353598,0.9901960784313726,3.0258137294505607,11.14232462880607
12857.142857142857,75,0,True,2,0.9333333333333333,1.0,1.0,1,2.6841833177614274,1.0123529411764705,2.940057755567281,11.181433653639234
12942.857142857141,75.5,1,False,1,2.3333333333333335,1.0,1.0,1,2.9301391793598834,0.9903846153846154,3.033793826616439,11.279501785380083
13028.571428571428,76,0,False,3,1.1666666666666667,1.0,1.0,1,2.6701392475180965,1.0122093023255814,2.925712372304552,11.302930063424565
13114.285714285714,76.5,0,True,1,2.3333333333333335,1.0,1.0,1,2.667822152050933,1.0120689655172412,2.922631041255079,11.39617135733229
13199.999999999998,77,0,False,1,2.3333333333333335,1.0,1.0,1,2.675045501869492,1.0119318181818182,2.92870630399702,11.402141159010183
13285.714285714284,77.5,0,True,1,2.3333333333333335,1.0,1.0,1,2.6821056006347086,1.0117977528089888,2.9346431526416024,11.494545734252736
13371.42857142857,78,0,False,1,2.3333333333333335,1.0,1.0,1,2.6890079208898903,1.0116666666666667,2.9404462458328693,11.498360934580013
13457.142857142857,78.5,0,True,2,2.3333333333333335,1.0,1.0,1,2.6957576932780354,1.0115384615384615,2.9461200364048863,11.5017919001309
13542.857142857141,79,0,False,1,2.3333333333333335,1.0,1.0,1,2.702359919761422,1.0114130434782609,2.9516687825638948,11.593389077471222
13628.571428571428,79.5,0,True,1,2.3333333333333335,1.0,1.0,1,2.7088193859836576,1.011290322580645,2.9570965583536983,11.596645487890754
13714.285714285714,80,0,False,1,2.3333333333333335,1.0,1.0,1,2.7151406728383973,1.0111702127659574,2.962407263456923,11.686821578667272
13757.142857142857,80.25,1,True,1,0.6666666666666666,1.0,1.0,1,2.9047654540350973,0.9906542056074766,3.011951074557215,11.691412331206514
13799.999999999998,80.5,0,True,1,2.3333333333333335,1.0,1.0,1,2.721328167303497,1.0110526315789474,2.9676046323804646,11.779461214962518
13842.857142857141,80.75,1,False,1,2.3333333333333335,1.0,1.0,1,2.8974121814013074,0.9907407407407407,3.005674304739772,11.783349810072982
13885.714285714284,81,0,False,1,2.3333333333333335,1.0,1.0,1,2.727386072594442,1.0109375,2.972692243069495,11.868938291980236
13928.571428571428,81.25,1,True,1,2.3333333333333335,1.0,1.0,1,2.901121257664551,0.9908256880733946,3.00966240221913,11.872495350921428
13971.42857142857,81.5,0,True,1,2.3333333333333335,1.0,1.0,1,2.7333184176864376,1.0108247422680412,2.977673524990804,11.955269278163437
14014.285714285714,81.75,1,False,1,2.3333333333333335,1.0,1.0,1,2.904762584609284,0.990909090909091,3.0135792907172387,11.958514905677516
14057.142857142857,82,0,False,1,2.3333333333333335,1.0,1.0,1,2.7391290662504866,1.0107142857142857,2.9825517667229913,12.038099098711404
14099.999999999998,82.25,1,True,1,2.3333333333333335,1.0,1.0,1,2.908338001706323,0.990990990990991,3.017426858803923,12.041051873541845
14142.857142857141,82.5,0,True,1,2.3333333333333335,1.0,1.0,1,2.7448217250451004,1.0106060606060605,2.9873301230880567,12.042585914726894
14185.714285714284,82.75,1,False,1,2.3333333333333335,1.0,1.0,1,2.9118492824313984,0.9910714285714286,3.0212069289190358,12.120181470120574
14228.571428571428,83,0,False,1,2.3333333333333335,1.0,1.0,1,2.750399951801947,1.0105,2.992011621856197,12.193146871669295
14271.42857142857,83.25,1,True,1,2.3333333333333335,1.0,1.0,1,2.915298137198519,0.9911504424778761,3.024921260238517,12.26271745552158
14314.285714285714,83.5,0,True,1,2.3333333333333335,1.0,1.0,1,2.7558671626406808,1.0103960396039604,2.9965991700531456,12.326374339228181
14357.142857142857,83.75,1,False,1,2.3333333333333335,1.0,1.0,1,2.9186862161382567,0.9912280701754386,3.028571551392872,12.385677960352846
14399.999999999998,84,0,False,2,2.3333333333333335,1.0,1.0,1,2.7612266390454265,1.0102941176470588,3.0010955598971414,12.438127118203242
15771.42857142857,92,1,True,1,0.1414141414141414,1.0,1.0,1,2.908561121610584,0.991304347826087,3.0196422792384365,12.484758174605673
15814.285714285714,92.25,0,True,1,0.1414141414141414,1.0,1.0,1,2.751460684727569,1.0101941747572816,2.991109355717577,12.523444744199281
15857.142857142857,92.5,1,False,1,2.3333333333333335,1.0,1.0,1,2.8984474722494866,0.9913793103448276,3.010715953275933,12.555252068512324
15899.999999999998,92.75,0,False,1,2.3333333333333335,1.0,1.0,1,2.741684169874923,1.010096153846154,2.981132566160709,12.577939998010137
15942.857142857141,93,1,True,1,2.3333333333333335,1.0,1.0,1,2.9018929436576872,0.9914529914529915,3.0143916672775735,12.599657513729333
15985.714285714284,93.25,0,True,1,2.3333333333333335,1.0,1.0,1,2.747025499960607,1.01,2.985644513576343,12.61939240215332
16028.571428571428,93.5,1,False,1,2.3333333333333335,1.0,1.0,1,2.905279766013017,0.9915254237288136,3.0180061558507085,12.639261052893694
16071.42857142857,93.75,0,False,1,2.3333333333333335,1.0,1.0,1,2.7522655672968237,1.0099056603773584,2.9900703062798675,12.657279112504563
16114.285714285714,94,1,True,1,2.3333333333333335,1.0,1.0,1,2.9086094241877847,0.9915966386554622,3.021560934695308,12.663544584721425
16157.142857142857,94.25,0,True,1,2.3333333333333335,1.0,1.0,1,2.7574072245325825,1.0098130841121495,2.9944123817624373,12.680847588137663
16199.999999999998,94.5,1,False,1,2.3333333333333335,1.0,1.0,1,2.911883353348118,0.9916666666666667,3.02505746994135,12.687567962621447
16242.857142857141,94.75,0,False,1,2.3333333333333335,1.0,1.0,1,2.7624532181646813,1.0097222222222222,2.9986730867132754,12.704196133336916
16285.714285714284,95,1,True,1,2.3333333333333335,1.0,1.0,1,2.915102941016613,0.9917355371900827,3.028497180156524,12.710633734807061
16328.571428571428,95.25,0,True,1,2.3333333333333335,1.0,1.0,1,2.7674061934298417,1.0096330275229357,3.0028546811938077,12.726624262008446
16371.42857142857,95.5,1,False,1,2.3333333333333335,1.0,1.0,1,2.918269529033118,0.9918032786885246,3.031881438257252,12.732792066835627
16414.285714285714,95.75,0,False,1,2.3333333333333335,1.0,1.0,1,2.772268698928767,1.0095454545454545,3.0069593425845595,12.748179392606678
16457.142857142855,96,1,True,1,2.3333333333333335,1.0,1.0,1,2.9213844154194697,0.991869918699187,3.0352115733284304,12.754089609624689
16500.0,96.25,0,True,1,2.3333333333333335,1.0,1.0,1,2.7770431909991,1.0094594594594595,3.0109891693190693,12.768905683729246
16542.85714285714,96.5,1,False,1,2.3333333333333335,1.0,1.0,1,2.9244488561536266,0.9919354838709677,3.038488872356915,12.774569810893237
16585.714285714286,96.75,0,False,1,2.3333333333333335,1.0,1.0,1,2.781732037853057,1.009375,3.0149461844180565,12.788844317332511
16628.571428571428,97,1,True,1,2.3333333333333335,1.0,1.0,1,2.9274640668583007,0.992,3.041714581883478,12.794273193346514
16671.42857142857,97.25,0,True,1,2.3333333333333335,1.0,1.0,1,2.786337523494368,1.00929203539823,3.0188323388361225,12.80803375228427
16714.285714285714,97.5,1,False,1,2.3333333333333335,1.0,1.0,1,2.930431224408846,0.9920634920634921,3.0448899095776842,12.813237603719278
16757.142857142855,97.75,0,False,1,2.3333333333333335,1.0,1.0,1,2.7908618514281454,1.0092105263157896,3.0226495146324437,12.826509951859425
16800.0,98,1,True,1,2.3333333333333335,1.0,1.0,1,2.9333514684648825,0.9921259842519685,3.0480160257398183,12.831498436221779
16842.85714285714,98.25,0,True,1,2.3333333333333335,1.0,1.0,1,2.7953071481763345,1.0091304347826087,3.0263995279761136,12.844306588291406
16885.714285714286,98.5,1,False,1,2.3333333333333335,1.0,1.0,1,2.9362259029298357,0.9921875,3.0510940647337974,12.849088833447732
16928.571428571428,98.75,0,False,1,2.3333333333333335,1.0,1.0,1,2.7996754666105343,1.009051724137931,3.03008413199609,12.85932170818085
16971.42857142857,99,1,True,1,2.3333333333333335,1.0,1.0,1,2.9505695862259977,1.0,3.1154230664809965,12.87192635834612
17014.285714285714,99.25,0,True,1,2.3333333333333335,1.0,1.0,1,2.8039687891131573,1.008974358974359,3.033705019484955,12.876252484260702
17057.142857142855,99.5,1,False,1,2.3333333333333335,1.0,1.0,1,2.969883374526698,1.0,3.1337209924130267,12.886896502059043
17100.0,99.75,0,False,1,2.3333333333333335,1.0,1.0,1,2.8081890305771617,1.0088983050847458,3.0372638254651814,12.893852377157746
17142.85714285714,100,1,True,1,2.3333333333333335,1.0,1.0,1,2.9827733116712514,1.0,3.145939705210239,12.902523422045558
17185.714285714286,100.25,0,True,1,2.3333333333333335,1.0,1.0,1,2.8123380412538874,1.0088235294117647,3.0407621296259295,12.907132421835405
17228.571428571428,100.5,1,False,1,2.3333333333333335,1.0,1.0,1,2.995663249075877,1.0,3.158163754757476,12.915335905586579
17271.42857142857,100.75,0,False,1,2.3333333333333335,1.0,1.0,1,2.8164176094578934,1.00875,3.044201458637913,12.921113658276811
17314.285714285714,101,1,True,1,2.3333333333333335,1.0,1.0,1,3.0107068750930055,1.0,3.1724369005123316,12.927439172655408
17357.142857142855,101.25,0,True,1,2.3333333333333335,1.0,1.0,1,2.8204294641371117,1.0086776859504132,3.0475832883533736,12.92924467040477
17400.0,101.5,1,False,1,2.3333333333333335,1.0,1.0,1,3.0257397706793943,1.0,3.186706946029238,12.935449112538263
17442.85714285714,101.75,0,False,1,2.3333333333333335,1.0,1.0,1,2.824375277316067,1.008606557377049,3.0509090458977366,12.936787171971025
17485.714285714286,102,1,True,1,2.3333333333333335,1.0,1.0,1,3.038629708927105,1.0,3.1989483440615953,12.942846650037705
17528.571428571428,102.25,0,True,1,2.3333333333333335,1.0,1.0,1,2.8282566664194237,1.0085365853658537,3.0541801116590936,12.943757523395742
17571.42857142857,102.5,1,False,1,2.3333333333333335,1.0,1.0,1,3.0450678576438124,1.0,3.2050644701246616,12.949505170641123
17614.285714285714,102.75,0,False,1,2.3333333333333335,1.0,1.0,1,2.8320751964826423,1.008467741935484,3.0573978211812687,12.95002474814684
17657.142857142855,103,1,True,1,2.3333333333333335,1.0,1.0,1,3.051519647420808,1.0,3.2111948179136083,12.955496759906078
17700.0,103.25,0,True,1,2.3333333333333335,1.0,1.0,1,2.8358323822560862,1.0084,3.0605634669658675,12.955657160233761
17742.85714285714,103.5,1,False,1,2.3333333333333335,1.0,1.0,1,3.0579578250091917,1.0,3.217313484809173,12.969676258961975
17785.714285714286,103.75,0,False,1,2.3333333333333335,1.0,1.0,1,2.8395296902085376,1.0083333333333333,3.0636783001883607,12.970155969494014
17828.571428571428,104,1,True,1,2.3333333333333335,1.0,1.0,1,3.0579578250091917,1.0,3.217313484809173,12.98355126527577
17871.42857142857,104.25,0,True,1,2.3333333333333335,1.0,1.0,1,2.8431685404356677,1.0082677165354332,3.0667435323329078,12.984777465478082
17914.285714285714,104.5,1,False,1,2.3333333333333335,1.0,1.0,1,3.0579578250091917,1.0,3.217313484809173,12.997583592736378
17957.142857142855,104.75,0,False,1,2.3333333333333335,1.0,1.0,1,2.8467503084786996,1.008203125,3.069760336750392,12.999533395631733
18000.0,105,1,True,1,2.3333333333333335,1.0,1.0,1,3.0579578250091917,1.0,3.217313484809173,13.011782188370944
18042.85714285714,105.25,0,True,1,2.3333333333333335,1.0,1.0,1,2.8614455459815877,1.016015625,3.134512196163873,13.020969561113079
18085.714285714286,105.5,1,False,1,2.3333333333333335,1.0,1.0,1,3.0579578250091917,1.0,3.217313484809173,13.028582248922339
18128.571428571428,105.75,0,False,1,2.3333333333333335,1.0,1.0,1,2.8846368859777876,1.016015625,3.1570825569263135,13.03827071072542
18171.42857142857,106,1,True,1,2.3333333333333335,1.0,1.0,1,3.0579578250091917,1.0,3.217313484809173,13.046140230856963
18214.285714285714,106.25,0,True,1,2.3333333333333335,1.0,1.0,1,2.9035364562303867,1.015625,3.1729165676233766,13.056109247950463
18257.142857142855,106.5,1,False,1,2.3333333333333335,1.0,1.0,1,3.0579578250091917,1.0,3.217313484809173,13.063738122956025
18300.0,106.75,0,False,1,2.3333333333333335,1.0,1.0,1,2.9121170513894703,1.015625,3.1812723927168816,13.07374187070155
18342.85714285714,107,1,True,1,2.3333333333333335,1.0,1.0,1,3.0579578250091917,1.0,3.217313484809173,13.081137361105293
18385.714285714283,107.25,0,True,1,2.3333333333333335,1.0,1.0,1,2.9185691512073557,1.015625,3.1875572387936346,13.091112219226341
18428.571428571428,107.5,1,False,1,2.3333333333333335,1.0,1.0,1,3.0579578250091917,1.0,3.217313484809173,13.098281263093828
18471.42857142857,107.75,0,False,1,2.3333333333333335,1.0,1.0,1,2.93145908728226,1.015625,3.2001175228536614,13.108445003348752
18514.285714285714,108,1,True,1,2.3333333333333335,1.0,1.0,1,3.0579578250091917,1.0,3.217313484809173,13.115394235024484
18557.142857142855,108.25,0,True,1,2.3333333333333335,1.0,1.0,1,2.9443490236311347,1.015625,3.212683727485591,13.12575285913758
18600.0,108.5,1,False,1,2.3333333333333335,1.0,1.0,1,3.0579578250091917,1.0,3.217313484809173,13.132488626647207
18642.85714285714,108.75,0,False,1,2.3333333333333335,1.0,1.0,1,2.9572389602503972,1.015625,3.2252557834864306,13.14304792203714
18685.714285714283,109,1,True,1,2.3333333333333335,1.0,1.0,1,3.0579578250091917,1.0,3.217313484809173,13.149576303266393
18728.571428571428,109.25,0,True,1,2.3333333333333335,1.0,1.0,1,2.970128897136527,1.015625,3.237833622696035,13.160341853264006
18771.42857142857,109.5,1,False,1,2.3333333333333335,1.0,1.0,1,3.0579578250091917,1.0,3.217313484809173,13.166668671015557
18814.285714285714,109.75,0,False,1,2.3333333333333335,1.0,1.0,1,2.983018834286066,1.015625,3.2504171779781577,13.177645864478123
18857.142857142855,110,1,True,1,2.3333333333333335,1.0,1.0,1,3.0579578250091917,1.0,3.217313484809173,13.183776700498068
18900.0,110.25,0,True,1,2.3333333333333335,1.0,1.0,1,2.995908771695613,1.015625,3.2630063832019016,13.194970740862237
18942.85714285714,110.5,1,False,1,2.3333333333333335,1.0,1.0,1,3.0579578250091917,1.0,3.217313484809173,13.204419900563133
18985.714285714283,110.75,0,False,1,2.3333333333333335,1.0,1.0,1,3.0087987093618267,1.015625,3.2756011732235537,13.21275644224493
19028.571428571428,111,1,True,1,2.3333333333333335,1.0,1.0,1,3.0579578250091917,1.0,3.217313484809173,13.221813252453167
19071.42857142857,111.25,0,True,1,2.3333333333333335,1.0,1.0,1,3.021688647281422,1.015625,3.288201483868801,13.231167101057837
19114.285714285714,111.5,1,False,1,2.3333333333333335,1.0,1.0,1,3.0579578250091917,1.0,3.217313484809173,13.239849009759103
19157.142857142855,111.75,0,False,1,2.3333333333333335,1.0,1.0,1,3.0345785854511704,1.015625,3.300807251915318,13.251166913770854
19200.0,112,1,True,1,2.3333333333333335,1.0,1.0,1,3.0579578250091917,1.0,3.217313484809173,13.258703394443781
19242.85714285714,112.25,0,True,1,2.3333333333333335,1.0,1.0,1,3.0474685238678982,1.015625,3.3134184150757098,13.27026950299054
19285.714285714283,112.5,1,False,1,2.3333333333333335,1.0,1.0,1,3.0579578250091917,1.0,3.217313484809173,13.278023005552331
19328.571428571428,112.75,0,False,1,2.3333333333333335,1.0,1.0,1,3.0603584625284843,1.015625,3.3260349119808112,13.28984131479712
19371.42857142857,113,1,True,1,2.3333333333333335,1.0,1.0,1,3.0579578250091917,1.0,3.217313484809173,13.297393499417357
19414.285714285714,113.25,0,True,1,2.3333333333333335,1.0,1.0,1,3.074540367589967,1.015625,3.339922058054536,13.30951057828802
19457.142857142855,113.5,1,False,1,2.3333333333333335,1.0,1.0,1,3.0579578250091917,1.0,3.217313484809173,13.317324340447964
19500.0,113.75,0,False,1,2.3333333333333335,1.0,1.0,1,3.0822646206124795,1.015625,3.3474884256776045,13.329407440579741
19542.85714285714,114,1,True,1,2.3333333333333335,1.0,1.0,1,3.0579578250091917,1.0,3.217313484809173,13.337058433538383
19585.714285714283,114.25,0,True,1,2.3333333333333335,1.0,1.0,1,3.0822646206124795,1.015625,3.3474884256776045,13.348942403427028
19628.571428571428,114.5,1,False,1,2.3333333333333335,1.0,1.0,1,3.0579578250091917,1.0,3.217313484809173,13.357102995877836
19671.42857142857,114.75,0,False,1,2.3333333333333335,1.0,1.0,1,3.0822646206124795,1.015625,3.3474884256776045,13.368830811497904
19714.285714285714,115,1,True,1,2.3333333333333335,1.0,1.0,1,3.0579578250091917,1.0,3.217313484809173,13.37712325595686
19757.142857142855,115.25,0,True,1,2.3333333333333335,1.0,1.0,1,3.0822646206124795,1.015625,3.3474884256776045,13.388698074716
19800.0,115.5,1,False,1,2.3333333333333335,1.0,1.0,1,3.0579578250091917,1.0,3.217313484809173,13.395730572044434
19842.85714285714,115.75,0,False,1,2.3333333333333335,1.0,1.0,1,3.0822646206124795,1.015625,3.3474884256776045,13.40853966099204
19885.714285714283,116,1,True,1,2.3333333333333335,1.0,1.0,1,3.0579578250091917,1.0,3.217313484809173,13.415425195877127
19928.571428571428,116.25,0,True,1,2.3333333333333335,1.0,1.0,1,3.090008279735029,1.015625,3.3550756670718984,13.426815050023519
19971.42857142857,116.5,1,False,1,2.3333333333333335,1.0,1.0,1,3.0579578250091926,1.0,3.217313484809174,13.435675162115327
20014.285714285714,116.75,0,False,1,2.3333333333333335,1.0,1.0,1,3.097732581450935,1.015625,3.3626457891830293,13.44717917092526
20057.142857142855,117,1,True,1,2.3333333333333335,1.0,1.0,1,3.0579578250091934,1.0,3.217313484809175,13.453640791576776
20100.0,117.25,0,True,1,2.3333333333333335,1.0,1.0,1,3.097732581450935,1.015625,3.3626457891830293,13.467899836242294
20142.85714285714,117.5,1,False,1,2.3333333333333335,1.0,1.0,1,3.057957825009194,1.0,3.2173134848091753,13.474092190958972
20185.714285714283,117.75,0,False,1,2.3333333333333335,1.0,1.0,1,3.097732581450935,1.015625,3.3626457891830293,13.488835280236303
20228.571428571428,118,1,True,1,2.3333333333333335,1.0,1.0,1,3.057957825009194,1.0,3.2173134848091753,13.498778510499662
20271.42857142857,118.25,0,True,1,2.3333333333333335,1.0,1.0,1,3.097732581450935,1.015625,3.3626457891830293,13.513420577972463
20314.285714285714,118.5,1,False,1,2.3333333333333335,1.0,1.0,1,3.057957825009194,1.0,3.2173134848091753,13.522958493321145
20357.142857142855,118.75,0,False,1,2.3333333333333335,1.0,1.0,1,3.097732581450935,1.015625,3.3626457891830293,13.537204429475283
20400.0,119,1,True,1,2.3333333333333335,1.0,1.0,1,3.057957825009194,1.0,3.2173134848091753,13.546355089660114
20442.85714285714,119.25,0,True,1,2.3333333333333335,1.0,1.0,1,3.097732581450935,1.015625,3.3626457891830293,13.560222352875646
20485.714285714283,119.5,1,False,1,2.3333333333333335,1.0,1.0,1,3.057957825009194,1.0,3.2173134848091753,13.569002641198779
20528.571428571428,119.75,0,False,1,2.3333333333333335,1.0,1.0,1,3.097732581450935,1.015625,3.3626457891830293,13.582507564578554
20571.42857142857,120,1,True,1,2.3333333333333335,1.0,1.0,1,3.057957825009194,1.0,3.2173134848091753,13.589436941530728
20614.285714285714,120.25,0,True,1,2.3333333333333335,1.0,1.0,1,3.097732581450935,1.015625,3.3626457891830293,13.602766494313778
20657.142857142855,120.5,1,False,1,2.3333333333333335,1.0,1.0,1,3.064409586157401,1.0,3.2234463097333226,13.610114598138521
20700.0,120.75,0,False,1,2.3333333333333335,1.0,1.0,1,3.097732581450935,1.015625,3.3626457891830293,13.623272483807774
20742.85714285714,121,1,True,1,2.3333333333333335,1.0,1.0,1,3.077299525133828,1.0,3.2357027625214405,13.630899580027663
20785.714285714283,121.25,0,True,1,2.3333333333333335,1.0,1.0,1,3.097732581450935,1.015625,3.3626457891830293,13.643889386348338
20828.571428571428,121.5,1,False,1,2.3333333333333335,1.0,1.0,1,3.090189464347091,1.0,3.2479641201161322,13.651798043209071
20871.42857142857,121.75,0,False,1,2.3333333333333335,1.0,1.0,1,3.097732581450935,1.015625,3.3626457891830293,13.66462324698255
20914.285714285714,122,1,True,1,2.3333333333333335,1.0,1.0,1,3.103079403794237,1.0,3.260230327178127,13.672815967138082
20957.142857142855,122.25,0,True,1,2.3333333333333335,1.0,1.0,1,3.097732581450935,1.015625,3.3626457891830293,13.685479938715147
21000.0,122.5,1,False,1,2.3333333333333335,1.0,1.0,1,3.115969343472364,1.0,3.272501329176139,13.693959161486324
21042.85714285714,122.75,0,False,1,2.3333333333333335,1.0,1.0,1,3.097732581450935,1.015625,3.3626457891830293,13.706465169054173
21085.714285714283,123,1,True,1,2.3333333333333335,1.0,1.0,1,3.1316283160722547,1.0,3.287414776085541,13.715322274483418
21128.571428571428,123.25,0,True,1,2.3333333333333335,1.0,1.0,1,3.097732581450935,1.015625,3.3626457891830293,13.727673488139835
21171.42857142857,123.5,1,False,1,2.3333333333333335,1.0,1.0,1,3.140821900929493,1.0,3.2961738748673977,13.73670297591395
21214.285714285714,123.75,0,False,1,2.3333333333333335,1.0,1.0,1,3.097732581450935,1.015625,3.3626457891830293,13.748902471541182
21257.142857142855,124,1,True,1,2.3333333333333335,1.0,1.0,1.05,3.1408219009294935,1.000390625,3.2988681359125667,13.758324162751927
21428.571428571428,125,1,False,1,1.1666666666666667,1.0,1.0,1.05,3.134383543407578,1.00078125,3.2954201529152445,13.768592274729246
21600.0,126,0,True,1,0.5185185185185186,1.0,1.0,1,3.0877233272698317,1.015625,3.3528366760199813,13.780136176303712
21771.42857142857,127,0,False,1,1.1666666666666667,1.0,1.0,1.5,3.0712432998072874,1.01953125,3.363686197752197,13.793044372669678
21942.855834960938,127.99999237060547,1,True,1,0.3888898778869914,1.0,1.0,1,3.117208806985832,1.00078125,3.27903775679213,13.80197411064322
21942.85714285714,128,0,True,1,1.1666666666666667,1.0,1.0,1,3.0583533609431677,1.01953125,3.3509728197359046,13.814301086848713
22114.285714285714,129,0,False,2,1.1666666666666667,1.0,1.0,1.05,3.045463422320312,1.019921875,3.340952365056651,13.825197998392154
22285.714285714283,130,0,True,2,1.1666666666666667,1.0,1.0,1,3.032573483941796,1.019921875,3.328240522017678,13.836608601218494
22457.142857142855,131,0,False,2,1.1666666666666667,1.0,1.0,1,3.01968354581075,1.019921875,3.3155341687225954,13.846527901201025
22628.571428571428,132,0,True,2,1.1666666666666667,1.0,1.0,1,3.006793607930355,1.019921875,3.3028333685302997,13.85693469996548
22714.285714285714,132.5,0,False,2,2.3333333333333335,1.0,1.0,1,3.000341716912511,1.016015625,3.2699803307431083,13.86519893305769
22800.0,133,0,True,2,2.3333333333333335,1.0,1.0,1,3.000341716912511,1.016015625,3.2699803307431083,13.874353432955854
22885.714285714283,133.5,0,False,2,2.3333333333333335,1.0,1.0,1,3.000341716912511,1.012109375,3.2436034298666176,13.881611588365992
22971.42857142857,134,0,True,2,2.3333333333333335,1.0,1.0,1,3.000341716912511,1.012109375,3.2436034298666176,13.8897349777841
23057.142857142855,134.5,0,False,2,2.3333333333333335,1.0,1.0,1,3.000341716912511,1.008203125,3.2173473386823406,13.895993002971096
23142.85714285714,135,0,True,2,2.3333333333333335,1.0,1.0,1,3.000341716912511,1.008203125,3.2173473386823406,13.903091954183177
23228.571428571428,135.5,0,False,2,2.3333333333333335,1.0,1.0,1,3.000341716912511,1.004296875,3.1912118458015435,13.908355744627016
23314.285714285714,136,0,True,2,2.3333333333333335,1.0,1.0,1,3.000341716912511,1.004296875,3.1912118458015435,13.91443685196864
23400.0,136.5,0,False,2,2.3333333333333335,1.0,1.0,1,3.000341716912511,1.004296875,3.1912118458015435,13.919590059174165
23485.714285714283,137,0,True,2,2.3333333333333335,1.0,1.0,1,3.0003417169125113,1.004296875,3.191211845801544,13.925537648170378
23571.42857142857,137.5,0,False,2,2.3333333333333335,1.0,1.0,1,3.000341716912512,1.004296875,3.191211845801545,13.930582012880237
23657.142857142855,138,0,True,2,2.3333333333333335,1.0,1.0,1,3.0003417169125126,1.004296875,3.1912118458015453,13.93639847452542
23742.85714285714,138.5,0,False,2,2.3333333333333335,1.0,1.0,1,3.0003417169125126,1.004296875,3.1912118458015453,13.941335696732846
23828.571428571428,139,0,True,2,2.3333333333333335,1.0,1.0,1,3.000341716912512,1.004296875,3.191211845801545,13.94702335851659
23914.285714285714,139.5,0,False,2,2.3333333333333335,1.0,1.0,1,3.000341716912512,1.004296875,3.191211845801545,13.95185509872633
24000.0,140,0,True,2,2.3333333333333335,1.0,1.0,1,3.000341716912512,1.004296875,3.191211845801545,13.957416226856704
24085.714285714283,140.5,0,False,2,2.3333333333333335,1.0,1.0,1,3.0067936079303563,1.004296875,3.1973834420583893,13.96235235045565
24171.42857142857,141,0,True,2,2.3333333333333335,1.0,1.0,1,3.019683545810751,1.004296875,3.209717364897027,13.968413568681424
24257.142857142855,141.5,0,False,2,2.3333333333333335,1.0,1.0,1,3.032573483941797,1.004296875,3.2220565327719495,13.972011615094788
24342.85714285714,142,0,True,2,2.3333333333333335,1.0,1.0,1,3.0467554155340832,1.004296875,3.2356384769611135,13.978825291679472
24428.571428571428,142.5,0,False,2,2.3333333333333335,1.0,1.0,1,3.054479579847106,1.004296875,3.2430384711184823,13.982513902542976
24514.285714285714,143,0,True,2,2.3333333333333335,1.0,1.0,1,3.0544795798471065,1.004296875,3.2430384711184823,13.989457189219356
24600.0,143.5,0,False,2,2.3333333333333335,1.0,1.0,1,3.0544795798471065,1.004296875,3.2430384711184823,13.992733513984652
24685.714285714283,144,0,True,2,2.3333333333333335,1.0,1.0,1,3.0544795798471065,1.004296875,3.2430384711184823,13.999558760226108
24771.42857142857,144.5,0,False,2,2.3333333333333335,1.0,1.0,1,3.0544795798471074,1.004296875,3.243038471118483,14.002422618819569
24857.142857142855,145,0,True,2,2.3333333333333335,1.0,1.0,1,3.0544795798471083,1.004296875,3.2430384711184845,14.009131814576628
24942.85714285714,145.5,0,False,2,2.3333333333333335,1.0,1.0,1,3.054479579847109,1.004296875,3.243038471118485,14.011514066009816
25028.571428571428,146,0,True,2,2.3333333333333335,1.0,1.0,1,3.0544795798471096,1.004296875,3.2430384711184854,14.018109151434523
25114.285714285714,146.5,0,False,2,2.3333333333333335,1.0,1.0,1,3.0544795798471096,1.004296875,3.2430384711184854,14.020009900316245
25200.0,147,0,True,2,2.3333333333333335,1.0,1.0,1,3.06222332678924,1.004296875,3.2504590588645548,14.026743154269397
25285.714285714283,147.5,0,False,2,2.3333333333333335,1.0,1.0,1,3.0763992754198135,1.004296875,3.2640481353233786,14.028939763632364
25371.42857142857,148,0,True,2,2.3333333333333335,1.0,1.0,1,3.0905811653793953,1.004296875,3.2776489429511764,14.036480090838229
25457.142857142855,148.5,0,False,2,2.3333333333333335,1.0,1.0,1,3.0983054688894,1.004296875,3.285059267136082,14.039179290278012
25542.85714285714,149,0,True,2,2.3333333333333335,1.0,1.0,1,3.0983054688894,1.004296875,3.285059267136082,14.04686108547394
25628.571428571428,149.5,0,False,2,2.3333333333333335,1.0,1.0,1,3.104757141961552,1.004296875,3.29125003801335,14.049562323720899
25714.285714285714,150,0,True,2,2.3333333333333335,1.0,1.0,1,3.117647081669532,1.004296875,3.3036223583239037,14.057763662406643
25799.999999999996,150.5,0,False,2,2.3333333333333335,1.0,1.0,1,3.1240854036201586,1.004296875,3.3098039422277075,14.06088449276282
25885.714285714283,151,0,True,2,2.3333333333333335,1.0,1.0,1,3.1305370216052695,1.004296875,3.3159994889922433,14.069398361625664
25971.42857142857,151.5,0,False,2,2.3333333333333335,1.0,1.0,1,3.143426961765963,1.004296875,3.328381376354063,14.073146035247403
26057.142857142855,152,0,True,2,2.3333333333333335,1.0,1.0,1,3.157608790263735,1.004296875,3.3420096650130984,14.082434116708695
26142.85714285714,152.5,0,False,2,2.3333333333333335,1.0,1.0,1,3.171784830897821,1.004296875,3.3556380125982495,14.087101488861203
26228.571428571428,153,0,True,2,2.3333333333333335,1.0,1.0,1,3.178223266554752,1.004296875,3.3618295358361503,14.09695654253973
26314.285714285714,153.5,0,False,2,2.3333333333333335,1.0,1.0,1,3.178223266554752,1.004296875,3.3618295358361503,14.10183283023024
26399.999999999996,154,0,True,2,2.3333333333333335,1.0,1.0,1,3.178223266554752,1.004296875,3.3618295358361503,14.109503014527462
26485.714285714283,154.5,0,False,2,2.3333333333333335,1.0,1.0,1,3.178223266554752,1.004296875,3.3618295358361503,14.114379302217975
26571.42857142857,155,0,True,2,2.3333333333333335,1.0,1.0,1,3.178223266554752,1.004296875,3.3618295358361503,14.12128791317041
26657.142857142855,155.5,0,False,2,2.3333333333333335,1.0,1.0,1,3.178223266554752,1.004296875,3.3618295358361503,14.126164200860922
26742.85714285714,156,0,True,2,2.3333333333333335,1.0,1.0,1,3.178223266554752,1.004296875,3.3618295358361503,14.132538537655536
26828.571428571428,156.5,0,False,2,2.3333333333333335,1.0,1.0,1,3.178223266554752,1.004296875,3.3618295358361503,14.137414825346049
26914.285714285714,157,0,True,2,2.3333333333333335,1.0,1.0,1,3.178223266554752,1.004296875,3.3618295358361503,14.143507218323643
26999.999999999996,157.5,0,False,2,2.3333333333333335,1.0,1.0,1,3.178223266554752,1.004296875,3.3618295358361503,14.148383506014154
27085.714285714283,158,0,True,2,2.3333333333333335,1.0,1.0,1,3.178223266554752,1.004296875,3.3618295358361503,14.154263834537018
27171.42857142857,158.5,0,False,2,2.3333333333333335,1.0,1.0,1,3.1782232665547516,1.004296875,3.36182953583615,14.159140122227528
27257.142857142855,159,0,True,2,2.3333333333333335,1.0,1.0,1,3.178223266554751,1.004296875,3.3618295358361494,14.164596639290586
27342.85714285714,159.5,0,False,2,2.3333333333333335,1.0,1.0,1,3.178223266554751,1.004296875,3.3618295358361494,14.169472926981099
27942.85714285714,163,0,True,2,0.3333333333333333,1.0,1.0,1,3.167193994208106,1.004296875,3.3512239323605533,14.17414757655028
28028.571428571428,163.5,0,False,2,2.3333333333333335,1.0,1.0,1,3.156126179642671,1.004296875,3.3405846586536248,14.178307015611486
28114.285714285714,164,0,True,3,2.3333333333333335,1.0,1.0,1,3.1682580761629087,1.004296875,3.3522469930635896,14.182591976815887
28285.714285714283,165,0,False,2,1.1666666666666667,1.0,1.0,1,3.173905254055171,1.004296875,3.3576769918946514,14.187328148590124
28457.142857142855,166,0,True,2,1.1666666666666667,1.0,1.0,1,3.161015313373449,1.004296875,3.345284066321843,14.190953761605906
28628.571428571428,167,0,False,2,1.1666666666666667,1.0,1.0,1,3.1481253729102385,1.004296875,3.3328957736118023,14.194853760866366
28799.999999999996,168,0,True,2,1.1666666666666667,1.0,1.0,1,3.1352354326682352,1.004296875,3.3205121656179104,14.197218919082117
28971.42857142857,169,0,False,2,1.1666666666666667,1.0,1.0,1,3.1223454926501777,1.004296875,3.308133294950219,14.20028337814461
29142.85714285714,170,0,True,2,1.1666666666666667,1.0,1.0,1,3.109455552858852,1.004296875,3.2957592149889168,14.201388530335922
29314.285714285714,171,0,False,2,1.1666666666666667,1.0,1.0,1,3.0965656132970896,1.004296875,3.2833899798980704,14.203618095822558
29485.714285714283,172,0,True,2,1.1666666666666667,1.0,1.0,1,3.083675673967768,1.004296875,3.271025644639653,14.203463707479168
29657.142857142855,173,0,False,2,1.1666666666666667,1.0,1.0,1,3.070785734873816,1.004296875,3.2586662649878684,14.204859040741605
29828.571428571428,174,0,True,2,1.1666666666666667,1.3,1.0,1,3.057895796018208,1.006640625,3.262223403970149,14.203982483498775
29999.999999999996,175,0,False,2,1.1666666666666667,1.0,1.0,1,3.045005857403973,1.006640625,3.249819231438972,14.205079298496386
30171.42857142857,176,0,True,2,1.1666666666666667,1.0,1.0,1,3.0321159190341884,1.006640625,3.2374202313364457,14.202940481762948
30342.85714285714,177,1,False,1,1.1666666666666667,1.0,1.0,1,3.0306836162602835,1.0062499999999999,3.2334071554558244,14.20348351741547
30385.714285714283,177.25,0,False,1,0.9333333333333333,1.0,1.0,1,3.017940015113983,1.006640625,3.223790287307989,14.20045926832306
30428.571428571428,177.5,1,True,1,2.3333333333333335,1.0,1.0,1,3.024231779691101,1.0062499999999999,3.227207876960959,14.200793126758244
30471.42857142857,177.75,0,True,1,2.3333333333333335,1.0,1.0,1,3.0101961248637057,1.006640625,3.2163473406636562,14.197092028160442
30514.285714285714,178,1,False,1,2.3333333333333335,1.0,1.0,1,3.024231779691101,1.0062499999999999,3.227207876960959,14.197425886595628
30557.142857142855,178.25,0,False,1,2.3333333333333335,1.0,1.0,1,3.010196124863706,1.006640625,3.2163473406636567,14.193256205311163
30599.999999999996,178.5,1,True,1,2.3333333333333335,1.0,1.0,1,3.024231779691101,1.0062499999999999,3.227207876960959,14.19359006374635
30642.85714285714,178.75,0,True,1,2.3333333333333335,1.0,1.0,1,3.0101961248637066,1.006640625,3.216347340663657,14.189165076666855
30685.714285714283,179,1,False,1,2.3333333333333335,1.0,1.0,1,3.024231779691101,1.0062499999999999,3.227207876960959,14.189498935102039
30728.571428571428,179.25,0,False,1,2.3333333333333335,1.0,1.0,1,3.0101961248637066,1.006640625,3.216347340663657,14.185073948022545
30771.42857142857,179.5,1,True,1,2.3333333333333335,1.0,1.0,1,3.024231779691101,1.0062499999999999,3.227207876960959,14.18540780645773
30814.285714285714,179.75,0,True,1,2.3333333333333335,1.0,1.0,1,3.0101961248637066,1.006640625,3.216347340663657,14.180982819378233
30857.142857142855,180,1,False,1,2.3333333333333335,1.0,1.0,1,3.0242317796911014,1.0062499999999999,3.2272078769609593,14.181316677813417
31028.571428571428,181,0,False,2,0.9333333333333333,1.0,1.0,1,3.002472105328418,1.006640625,3.2089254107458616,14.176641258583023
31199.999999999996,182,0,True,2,1.1666666666666667,1.0,1.0,1,2.9882901304479996,1.006640625,3.195303131259355,14.175898581106603
31371.42857142857,183,0,False,2,1.1666666666666667,1.0,1.0,1,2.9754001931917236,1.006640625,3.182927610766832,14.17034593923473
31542.85714285714,184,0,True,2,1.1666666666666667,1.0,1.0,1,2.9625102561974583,1.006640625,3.1705575957146395,14.168768293258173
31714.285714285714,185,0,False,2,1.1666666666666667,1.0,1.0,1,2.9496203194686386,1.006640625,3.1581931507939247,14.162125046478451
31885.714285714283,186,0,True,2,1.1666666666666667,1.0,1.0,1,2.9367303830087605,1.006640625,3.145834341683531,14.159713183828766
32057.142857142855,187,0,False,2,1.1666666666666667,1.0,1.0,1,2.9238404468213806,1.006640625,3.1334812350683037,14.151980670475472
32228.571428571428,188,0,True,1,1.1666666666666667,1.0,1.0,1,2.910950510910118,1.006640625,3.1211338986577983,14.148735360845881
32271.42857142857,188.25,1,False,1,0.9333333333333333,1.0,1.0,1,2.9262782479585856,1.0062499999999999,3.13325520671528,14.14099522080152
32314.285714285714,188.5,0,False,1,2.3333333333333335,1.0,1.0,1,2.904498392467593,1.006640625,3.1149555693729623,14.137541440826762
32357.142857142855,188.75,1,True,1,2.3333333333333335,1.0,1.0,1,2.918534047294987,1.0062499999999999,3.125841095335895,14.12955113244609
32399.999999999996,189,0,True,1,2.3333333333333335,1.0,1.0,1,2.904498392467593,1.006640625,3.1149555693729623,14.126097352471332
32442.85714285714,189.25,1,False,1,2.3333333333333335,1.0,1.0,1,2.918534047294987,1.0062499999999999,3.125841095335895,14.118107044090662
32485.714285714283,189.5,0,False,1,2.3333333333333335,1.0,1.0,1,2.904498392467593,1.006640625,3.1149555693729623,14.114653264115907
32528.571428571428,189.75,1,True,1,2.3333333333333335,1.0,1.0,1,2.918534047294987,1.0062499999999999,3.125841095335895,14.106662955735237
32571.42857142857,190,0,True,1,2.3333333333333335,1.0,1.0,1,2.904498392467593,1.006640625,3.1149555693729623,14.10320917576048
32614.285714285714,190.25,1,False,1,2.3333333333333335,1.0,1.0,1,2.918534047294987,1.0062499999999999,3.125841095335895,14.095218867379812
32657.142857142855,190.5,0,False,1,2.3333333333333335,1.0,1.0,1,2.904498392467593,1.006640625,3.1149555693729623,14.091765087405054
32699.999999999996,190.75,1,True,1,2.3333333333333335,1.0,1.0,1,2.918534047294987,1.0062499999999999,3.125841095335895,14.083774779024381
32742.85714285714,191,0,True,1,2.3333333333333335,1.0,1.0,1,2.904498392467593,1.006640625,3.1149555693729623,14.080320999049624
32785.71428571428,191.25,1,False,1,2.3333333333333335,1.0,1.0,1,2.918534047294987,1.0062499999999999,3.125841095335895,14.072330690668954
32828.57142857143,191.5,0,False,1,2.3333333333333335,1.0,1.0,1,2.904498392467593,1.006640625,3.1149555693729623,14.068669975765701
32871.42857142857,191.75,1,True,1,2.3333333333333335,1.0,1.0,1,2.918534047294987,1.0062499999999999,3.125841095335895,14.06067966738503
32914.28571428571,192,0,True,2,2.3333333333333335,1.0,1.0,1,2.904498392467593,1.006640625,3.1149555693729623,14.056605392953715
33085.71428571428,193,1,False,1,0.9333333333333333,1.0,1.0,1,2.910810341430209,1.0062499999999999,3.118448686725643,14.048365648535643
33128.57142857143,193.25,0,False,1,0.9333333333333333,1.0,1.0,1,2.896774736385802,1.006640625,3.107561594848011,14.043628160202571
33171.42857142857,193.5,1,True,1,2.3333333333333335,1.0,1.0,1,2.9030660864565316,1.0062499999999999,3.111038712422438,14.03513838704219
33214.28571428571,193.75,0,True,1,2.3333333333333335,1.0,1.0,1,2.889030431629137,1.006640625,3.100149985465379,14.029736926137053
33257.142857142855,194,1,False,1,2.3333333333333335,1.0,1.0,1,2.9030660864565316,1.0062499999999999,3.111038712422438,14.02124715297667
33314.28745814732,194.33334350585938,0,False,1,1.9999651233760574,1.0,1.0,1,2.887189402396753,1.006640625,3.0983883626821,14.01537220061505
33428.57142857143,195,0,True,2,1.7500267032883192,1.0,1.0,1,2.88212665551132,1.006640625,3.093544608295889,14.006292138113084
33600.0,196,0,False,2,1.1666666666666667,1.0,1.0,1,2.8724647564943813,1.006640625,3.084303212003263,13.999438709634399
33771.42857142857,197,0,True,2,1.1666666666666667,1.0,1.0,1,2.8595748217209143,1.006640625,3.071979567756939,13.989630995491122
34457.142857142855,201,0,True,1,0.2916666666666667,1.0,2.0,1,2.841866235078484,1.014453125,3.105357090522166,13.983192419775598
34542.85714285714,201.5,0,False,1,2.3333333333333335,1.0,1.0,1,2.8305651322041396,1.014453125,3.094406364947104,13.974141434828137
34628.57142857143,202,1,True,1,0.23333333333333334,1.0,2.0,1,2.852818801467976,1.0140624999999999,3.1134410127816956,13.967884718071868
34714.28571428571,202.5,1,False,1,2.3333333333333335,1.0,1.0,1,2.8411942431027093,1.0140624999999999,3.102180212128521,13.961364379757354
34800.0,203,0,True,2,0.7777777777777779,1.0,1.0,1,2.8219849045340344,1.014453125,3.0860954770517233,13.952363948207793
34885.71428571428,203.5,0,False,2,2.3333333333333335,1.0,1.0,1,2.8133785090503,1.014453125,3.0777621473292998,13.942716245287665
34971.42857142857,204,0,True,2,2.3333333333333335,1.0,1.0,1,2.8133785090503,1.014453125,3.0777621473292998,13.935924765933992
35142.85714285714,205,0,False,2,1.1666666666666667,1.0,1.0,1,2.8069409245025643,1.014453125,3.0715307319102263,13.926495778611187
35314.28571428571,206,0,True,2,1.1666666666666667,1.0,1.0,1,2.7940509912720697,1.014453125,3.059058581864647,13.916984065723637
35485.71428571428,207,0,False,2,1.1666666666666667,1.0,1.0,1,2.781161058357987,1.014453125,3.0465931319702686,13.907480666679774
35657.142857142855,208,0,True,2,1.1666666666666667,1.0,1.0,1,2.7682711257647368,1.014453125,3.034134464807877,13.89798562510784
35828.57142857143,209,0,False,2,1.1666666666666667,1.0,1.0,1,2.755381193496822,1.014453125,3.0216826642748997,13.888498985329097
36000.0,210,1,True,1,1.1666666666666667,1.0,1.0,1,2.770306919573074,1.0140624999999999,3.0336258804548746,13.88052386915101
36171.42857142857,211,0,True,2,0.5833333333333334,1.0,1.0,1,2.739278256005741,1.014453125,3.0061368460524656,13.871621212819926
36342.85714285714,212,0,False,2,1.1666666666666667,1.0,1.0,1,2.7231563642806926,1.014453125,2.9905837672027267,13.863083775921135
36857.142857142855,215,0,True,2,0.38888888888888895,1.0,1.0,1,2.705983434364566,1.014453125,2.974029075386997,13.853987747507091
37542.85714285714,219,0,True,1,0.2916666666666667,1.0,2.0,1,2.683965451589208,1.022265625,3.0013746125143257,13.846700355285845
37714.28571428571,220,0,False,3,1.1666666666666667,1.0,1.0,1,2.666225837934887,1.022265625,2.984057599635727,13.83882864916911
38228.57142857143,223,0,True,2,0.38888888888888895,1.0,1.0,1,2.649053203355274,1.022265625,2.9673081173434124,13.831273647581527
38314.28571428571,223.5,0,False,2,2.3333333333333335,1.0,1.0,1,2.6382897856705583,1.022265625,2.956817078886081,13.823364655407245
38400.0,224,0,True,2,2.3333333333333335,1.0,1.0,1,2.6382897856705583,1.022265625,2.956817078886081,13.815455663232965
38571.428571428565,225,0,False,2,1.1666666666666667,1.0,1.0,1,2.6318526933635993,1.022265625,2.950545549065923,13.807335055923579
