TimeMS,Beat,Type,Forehand,numNotes,SwingSpeed,Angle Diff,AngleChangeDiff,Pos Diff,C Stamina,C Pattern Diff,C CombinedDiff,C SmoothedDiff
15000.0,40,1,True,1,0,1.0,0,1,0.9503454715219414,0,0.0,0.0
15187.5,40.5,0,True,1,0,1.0,0,1.44,0,0,0,0.0
15281.25,40.75,1,False,1,0.7111111111111111,1.0,1.0,1,0.022222222222222223,0.03125,3.7446933844071516e-05,4.55229892431096e-05
15375.0,41,0,False,1,1.0666666666666667,1.0,1.0,1,0.03333333333333333,0.03125,4.462018269747174e-05,7.482469350675205e-05
15937.5,42.5,1,True,1,0.3047619047619048,1.0,1.0,1,0.03875097020867842,0.0625,0.00028725914705654836,0.000269386576668448
16031.25,42.75,0,True,1,0.3047619047619048,1.0,1.0,1,0.054294067861863714,0.0625,0.0003233963544978331,0.0004210598980326395
16125.0,43,1,False,1,1.0666666666666667,1.0,1.0,1,0.0724094903362352,0.09375,0.0010411310197329022,0.0009033377453088187
16312.5,43.5,0,False,1,0.7111111111111111,1.0,1.0,1,0.07792341402307032,0.09375,0.0010714411876707698,0.0012788637785746287
16406.25,43.75,1,True,1,0.7111111111111111,1.0,1.0,1,0.10888935165804758,0.125,0.002590259836697638,0.002186398650337035
16500.0,44,0,True,1,1.0666666666666667,1.0,1.0,1,0.11798467259776589,0.125,0.0026857453832544076,0.0029472501265762137
17062.5,45.5,1,False,1,0.3047619047619048,1.0,1.0,1,0.13037148697384804,0.15625,0.0049681739662625814,0.0043264937927928885
17156.25,45.75,0,False,1,0.3047619047619048,1.0,1.0,1,0.1460662485120932,0.15625,0.005221951185545968,0.005552990641200659
17250.0,46,1,True,1,1.0666666666666667,1.0,1.0,1,0.16222346472359878,0.1875,0.008716531365919487,0.007571159814301253
17625.0,47,0,True,1,0.4266666666666667,1.0,1.0,1,0.16234735645257775,0.1875,0.008719381807723631,0.00930176164562031
18000.0,48,1,False,1,0.26666666666666666,1.0,1.0,1,0.19005616718965707,0.21875,0.013866463826213777,0.0120530437741924
18093.75,48.25,0,True,1,0.4266666666666667,1.6,1.0,1,0.18117502315403522,0.2375,0.0168493918159322,0.015140336785349422
18187.5,48.5,1,True,1,1.0666666666666667,1.0,1.0,1,0.2206898698275361,0.25,0.020842041594576526,0.018720959662412426
18562.5,49.5,0,True,1,0.4266666666666667,1.0,1.0,1,0.20000806232175036,0.26875,0.02419641452783632,0.022583368780223913
18656.25,49.75,1,False,1,0.4266666666666667,1.0,1.0,1,0.25260190487840456,0.28125,0.029903036104529674,0.027134579511434217
18750.0,50,0,False,1,1.0666666666666667,1.0,1.0,1,0.23397428434433112,0.3,0.03424070855646798,0.03202164374113444
19125.0,51,1,True,1,0.4266666666666667,1.0,1.0,1,0.27144585946985966,0.3125,0.04042297656968298,0.0375169271605868
19500.0,52,0,True,1,0.26666666666666666,1.0,1.0,1,0.26231301754506076,0.33125,0.04636316447352371,0.043497360509421074
21000.0,56,1,False,1,0.10666666666666667,1.0,1.0,1,0.2830770037870725,0.34375,0.05261906238614302,0.04994972398824032
21187.5,56.5,0,False,1,0.11851851851851852,1.0,1.0,1,0.270770960445082,0.3625,0.05945652369231772,0.056903399734808756
21281.25,56.75,1,True,1,0.7111111111111111,1.0,1.0,1,0.3015473866652402,0.375,0.06766909869834506,0.06449883186353098
21375.0,57,0,True,1,1.0666666666666667,1.0,1.0,1,0.2978814105194719,0.39375,0.07654792059138127,0.07275542549942467
21937.5,58.5,1,False,1,0.3047619047619048,1.0,1.0,1,0.3236556006711532,0.40625,0.0857237754707983,0.08163983970840896
22031.25,58.75,0,False,1,0.3047619047619048,1.0,1.0,1,0.32732129540358373,0.425,0.09689386165030113,0.0913445566273461
22125.0,59,1,True,1,1.0666666666666667,1.0,1.0,1,0.3546741662037645,0.4375,0.10780098118576337,0.10175164703276446
22312.5,59.5,0,True,1,0.7111111111111111,1.0,1.0,1,0.35005270412270095,0.45625,0.1197080845043431,0.11291243827125028
22406.25,59.75,1,False,1,0.7111111111111111,1.0,1.0,1,0.39348769342611334,0.46875,0.13447537181630967,0.1250904783597287
22500.0,60,0,False,1,1.0666666666666667,1.0,1.0,1,0.3896970133484525,0.4875,0.14832492166539366,0.13808580682704005
23062.5,61.5,1,True,1,0.3047619047619048,1.0,1.0,1,0.4156762075204861,0.5,0.16255512709128367,0.1518661929383998
23156.25,61.75,0,True,1,0.3047619047619048,1.0,1.0,1,0.4193422101301406,0.51875,0.17950293641051127,0.16665386988400965
23250.0,62,1,False,1,1.0666666666666667,1.0,1.0,1,0.446548717518774,0.53125,0.19586448602943785,0.18230141018873391
24000.0,64,0,False,1,0.23703703703703705,1.0,1.0,1,0.43129211698876063,0.55,0.21142843388893273,0.19865635708329515
24093.75,64.25,1,True,1,0.23703703703703705,1.0,1.0,1,0.47476317694831066,0.5625,0.23289871296523962,0.21624352597791494
24187.5,64.5,0,True,1,1.0666666666666667,1.0,1.0,1,0.4606717437941688,0.58125,0.2505733728303185,0.23460135662881643
24562.5,65.5,1,False,1,0.4266666666666667,1.0,1.0,1,0.48949100699416886,0.59375,0.2712811584839285,0.25395420350989517
24656.25,65.75,0,False,1,0.4266666666666667,1.0,1.0,1,0.4931568114865144,0.6125,0.29500735376977283,0.2745026439021068
24750.0,66,1,True,1,1.0666666666666667,1.0,1.0,1,0.5229299828044093,0.625,0.31832480806295516,0.2961228373436553
25125.0,67,1,False,1,0.5333333333333333,1.0,1.0,1,0.5578783502595405,0.65625,0.37094461377286586,0.3212826508933217
25500.0,68,0,True,2,0.23703703703703705,1.0,1.0,1,0.5077596156376291,0.64375,0.33977755401450516,0.34262883900024216
27000.0,72,1,True,1,0.13333333333333333,1.0,2.0,1,0.5960627557589426,0.75,0.5388828704809672,0.3795078614921479
27046.875,72.125,0,True,1,0.1292929292929293,1.0,3.25,1,0.5158353363613978,0.7453125,0.4675576609628488,0.408967304337467
27093.75,72.25,1,False,1,2.1333333333333333,1.0,1.0,1,0.6478595300059447,0.78125,0.6194612933535515,0.4491892180879655
27140.625,72.375,0,False,1,2.1333333333333333,1.0,1.0,1,0.5677851792940013,0.7765625,0.5462050121373137,0.48201518534704674
27187.5,72.5,1,True,1,2.1333333333333333,1.0,1.0,1,0.7419222344779953,0.8125,0.7263533508859824,0.5271609246248412
27234.375,72.625,0,True,1,2.1333333333333333,1.0,1.0,1,0.6617868690707289,0.8078125,0.6814571179334381,0.5671224181856249
27281.25,72.75,1,False,1,2.1333333333333333,1.0,1.0,1,0.8360340969026905,0.84375,0.8456109941119966,0.6174588357324411
27328.125,72.875,0,False,1,2.1333333333333333,1.0,1.0,1,0.755858113736125,0.8390625,0.7950654262199691,0.6622067724714956
27375.0,73,1,True,1,2.1333333333333333,1.0,1.0,1,0.9301801965924403,0.875,0.9777424541112391,0.7180456178113457
27421.875,73.125,0,True,1,2.1333333333333333,1.0,1.0,1,0.8499758196000669,0.8703125,0.9214399332863894,0.767903086092178
27468.75,73.25,1,False,1,2.1333333333333333,1.0,1.0,1,1.024351093551123,0.90625,1.1232713267113827,0.8295450757667008
27515.625,73.375,0,False,1,2.1333333333333333,1.0,1.0,1,0.9441260919425197,0.9015625,1.0610859392757626,0.8848220820352827
27562.5,73.5,1,True,1,2.1333333333333333,1.0,1.0,1,1.1185405246855347,0.9375,1.2827332320799165,0.9525596894524286
27609.375,73.625,0,True,1,2.1333333333333333,1.0,1.0,1,1.0383000716778763,0.9328125,1.2145242055285128,1.0135563576648858
27656.25,73.75,1,False,1,2.1333333333333333,1.0,1.0,1,1.2127441715572076,0.96875,1.4566731342554018,1.0876758501297925
27703.125,73.875,0,False,1,2.1333333333333333,1.0,1.0,1,1.1324918445550451,0.9640625,1.3822877310730672,1.1546847908940923
27750.0,74,1,True,1,2.1333333333333333,1.0,1.0,1,1.3069589602225247,1.0,1.645643255297436,1.2354677269136867
27796.875,74.125,0,True,1,2.1333333333333333,1.0,1.0,1,1.2266973118495337,0.9953125,1.564919120814467,1.3087757975152718
27843.75,74.25,1,False,1,2.1333333333333333,1.0,1.0,1,1.3786876414749742,1.0,1.703167523397457,1.3878512194558403
27890.625,74.375,0,False,1,2.1333333333333333,1.0,1.0,1,1.3209135435719606,1.0265625,1.7629685080585848,1.4678781230976472
27937.5,74.5,1,True,1,2.1333333333333333,1.0,1.0,1,1.427587856123025,1.0,1.7429879767083694,1.5442656079094872
27984.375,74.625,0,True,1,2.1333333333333333,1.0,1.0,1,1.4151383897211511,1.0578125,1.9769919400303602,1.631432130946122
28031.25,74.75,1,False,1,2.1333333333333333,1.0,1.0,1,1.4736554456469124,1.0,1.7809155994838162,1.7051225409517483
28078.125,74.875,0,False,1,2.1333333333333333,1.0,1.0,1,1.4852485789807255,1.0560606060606061,2.0324833080946867,1.790306781006518
28500.0,76,0,True,2,0.4740740740740741,1.6,1.0,1,1.496354169776965,1.072058823529412,2.115600522437227,1.8774433740112533
28687.5,76.5,1,False,1,1.0666666666666667,1.0,1.0,1,1.4715706747850386,1.0,1.7791908978204933,1.9442733135813988
28781.25,76.75,0,False,1,0.7111111111111111,1.0,1.0,1,1.4771598552065388,1.07,2.0882741362705737,2.0252970630299325
28875.0,77,1,True,1,1.0666666666666667,1.3,1.0,1.44,1.4725556575399803,1.0229473684210526,1.8762312306926605,2.093146615639879
29437.5,78.5,1,False,1,0.35555555555555557,1.3,1.0,2.4,1.460649223664313,1.0767179487179488,2.103719095016163,2.170634350693825
29531.25,78.75,0,True,1,0.26666666666666666,1.0,1.0,1,1.455207044115103,1.0680555555555555,2.0591496010321784,2.2437724910262977
29625.0,79,1,True,1,1.0666666666666667,1.0,1.0,1,1.4489121628161614,1.0748000000000002,2.084012032439096,2.316159239557096
29812.5,79.5,1,False,1,1.0666666666666667,1.0,1.0,1,1.4503837709978795,1.0729756097560976,2.077054253996552,2.3862773412206737
29906.25,79.75,0,False,1,0.5333333333333333,1.0,1.0,1,1.4307085014100962,1.0662162162162163,2.028428133957291,2.4522168157380633
30000.0,80,1,True,1,1.0666666666666667,1.0,1.0,1,1.451784427945481,1.0712380952380953,2.0704406968271227,2.5184334443820946
30562.5,81.5,0,True,1,0.3047619047619048,1.0,1.0,1,1.4084408410583007,1.0644736842105265,2.0004376092796043,2.5796791176726153
30656.25,81.75,1,False,1,0.3047619047619048,1.0,1.0,1,1.4406389387404135,1.0695813953488373,2.0526654825847714,2.6417853442208945
30750.0,82,0,False,1,1.0666666666666667,1.0,1.0,1,1.396800127898762,1.0628205128205128,1.982623240048999,2.699145864373867
31125.0,83,0,True,1,0.5333333333333333,1.0,1.0,1,1.3902232330997546,1.06125,1.9698047101633351,2.7545129250354945
31500.0,84,1,True,1,0.23703703703703705,1.0,1.0,1,1.41634089809376,1.068,2.0233285852899616,2.8109100765661896
31593.75,84.25,0,False,1,0.4266666666666667,1.0,1.0,1,1.3726857681989924,1.0597560975609757,1.9476179931603181,2.8626215554154615
31687.5,84.5,1,False,1,1.0666666666666667,1.0,1.0,1,1.4050234313964884,1.066488888888889,2.0063044328597597,2.9156497781681288
32062.5,85.5,0,True,1,0.4266666666666667,1.0,1.0,1,1.3541414050966214,1.0583333333333333,1.9250107940068428,2.963942302727832
32156.25,85.75,1,True,1,0.4266666666666667,1.0,1.0,1,1.3974868405675798,1.0650434782608698,1.9930728924812304,3.013998053148195
32250.0,86,0,False,1,1.0666666666666667,1.0,1.0,1,1.3469681246965786,1.0569767441860465,1.9128350210490388,3.05953956198288
32625.0,87,0,True,2,0.5333333333333333,1.0,1.0,1,1.3421270753542445,1.0556818181818182,1.9030169424776227,3.1036391441105278
33000.0,88,0,False,1,0.5333333333333333,1.0,1.0,1,1.3289119763984236,1.0544444444444445,1.8861761411902482,3.146057629984801
34500.0,92,0,True,2,0.13333333333333333,1.0,1.0,1,1.3101727722332828,1.0532608695652175,1.8648811152978297,3.1866705610682056
34687.5,92.5,0,False,1,1.0666666666666667,1.0,1.0,1,1.3000335123187388,1.0521276595744682,1.8513466624709365,3.2258484810348356
34781.25,92.75,1,False,1,0.7111111111111111,1.0,1.0,1,1.3431089531088405,1.0733061224489795,1.9805878773045107,3.2692979974206473
34875.0,93,0,True,1,1.0666666666666667,1.3,1.0,1.7999999999999998,1.3044230241448536,1.0789583333333332,1.9707088848979757,3.3114257103862625
35437.5,94.5,0,False,1,0.35555555555555557,1.3,1.0,2.4,1.2983938898941216,1.1206122448979592,2.153785380983276,3.3597600675571107
35531.25,94.75,1,True,1,0.26666666666666666,1.0,1.0,1,1.33003547632288,1.07184,1.9624125470276501,3.399730156940824
35625.0,95,0,True,1,1.0666666666666667,1.0,1.0,1,1.2923517030840728,1.1182,2.1368343914588683,3.445493749323216
35812.5,95.5,0,False,1,1.0666666666666667,1.0,1.0,1,1.2966324946078007,1.1158823529411765,2.130135928964547,3.4900619141027063
35906.25,95.75,1,False,1,0.5333333333333333,1.0,1.0,1,1.3148370650803354,1.0704313725490195,1.9427095127263942,3.526745584294649
36000.0,96,0,True,1,1.0666666666666667,1.0,1.0,1,1.3007470025726033,1.1136538461538463,2.1237081898130583,3.569355868981049
36562.5,97.5,1,True,1,0.3047619047619048,1.0,1.0,1,1.3008575162270422,1.069076923076923,1.9244488420916732,3.6038469595623224
36656.25,97.75,0,False,1,0.3047619047619048,1.0,1.0,1,1.2945643547718153,1.1115094339622642,2.1080141539632495,3.6442834017399623
36750.0,98,1,False,1,1.0666666666666667,1.0,1.0,1,1.2944255092343047,1.0677735849056604,1.9131535422583388,3.6769597504348277
37312.5,99.5,1,True,1,0.35555555555555557,1.0,1.0,1,1.289135178320572,1.0665185185185184,1.9031102498125665,3.7086459963632894
37406.25,99.75,0,True,1,0.26666666666666666,1.0,1.0,1,1.277923341254494,1.1094444444444445,2.083023730420661,3.7460319727909903
37500.0,100,1,False,1,1.0666666666666667,1.0,1.0,1,1.2838286215025903,1.065309090909091,1.8932833874397395,3.7761155208024353
37593.75,100.25,0,False,1,1.0666666666666667,1.0,1.0,1,1.2716519233376964,1.1074545454545455,2.068152570545549,3.8116479444248617
37687.5,100.5,1,True,1,1.0666666666666667,1.0,1.0,1,1.287877226829585,1.064142857142857,1.891829300375941,3.840506388481368
38062.5,101.5,0,True,1,0.4266666666666667,1.0,1.0,1,1.267851143215474,1.1055357142857143,2.0559490822690947,3.874372498801312
38156.25,101.75,1,False,1,0.4266666666666667,1.0,1.0,1,1.2838557443956335,1.0630175438596492,1.8835181014234317,3.901847893453513
38250.0,102,0,False,1,1.0666666666666667,1.0,1.0,1,1.264016463515595,1.1036842105263158,2.0440660029352355,3.9341466281739796
38625.0,103,1,True,1,0.4266666666666667,1.0,1.0,1,1.272019298346828,1.0619310344827586,1.868622566736896,3.9600990594597048
39000.0,104,0,True,2,0.26666666666666666,1.0,1.0,1,1.2585372244329383,1.101896551724138,2.0310127017796202,3.9908758832447986
40500.0,108,0,True,3,0.13333333333333333,1.0,2.0,1,1.2418798148510617,1.1171186440677965,2.0744298643430277,4.022509244590057
40687.5,108.5,1,False,1,1.0666666666666667,1.0,1.0,1,1.2419043049301266,1.0728196721311476,1.8888317350232486,4.047650122599178
40781.25,108.75,1,True,1,2.1333333333333333,1.0,1.0,1,1.2584842556629248,1.0716451612903226,1.8982732726382359,4.072653187840155
40875.0,109,0,False,3,0.5333333333333333,1.0,1.0,1,1.2288629052848894,1.1151666666666666,2.0392093085243848,4.10165614611902
41250.0,110,0,True,2,0.5333333333333333,1.0,1.0,1,1.2210166658869948,1.11327868852459,2.0175508095955124,4.129488211558985
41437.5,110.5,1,True,1,0.35555555555555557,1.0,1.0,1,1.2941716946308515,1.0694062500000001,1.9199734970238898,4.153832746576672
41531.25,110.75,1,False,1,2.1333333333333333,1.0,1.0,1,1.301294247197537,1.0683384615384617,1.9216413510521677,4.177819244565836
41625.0,111,0,False,3,0.5333333333333333,1.0,1.0,1,1.2134256553213627,1.1114516129032257,1.9967126589299367,4.203687509753768
41812.5,111.5,1,False,1,1.0666666666666667,1.0,1.0,1,1.3415772487763413,1.0662985074626867,1.9484820828988834,4.227674506832928
41906.25,111.75,1,True,1,2.1333333333333333,1.0,1.0,1,1.3551975728187395,1.065323529411765,1.9563612663737082,4.251503810370895
42000.0,112,0,True,3,0.5333333333333333,1.0,1.0,1,1.206077618341088,1.1096825396825396,1.9766499364205683,4.275547212872967
42375.0,113,0,False,2,0.5333333333333333,1.0,1.0,1,1.1989610720172084,1.10796875,1.9573208981960086,4.298634326605612
42562.5,113.5,1,True,1,0.35555555555555557,1.0,1.0,1,1.385025903315234,1.0634571428571429,1.9748569195874404,4.321863677478649
42656.25,113.75,1,False,1,2.1333333333333333,1.0,1.0,1,1.3902501135100538,1.0625633802816903,1.975607534844972,4.344746034638182
42750.0,114,0,True,3,0.5333333333333333,1.0,1.0,1,1.1920652458383243,1.1063076923076922,1.938686703779762,4.366207801362958
43125.0,115,0,False,3,0.5333333333333333,1.0,1.0,1,1.1853800273005255,1.1046969696969697,1.9207111706554274,4.386822065722469
43500.0,116,0,True,3,0.5333333333333333,1.0,1.0,1,1.1788959124093117,1.103134328358209,1.9033605531019004,4.441052971481553
43593.75,116.25,1,False,1,2.1333333333333333,1.0,1.0,1,1.4168478052303448,1.0592266666666668,1.9847675816653045,4.497603341562281
43687.5,116.5,1,True,1,2.1333333333333333,1.0,1.0,1,1.4380414554054481,1.0584473684210527,2.000397751770588,4.554597982435248
43875.0,117,0,False,2,0.5333333333333333,1.0,1.0,1,1.1726039605837888,1.1016176470588235,1.8866033425637128,4.608350167283088
44062.5,117.5,1,False,1,0.5333333333333333,1.0,1.0,1,1.4439594530163782,1.0576883116883118,2.0023635054268563,4.665393699081388
44156.25,117.75,1,True,1,2.1333333333333333,1.0,1.0,1,1.4495922765888303,1.056948717948718,2.0041571848205013,4.722487307101197
44250.0,118,0,True,3,0.5333333333333333,1.0,1.0,1,1.1664957535129865,1.1001449275362318,1.870410087166178,4.7757497179063995
44625.0,119,0,False,3,0.5333333333333333,1.0,1.0,1,1.1605633575660042,1.0987142857142858,1.854753228281775,4.828565166949621
45000.0,120,0,True,2,0.5333333333333333,1.0,1.0,1,1.1547992894029144,1.0973239436619717,1.839606952310299,4.88090579099221
45375.0,121,0,False,2,0.5333333333333333,1.0,1.0,1,1.1491964844728813,1.0959722222222221,1.8249470560568894,4.932826001929918
45750.0,122,0,True,2,0.5333333333333333,1.3,1.0,1,1.1437482681205764,1.0987671232876712,1.8140039689905771,4.9843693889959635
46125.0,123,0,False,3,0.5333333333333333,1.0,1.0,1,1.138448329052348,1.0974324324324325,1.8001969714765824,5.035512153831911
46500.0,124,0,True,2,0.5333333333333333,1.0,1.0,1,1.1332906949403043,1.0961333333333334,1.7868138656001609,5.086174036472164
46687.5,124.5,0,False,1,1.0666666666666667,1.0,1.0,1,1.1332318689707324,1.0948684210526316,1.7856769084064008,5.1368034434995495
46781.25,124.75,0,True,1,2.1333333333333333,1.0,1.0,1,1.1479954122483818,1.0936363636363637,1.8201915131059643,5.188269595489574
46875.0,125,0,False,2,2.1333333333333333,1.0,1.0,1,1.172109756987328,1.0924358974358976,1.8780320280123388,5.241298760131826
47250.0,126,1,True,2,0.5333333333333333,1.0,1.0,1,1.433558685725806,1.0528809523809524,1.9717537310100473,5.296884501782595
47437.5,126.5,0,True,1,0.35555555555555557,1.0,1.0,1,1.1796491412475998,1.0912658227848102,1.8956903680491406,5.3502074584114405
47531.25,126.75,0,False,1,2.1333333333333333,1.0,1.0,1,1.1868965544183387,1.0901249999999998,1.9127440790983046,5.403853718441115
47625.0,127,0,True,2,2.1333333333333333,1.0,1.0,1,1.2096293597297116,1.0890123456790122,1.9302740378796877,5.45787585556644
47812.5,127.5,0,False,1,1.0666666666666667,1.0,1.0,1,1.2225588971500274,1.0879268292682924,1.9369736737003753,5.511912733632344
47906.25,127.75,0,True,1,2.1333333333333333,1.0,1.0,1,1.2351583228525898,1.0868674698795178,1.9435201364513566,5.565966885794869
48000.0,128,0,False,2,2.1333333333333333,1.0,1.0,1,1.256496731187743,1.085833333333333,1.957984030092335,5.620254901710685
48375.0,129,1,False,2,0.5333333333333333,1.0,1.0,1,1.4099966722027337,1.0510574712643679,1.9428072610709597,5.673915684048342
48562.5,129.5,0,True,1,0.35555555555555557,1.0,1.0,1,1.2625075648041586,1.0848235294117645,1.9589269019769684,5.7278017559901935
48656.25,129.75,0,False,1,2.1333333333333333,1.0,1.0,1,1.268272370706224,1.0838372093023254,1.9597547154651735,5.781458437091012
48750.0,130,0,True,2,2.1333333333333333,1.0,1.0,1,1.2884880912769452,1.0828735632183906,1.973625467081611,5.8352488860699525
49125.0,131,0,False,2,0.5333333333333333,1.0,1.0,1,1.2953525900898946,1.081931818181818,1.975645526931076,5.88877863078307
49500.0,132,0,True,2,0.5333333333333333,1.0,1.0,1,1.289237907135338,1.0810112359550559,1.9661146880034706,5.94172605335154
49593.75,132.25,0,False,1,2.1333333333333333,1.0,1.0,1,1.2958629404205801,1.0801111111111108,1.9680981094893328,5.994390728516542
49687.5,132.5,0,True,1,2.1333333333333333,1.0,1.0,1,1.3148804245058603,1.079230769230769,1.9813062351936614,6.047010979756677
49875.0,133,1,False,2,0.5333333333333333,1.0,1.0,1,1.3810109328902505,1.048813186813187,1.9075567016480222,6.097135341487901
50062.5,133.5,0,False,1,0.5333333333333333,1.0,1.0,1,1.3211566808850652,1.078369565217391,1.983158959161641,6.149008327234468
50156.25,133.75,0,True,1,2.1333333333333333,1.0,1.0,1,1.3272206863503908,1.07752688172043,1.9849032906414361,6.200448132639783
50250.0,134,0,False,2,2.1333333333333333,1.0,1.0,1,1.345292721695321,1.0767021276595743,1.9975771128178545,6.251782866623354
50625.0,135,0,True,2,0.5333333333333333,1.0,1.0,1,1.3510487586825142,1.075894736842105,1.9992063367632302,6.302720569840407
51000.0,136,0,False,2,0.5333333333333333,1.0,1.0,1,1.3447990865585815,1.0751041666666665,1.990052917405504,6.352785736899733
54000.0,144,0,True,2,0.06666666666666667,1.0,1.0,1,1.335289123921589,1.0743298969072164,1.978065805414245,6.402005775193744
54187.5,144.5,1,False,1,1.0666666666666667,1.0,1.0,1,1.351350731982854,1.046757894736842,1.8729298644479222,6.447640250433203
54375.0,145,1,True,1,1.0666666666666667,1.0,1.0,1,1.3529962986381008,1.0462708333333335,1.8722855274474763,6.492580355897284
54562.5,145.5,0,False,2,0.35555555555555557,1.0,1.0,1,1.3246359843197788,1.0735714285714284,1.9651719093308189,6.53950263229044
54750.0,146,0,True,1,1.0666666666666667,1.0,1.0,1,1.3213651707161043,1.0728282828282827,1.9589897356358297,6.58474951166102
54937.5,146.5,0,False,1,1.0666666666666667,1.0,1.0,1,1.3232459520682567,1.0720999999999998,1.9574826102427552,6.630841467442772
55125.0,147,0,True,2,1.0666666666666667,1.0,1.0,1,1.3250893025594015,1.0713861386138612,1.9560058805850469,6.671218401957222
55312.5,147.5,1,False,1,1.0666666666666667,1.0,1.0,1,1.3475225021109178,1.044868686868687,1.8616083953840559,6.7109379568668635
55500.0,148,0,False,2,0.5333333333333333,1.0,1.0,1,1.3232017049606966,1.0706862745098038,1.9512642878930868,6.748883937500348
55687.5,148.5,0,True,1,1.0666666666666667,1.0,1.0,1,1.3213094346856322,1.0699999999999998,1.946585438104062,6.788783839168321
55875.0,149,0,False,1,1.0666666666666667,1.0,1.0,1,1.3231180611624307,1.069326923076923,1.945261000689443,6.823513184471705
56062.5,149.5,0,True,2,1.0666666666666667,1.0,1.0,1,1.3248920707468184,1.0686666666666664,1.9439621890122023,6.859484715676582
56250.0,150,1,True,1,1.0666666666666667,1.0,1.0,1,1.3423722875398927,1.0435490196078432,1.8515975332352976,6.8881474727717595
56437.5,150.5,1,False,1,1.0666666666666667,1.0,1.0,1,1.343993061789023,1.043126213592233,1.851207996461873,6.9182392849098235
56625.0,151,0,False,2,0.35555555555555557,1.0,1.0,1,1.3218941741086647,1.0680188679245282,1.938481210819365,6.945612833704468
56812.5,151.5,0,True,2,1.0666666666666667,1.0,1.0,1,1.3188971181184803,1.0673831775700933,1.9330637973128864,6.974436210517786
56906.25,151.75,1,False,2,0.7111111111111111,1.0,1.0,1,1.3447478676665463,1.042304761904762,1.8483945459169027,6.995096557239994
57000.0,152,0,False,1,1.0666666666666667,1.0,1.0,1,1.3206608824377375,1.066759259259259,1.9319189759212814,7.0199084954012925
57187.5,152.5,0,True,1,1.0666666666666667,1.0,1.0,1,1.3223921332081836,1.0661467889908256,1.9307954306040256,7.038373205073303
57375.0,153,0,False,1,1.0666666666666667,1.0,1.0,1,1.3240917612719625,1.0655454545454546,1.9296925678925338,7.058749916147848
57562.5,153.5,0,True,2,1.0666666666666667,1.0,1.0,1,1.3257606252210343,1.0649549549549548,1.928609816407043,7.07219642458384
57750.0,154,1,False,1,1.0666666666666667,1.0,1.0,1,1.3353327296197033,1.0415140186915888,1.8370018254979443,7.085152223821087
57937.5,154.5,1,True,1,1.0666666666666667,1.0,1.0,1,1.336943599431758,1.0411296296296297,1.8367672335913523,7.090597764046383
58125.0,155,0,False,2,0.35555555555555557,1.0,1.0,1,1.3229148489662819,1.0643749999999998,1.9235854746844703,7.1008169530507885
58312.5,155.5,0,True,1,1.0666666666666667,1.0,1.0,1,1.320069965671833,1.0638053097345133,1.9186149324523865,7.10695552102597
58500.0,156,0,False,2,1.0666666666666667,1.0,1.0,1,1.3217301509347283,1.0632456140350877,1.9176616593094973,7.111363067296377
58687.5,156.5,1,False,1,1.0666666666666667,1.0,1.0,1,1.334775375666484,1.040018018018018,1.8302580715920809,7.1138495832029465
58875.0,157,1,True,1,1.0666666666666667,1.0,1.0,1,1.3363334509868576,1.0396607142857142,1.830092277806459,7.109664090483176
59062.5,157.5,0,True,2,0.35555555555555557,1.0,1.0,1,1.3189934563400556,1.062695652173913,1.912881472721,7.113424086887051
59250.0,158,0,False,1,1.0666666666666667,1.0,1.0,1,1.3162570968347422,1.062155172413793,1.9081502874090046,7.109881567149234
59437.5,158.5,0,True,1,1.0666666666666667,1.0,1.0,1,1.3179072570892023,1.0616239316239315,1.907314074573202,7.103947030622981
59625.0,159,1,True,1,0.35555555555555557,1.0,1.0,1,1.3349612554688013,1.0389649122807016,1.8260132381257608,7.105281101522149
59812.5,159.5,1,False,2,1.0666666666666667,1.0,1.0,1,1.3320611496887353,1.0386260869565216,1.8221298107457107,7.097698067497233
59906.25,159.75,0,False,2,0.4266666666666667,1.0,1.0,1,1.3156974191875264,1.061101694915254,1.9031318220000748,7.098464524188623
60000.0,160,1,True,1,1.0666666666666667,1.0,1.0,1,1.3335887624442149,1.0382931034482759,1.82204010229358,7.090438873513161
60093.75,160.25,0,True,1,1.0666666666666667,1.0,1.0,1,1.3134859598903532,1.0605882352941176,1.8989918857715524,7.085875629860383
60187.5,160.5,1,False,1,1.0666666666666667,1.0,1.0,1,1.3350901488352396,1.037965811965812,1.8219517443101114,7.07840895899471
60281.25,160.75,0,False,1,1.0666666666666667,1.0,1.0,1,1.3151178809465147,1.0600833333333333,1.8982553075604265,7.073314585888049
60375.0,161,1,True,1,1.0666666666666667,1.0,1.0,1,1.3365659785111137,1.0376440677966101,1.8218647045840028,7.067429141927701
60468.75,161.25,0,True,1,1.0666666666666667,1.0,1.0,1,1.316722714993746,1.059586776859504,1.8975309571737102,7.062502565204921
60562.5,161.5,1,False,1,1.0666666666666667,1.0,1.0,1,1.3380168985153729,1.037327731092437,1.8217789520058172,7.0574121892433785
60656.25,161.75,0,False,1,1.0666666666666667,1.0,1.0,1,1.3183011308832442,1.0590983606557376,1.8968185284461487,7.052971768604755
60750.0,162,1,True,1,1.0666666666666667,1.0,1.0,1,1.3394435342317064,1.0370166666666667,1.8216944565172775,7.048386555530223
60843.75,162.25,0,True,1,1.0666666666666667,1.0,1.0,1,1.3198537756248097,1.0586178861788615,1.8961177254936572,7.046287052146704
60937.5,162.5,1,False,1,1.0666666666666667,1.0,1.0,1,1.3408464902827735,1.0367107438016527,1.8216111890635247,7.040539682271409
61031.25,162.75,0,False,1,1.0666666666666667,1.0,1.0,1,1.3213812752711729,1.0581451612903223,1.895428262279354,7.039052682673573
61125.0,163,1,True,1,1.0666666666666667,1.0,1.0,1,1.342226351384632,1.0364098360655738,1.8215291215481335,7.033788029858312
61218.75,163.25,0,True,1,1.0666666666666667,1.0,1.0,1,1.3228842357597002,1.0576799999999997,1.8947498622016798,7.032925829715393
61312.5,163.5,1,False,2,1.0666666666666667,1.0,1.0,1,1.3435836831593118,1.0361138211382113,1.8214482267906709,7.028035867560913
61406.25,163.75,0,False,2,1.0666666666666667,1.0,1.0,1,1.324363243713855,1.057222222222222,1.8940822577032823,7.027501560311523
61500.0,164,1,True,1,1.0666666666666667,1.0,1.0,1,1.34491903290791,1.0358225806451613,1.8213684784866682,7.025175216966406
61593.75,164.25,0,True,1,1.0666666666666667,1.0,1.0,1,1.325818867206646,1.0567716535433072,1.8934251898994507,7.0253817582214255
61687.5,164.5,1,False,1,1.0666666666666667,1.0,1.0,1,1.3462329303464244,1.035536,1.821289851169793,7.024139747750525
61781.25,164.75,0,False,1,1.0666666666666667,1.0,1.0,1,1.32725165648814,1.056328125,1.8927784082249401,7.025320228819003
61875.0,165,1,True,1,1.0666666666666667,1.0,1.0,1,1.3475258883064054,1.0352539682539683,1.8212123201761095,7.020779270562382
61968.75,165.25,0,True,1,1.0666666666666667,1.0,1.0,1,1.3338677952329199,1.064140625,1.9322521308209497,7.019683553514579
62062.5,165.5,1,False,1,1.0666666666666667,1.0,1.0,1,1.3487984034023723,1.0349763779527559,1.8211358616102689,7.010205641036817
62156.25,165.75,0,False,1,1.0666666666666667,1.0,1.0,1,1.339747336063235,1.064140625,1.9374611937178547,7.009494722399936
62250.0,166,1,True,1,1.0666666666666667,1.0,1.0,1,1.3500509566678205,1.034703125,1.8210604523135152,7.000497632118194
62343.75,166.25,0,True,1,1.0666666666666667,1.0,1.0,1,1.3439628957548326,1.064140625,1.9412014808871003,6.9951144763983635
62437.5,166.5,1,False,1,1.0666666666666667,1.0,1.0,1,1.356577515640502,1.042515625,1.8594606641978506,6.992742534596929
62531.25,166.75,0,False,1,1.0666666666666667,1.0,1.0,1,1.350130888198065,1.064140625,1.9466822230347516,6.987698677559113
62625.0,167,1,True,1,1.0666666666666667,1.0,1.0,1,1.3644228736588884,1.042515625,1.8662287369118746,6.98603985940606
62718.75,167.25,0,True,1,1.0666666666666667,1.0,1.0,1,1.3520936449410954,1.064140625,1.948428303357636,6.981492909428258
62812.5,167.5,1,False,2,1.0666666666666667,1.0,1.0,1,1.370601076964842,1.042515625,1.8715686951333572,6.980308066166814
62906.25,167.75,0,False,2,1.0666666666666667,1.0,1.0,1,1.3563091446378845,1.064140625,1.9521817122313616,6.981706219474951
63000.0,168,1,True,2,1.0666666666666667,1.0,1.0,1,1.3748035832391063,1.042515625,1.8752060648132705,6.975785039580653
63093.75,168.25,0,True,2,1.0666666666666667,1.0,1.0,1,1.3640516986637634,1.064140625,1.9590871177198161,6.977659931801991
63187.5,168.5,1,False,2,1.0666666666666667,1.0,1.0,1,1.3767691698584135,1.042515625,1.8769087225745122,6.9722109762273785
63281.25,168.75,0,False,2,1.0666666666666667,1.0,1.0,1,1.3711227428459087,1.059453125,1.9449081953894785,6.973723310056399
63375.0,169,1,True,3,1.0666666666666667,1.0,1.0,1,1.3829473281470765,1.042515625,1.8822662111792694,6.9687747051277675
63468.75,169.25,0,True,2,1.0666666666666667,1.0,1.0,1,1.3781937872705268,1.059453125,1.9511946369594715,6.970702957667611
63562.5,169.5,1,False,2,1.0666666666666667,1.0,1.0,1,1.387149892116967,1.042515625,1.885915496318491,6.966196903779869
63656.25,169.75,0,False,2,1.0666666666666667,1.0,1.0,1,1.3817247862479607,1.059453125,1.9543383329258084,6.968639133461829
63750.0,170,1,True,2,1.0666666666666667,1.0,1.0,1,1.391576327188196,1.042515625,1.8897634965083598,6.964614634621015
63843.75,170.25,0,True,3,1.0666666666666667,1.0,1.0,1,1.3861512487849554,1.059453125,1.958283474043653,6.961305369891157
63937.5,170.5,1,False,2,1.0666666666666667,1.0,1.0,1,1.395988726881799,1.042515625,1.8936036771766112,6.96144133296173
64031.25,170.75,0,False,2,1.0666666666666667,1.0,1.0,1,1.3958112766176514,1.059453125,1.9669092000517958,6.963396920674832
64125.0,171,1,True,2,1.0666666666666667,1.0,1.0,1,1.3995287265838623,1.042515625,1.8966877393367219,6.959336169402742
64218.75,171.25,0,True,2,1.0666666666666667,1.0,1.0,1,1.4010392770303715,1.059453125,1.971586567365243,6.958026547594823
64312.5,171.5,1,False,2,1.0666666666666667,1.0,1.0,1,1.4065997719458827,1.042515625,1.9028563871582924,6.957538843691074
64406.25,171.75,0,False,2,1.0666666666666667,1.0,1.0,1,1.4052545492579045,1.059453125,1.9753624999436676,6.959069476738005
64500.0,172,1,True,1,1.0666666666666667,1.0,1.0,1,1.4154440984437224,1.042515625,1.9105874901610786,6.956615582280975
64593.75,172.25,0,True,1,1.0666666666666667,1.0,1.0,1.2,1.4114227671203698,1.061015625,1.987798910452516,6.957735804703537
64875.0,173,1,False,1,0.5333333333333333,1.0,1.0,1.5,1.4197557111450063,1.046421875,1.9312701794311191,6.957020904749791
65156.25,173.75,0,False,1,0.35555555555555557,1.0,1.0,1.5,1.4094626893738809,1.064921875,2.0033534917314033,6.957781747454625
65437.5,174.5,1,True,1,0.35555555555555557,1.0,1.0,1.2,1.41905390439122,1.047984375,1.9374405222218136,6.957215312054797
65625.0,175,0,True,1,0.4266666666666667,1.0,1.0,1,1.4062024401798976,1.064921875,2.000404762166394,6.957943225975777
66000.0,176,0,False,2,0.5333333333333333,1.0,1.0,1,1.4085134862753783,1.064921875,2.002494729438785,6.958709300965493
66187.5,176.5,1,True,1,1.0666666666666667,1.0,1.0,1,1.413443282829943,1.047984375,1.9324871970368684,6.958532663456968
66281.25,176.75,0,True,1,0.7111111111111111,1.6,1.0,1,1.4081865408130048,1.069609375,2.023103310696364,6.96145003950954
66375.0,177,1,False,2,1.0666666666666667,1.0,1.0,1,1.4196213120085968,1.047984375,1.9379418428087605,6.96243533609986
66468.75,177.25,0,True,1,1.0666666666666667,1.6,1.0,1,1.4097609527419912,1.074296875,2.0455961722134917,6.96416847570712
66562.5,177.5,1,True,2,1.0666666666666667,1.0,1.0,1,1.423824041442794,1.047984375,1.9416572695005456,6.9624948308724415
66656.25,177.75,0,True,1,1.0666666666666667,1.0,1.0,1,1.4178825598941176,1.074296875,2.0530593273230187,6.967237526000702
66750.0,178,1,False,3,1.0666666666666667,1.0,1.0,1,1.428414493457496,1.047984375,1.9457198674888516,6.96562362484789
66843.75,178.25,0,False,1,1.0666666666666667,1.0,1.0,1,1.4276459508344894,1.05671875,1.9833832181545772,6.965031729094527
66937.5,178.5,1,True,2,1.0666666666666667,1.0,1.0,1,1.436530125132223,1.047984375,1.9529134528200074,6.967382430458115
67031.25,178.75,0,True,1,1.0666666666666667,1.0,1.0,1,1.4269344770137142,1.05671875,1.9827447016248567,6.9710291875150086
67125.0,179,1,False,3,1.0666666666666667,1.0,1.0,1,1.4400613082700406,1.047984375,1.9560478662684546,6.974346843868175
67218.75,179.25,0,False,1,1.0666666666666667,1.0,1.0,1,1.4151494653166474,1.05671875,1.9721846548447783,6.97854196513989
67312.5,179.5,1,True,1,1.0666666666666667,1.0,1.0,1,1.4430105943215443,1.047984375,1.9586678064530596,6.982663754321339
67406.25,179.75,0,True,1,1.0666666666666667,1.0,1.0,1,1.4033644553213402,1.05671875,1.9616560452098333,6.987264076523723
67500.0,180,1,False,2,1.0666666666666667,1.0,1.0,1,1.4489031385989988,1.047984375,1.9639078643804955,6.992309871942097
67687.5,180.5,0,False,1,0.7111111111111111,1.0,1.0,1,1.3896249963082528,1.0567187500000002,1.9494217168850667,6.996975319727422
67781.25,180.75,1,True,1,0.7111111111111111,1.0,1.0,1,1.4550417235287463,1.040171875,1.9351934677556835,7.00025197698217
67875.0,181,0,True,2,1.0666666666666667,1.0,1.0,1,1.3758661055292174,1.0567187500000002,1.9372144213768545,7.001938212830611
67968.75,181.25,1,False,1,1.0666666666666667,1.0,1.0,1,1.4523494215262618,1.040171875,1.9328244998228317,7.000829033876394
68062.5,181.5,0,False,2,1.0666666666666667,1.0,1.0,1,1.3640811015271161,1.0567187500000002,1.9267943310996714,7.0017152538236225
68156.25,181.75,1,True,1,1.0666666666666667,1.0,1.0,1,1.440564406299825,1.040171875,1.9224724049640112,7.0019924351082485
68250.0,182,0,True,2,1.0666666666666667,1.0,1.0,1,1.35229609942516,1.0567187500000002,1.9164079524580586,7.001597360002526
68343.75,182.25,1,False,1,1.0666666666666667,1.0,1.0,1,1.4287793926866548,1.040171875,1.9121492944231595,7.000890059133589
68437.5,182.5,0,False,3,1.0666666666666667,1.0,1.0,1,1.3405110992734646,1.0567187500000002,1.9060558365510802,6.999822619276273
68531.25,182.75,1,True,1,1.0666666666666667,1.0,1.0,1,1.4169943807270025,1.040171875,1.9018556401735678,6.998223398666634
68625.0,183,0,True,2,1.0666666666666667,1.0,1.0,1,1.3287261011239226,1.0567187500000002,1.8957385446774244,6.996882307973766
68812.5,183.5,1,False,1,0.7111111111111111,1.0,1.0,1,1.4032548249760217,1.040171875,1.8898926124794664,6.994915370053473
69000.0,184,0,False,1,0.5333333333333333,1.0,1.0,1,1.3140113718121098,1.0567187500000002,1.8829061444164235,6.9927257861580445
69187.5,184.5,1,True,1,0.5333333333333333,1.0,1.0,1,1.3865654257204023,1.040171875,1.8754170096171543,6.989927612373883
69281.25,184.75,0,True,1,0.7111111111111111,1.6,1.0,1,1.2973098581651643,1.0614062499999999,1.8883618875619073,6.987440710555294
69375.0,185,1,False,2,1.0666666666666667,1.0,1.0,1,1.371818517633977,1.040171875,1.8626782909190187,6.984493581335238
69468.75,185.25,0,True,1,1.0666666666666667,1.6,1.0,1,1.2927071125988185,1.06140625,1.8843514446951508,6.982107455659422
69562.5,185.5,1,True,2,1.0666666666666667,1.0,1.0,1,1.3600335142789424,1.040171875,1.8525339536263297,6.978438451668202
69656.25,185.75,0,True,1,1.0666666666666667,1.0,1.0,1,1.2979422817351616,1.06140625,1.8889133748841722,6.977907262506422
69750.0,186,1,False,3,1.0666666666666667,1.0,1.0,1,1.3482485128410695,1.040171875,1.8424220088779741,6.973897358930762
69843.75,186.25,0,False,1,1.0666666666666667,1.0,1.0,1,1.3043318855040682,1.06140625,1.8944912751824732,6.9713213228340525
69937.5,186.5,1,True,2,1.0666666666666667,1.0,1.0,1,1.3364635133710754,1.040171875,1.8323429929572814,6.966613441309588
70031.25,186.75,0,True,1,1.0666666666666667,1.0,1.0,1,1.311693402965245,1.06140625,1.9009311248676533,6.963813365545657
70125.0,187,1,False,3,1.0666666666666667,1.0,1.0,1,1.3246785159214818,1.040171875,1.8222974522463375,6.959033645378191
70218.75,187.25,0,False,1,1.0666666666666667,1.0,1.0,1,1.3188520574839162,1.06140625,1.9072072422510036,6.957014729910563
70312.5,187.5,1,True,1,1.0666666666666667,1.0,1.0,1,1.3223131139217394,1.040171875,1.8202852643504939,6.955514770093725
70406.25,187.75,0,True,1,1.0666666666666667,1.0,1.0,1,1.3230543101754848,1.06140625,1.9108976834416407,6.95661491488209
70500.0,188,1,False,2,1.0666666666666667,1.0,1.0,1,1.3258439212533801,1.040171875,1.823289337585273,6.952572370044934
70687.5,188.5,0,False,1,0.7111111111111111,1.0,1.0,1,1.3240367671565596,1.0614062499999999,1.9117611458808064,6.951226724210272
70781.25,188.75,1,True,1,0.7111111111111111,1.0,1.0,1,1.3238811928396006,1.0333593749999999,1.7933509274589459,6.946550253529706
70875.0,189,0,True,2,1.0666666666666667,1.0,1.0,1,1.3285587339390683,1.0614062499999999,1.9157386421741225,6.9454029518227935
70968.75,189.25,1,False,1,1.0666666666666667,1.0,1.0,1,1.3258497409673937,1.0167968749999998,1.7274557604767895,6.941580649795398
71062.5,189.5,0,False,1,1.0666666666666667,1.0,1.0,1,1.3356297768452234,1.0614062499999999,1.921968858335938,6.940745958923562
71156.25,189.75,1,True,2,1.0666666666666667,1.0,1.0,1,1.3297722922599722,1.0167968749999998,1.7306755703153884,6.9345942144874275
71250.0,190,0,True,1,1.0666666666666667,1.0,1.0,1,1.3391606313025117,1.0614062499999999,1.9250846463998308,6.934019346017942
71343.75,190.25,1,False,1,1.0666666666666667,1.0,1.0,1,1.3297722922599722,1.0167968749999998,1.7306755703153884,6.92794234368679
71437.5,190.5,0,False,3,1.0666666666666667,1.0,1.0,1,1.3421101434820542,1.0614062499999999,1.9276898630126713,6.930110380614119
71531.25,190.75,1,True,1,1.0666666666666667,1.0,1.0,1,1.3297722922599722,1.0167968749999998,1.7306755703153884,6.926676148128522
71625.0,191,0,True,2,1.0666666666666667,1.0,1.0,1,1.34800268585541,1.06140625,1.9329011618202063,6.9265171603261795
71812.5,191.5,1,False,2,0.7111111111111111,1.0,1.0,1,1.332018967203002,1.0167968749999998,1.7325213245101607,6.9208032665893695
72000.0,192,0,False,2,0.5333333333333333,1.0,1.0,1,1.3531572572442045,1.06140625,1.9374669645925051,6.923341134643353
72187.5,192.5,1,True,1,0.5333333333333333,1.0,1.0,1,1.3358996831416194,1.0167968749999998,1.7357122224518413,6.917750775034735
72281.25,192.75,0,True,1,0.7111111111111111,1.0,1.0,1,1.353402401507997,1.06140625,1.9376842733585113,6.917947053234154
72375.0,193,1,False,2,1.0666666666666667,1.0,1.0,1,1.3375355016301418,1.016796875,1.7370582857978707,6.912458481149784
72468.75,193.25,0,False,1,1.0666666666666667,1.0,1.0,1,1.3514367906981113,1.0509374999999999,1.8908220147957282,6.9113818240210625
72562.5,193.5,1,True,2,1.0666666666666667,1.0,1.0,1,1.3410756959820722,1.016796875,1.7399734628717698,6.908617273720299
72656.25,193.75,0,True,1,1.0666666666666667,1.0,1.0,1,1.3553708546599275,1.034375,1.8242136155470783,6.908259593681179
72750.0,194,1,False,3,1.0666666666666667,1.0,1.0,1,1.3481467393497668,1.016796875,1.745804520255101,6.903194225393648
72843.75,194.25,0,False,1,1.0666666666666667,1.0,1.0,1,1.3592935327112954,1.034375,1.8275517821183251,6.900599637039989
72937.5,194.5,1,True,2,1.0666666666666667,1.0,1.0,1,1.3569913011517127,1.012109375,1.734111968957285,6.895369904846907
73031.25,194.75,0,True,1,1.0666666666666667,1.0,1.0,1,1.3592935327112954,1.034375,1.8275517821183251,6.895292796739792
73125.0,195,1,False,3,1.0666666666666667,1.0,1.0,1,1.364249838448633,1.012109375,1.7400778198126252,6.892728087924921
73218.75,195.25,0,False,1,1.0666666666666667,1.0,1.0,1,1.3592935327112954,1.034375,1.8275517821183251,6.890296858380952
73312.5,195.5,1,True,1,1.0666666666666667,1.0,1.0,1,1.3706391522486305,1.012109375,1.745338586492143,6.885657996871235
73406.25,195.75,0,True,1,1.0666666666666667,1.0,1.0,1,1.3635089979229826,1.034375,1.8311430477580766,6.883487717693151
73500.0,196,1,False,2,1.0666666666666667,1.0,1.0,1,1.3780008726932413,1.012109375,1.7514107363187783,6.881362129223698
73687.5,196.5,0,False,1,0.7111111111111111,1.0,1.0,1,1.3701689022519465,1.034375,1.836825055795492,6.8817808289010145
73781.25,196.75,1,True,1,0.7111111111111111,1.0,1.0,1,1.3831906062187933,1.012109375,1.7556982164069865,6.8775801229666556
73875.0,197,0,True,2,1.0666666666666667,1.0,1.0,1,1.3726219343408035,1.034375,1.8389204346068415,6.878061080559987
73968.75,197.25,1,False,1,1.0666666666666667,1.0,1.0,1,1.385433568117659,1.012109375,1.7575529711566296,6.874031176484982
74062.5,197.5,0,False,2,1.0666666666666667,1.0,1.0,1,1.3761620098706644,1.034375,1.8419467559964162,6.874600878107014
74156.25,197.75,1,True,1,1.0666666666666667,1.0,1.0,1,1.38936749277715,1.012109375,1.7608085425180093,6.870684719106157
74250.0,198,0,True,2,1.0666666666666667,1.0,1.0,1,1.379693002152669,1.034375,1.84496811328457,6.8713429857587425
74343.75,198.25,1,False,1,1.0666666666666667,1.0,1.0,1,1.393290310130843,1.012109375,1.7640581057287477,6.867540052249214
74437.5,198.5,0,False,3,1.0666666666666667,1.0,1.0,1,1.3841194750314245,1.034375,1.8487596351125088,6.8683087909311675
74531.25,198.75,1,True,1,1.0666666666666667,1.0,1.0,1,1.393290310130843,1.012109375,1.7640581057287477,6.864526156074524
74625.0,199,0,True,2,1.0666666666666667,1.0,1.0,1,1.3936973611897212,1.0265625,1.8241386727163469,6.864595797140758
74812.5,199.5,1,False,1,0.7111111111111111,1.0,1.0,1,1.3948625436158832,1.012109375,1.7653613929313068,6.860870263196579
75000.0,200,0,False,1,0.5333333333333333,1.0,1.0,1,1.3988438108098045,1.0265625,1.8285082678277735,6.861066776057932
75187.5,200.5,1,True,1,0.5333333333333333,1.0,1.0,1,1.3970223868593576,1.012109375,1.7671525993905508,6.857411921819217
75281.25,200.75,0,True,1,0.7111111111111111,1.0,1.0,1,1.3998262480707417,1.0265625,1.829343047877158,6.857634557673295
75375.0,201,1,False,2,1.0666666666666667,1.0,1.0,1,1.4005608954533142,1.007421875,1.75094894691887,6.853537355032386
75468.75,201.25,0,False,1,1.0666666666666667,1.0,1.0,1,1.4037573664717176,1.0265625,1.8326853792742022,6.853857526087913
75562.5,201.5,1,True,2,1.0666666666666667,1.3,1.0,1.2,1.408669497651422,1.00984375,1.7675350119763662,6.850251918235053
75656.25,201.75,0,True,1,1.0666666666666667,1.0,1.0,1,1.409649910056966,1.0265625,1.8377014673365732,6.8507172808158
75750.0,202,1,False,3,1.0666666666666667,1.0,1.0,1,1.4138160486402855,1.00984375,1.7718031914252224,6.847252004031147
75843.75,202.25,0,False,1,1.0666666666666667,1.0,1.0,1,1.4155424537498182,1.0265625,1.8427248272164254,6.847862733387727
75937.5,202.5,1,True,2,1.0666666666666667,1.0,1.0,1,1.4079358230810366,1.00984375,1.7669269849649407,6.844276951039061
76031.25,202.75,0,True,1,1.0666666666666667,1.0,1.0,1,1.4214349975489364,1.0265625,1.8477553996056557,6.845033221434995
76125.0,203,1,False,2,1.0666666666666667,1.0,1.0,1,1.3961508141486205,1.00984375,1.7571750769978223,6.840044893190518
76312.5,203.5,0,False,1,0.7111111111111111,1.0,1.0,1,1.4253606534419285,1.0265625,1.8511107778578062,6.8408989441245405
76500.0,204,1,True,1,0.5333333333333333,1.0,1.0,1,1.3912282619907872,1.00984375,1.7531100756613573,6.835646377503039
77062.5,205.5,1,False,1,0.35555555555555557,1.0,1.0,1,1.3824239656288424,1.00984375,1.7458519554412788,6.833503522908563
77156.25,205.75,0,True,1,0.23703703703703705,1.0,1.0,1,1.42470652686165,1.0265625,1.8505514561330008,6.830920705406389
77250.0,206,1,True,1,1.0666666666666667,1.0,1.0,1,1.366688299671174,1.00984375,1.7329198753351314,6.827315281523714
77625.0,207,0,False,2,0.4266666666666667,1.0,1.0,1,1.4224796317476938,1.0265625,1.8486479711135582,6.8245220712365535
78000.0,208,0,True,2,0.5333333333333333,1.0,1.0,1,1.421890254048477,1.0265625,1.8481443588479727,6.824006807745935
78187.5,208.5,1,False,1,1.0666666666666667,1.0,1.0,1,1.3313332979599908,1.00984375,1.70405721389758,6.81704414084546
78281.25,208.75,0,False,1,0.7111111111111111,1.0,1.0,1,1.422872685729355,1.0265625000000003,1.8489838681436468,6.816400649720213
78375.0,209,1,True,2,1.0666666666666667,1.0,1.0,1,1.3293618763369897,1.00984375,1.7024558821922378,6.809285414547145
78468.75,209.25,0,True,1,1.0666666666666667,1.0,1.0,1,1.4268037597684267,1.0265625000000003,1.8523450396975036,6.808634053933105
78562.5,209.5,1,False,2,1.0666666666666667,1.0,1.0,1,1.3274049655458102,1.00984375,1.700867196371327,6.801276803517808
78656.25,209.75,0,False,1,1.0666666666666667,1.0,1.0,1,1.432696303766988,1.0265625000000003,1.8573892330389077,6.800720650562056
78750.0,210,1,True,2,1.0666666666666667,1.0,1.0,1,1.31561996968608,1.00984375,1.6913179769887308,6.793495310511216
78843.75,210.25,0,True,1,1.0666666666666667,1.0,1.0,1,1.4385888478680438,1.0242187500000002,1.8525188250628348,6.792647742408352
78937.5,210.5,1,False,2,1.0666666666666667,1.0,1.0,1,1.3126638016903625,1.00984375,1.6889275810550624,6.7851751802764495
79031.25,210.75,0,False,1,1.0666666666666667,1.0,1.0,1,1.4444813920703397,1.0242187500000002,1.8575578449901644,6.784367208757744
79125.0,211,1,True,2,1.0666666666666667,1.0,1.0,1,1.3185563434238168,1.00984375,1.693694339245454,6.776940891219054
79218.75,211.25,0,True,1,1.0666666666666667,1.0,1.0,1,1.4503739363726413,1.0242187500000002,1.8626037469082386,6.7761670505409946
79312.5,211.5,1,False,2,1.0666666666666667,1.0,1.0,1,1.3156199696860797,1.00984375,1.6913179769887305,6.768560619542876
79406.25,211.75,0,False,1,1.0666666666666667,1.0,1.0,1,1.453317222101212,1.0242187500000002,1.8651267003377034,6.767749248179349
79500.0,212,1,True,2,1.0666666666666667,1.0,1.0,1,1.3038349759443133,1.00984375,1.681800421190842,6.759625875394147
79687.5,212.5,0,True,1,0.7111111111111111,1.0,1.0,1,1.4454818324321392,1.0242187500000002,1.8584140583252213,6.758535374498452
79781.25,212.75,1,False,1,0.7111111111111111,1.0,1.0,1,1.2989115679722878,1.00984375,1.6778337843929962,6.75016571512736
79875.0,213,0,False,2,1.0666666666666667,1.0,1.0,1,1.4317233076402527,1.0242187500000002,1.8466565010426346,6.748564457434673
79968.75,213.25,1,True,1,1.0666666666666667,1.0,1.0,1,1.2940141494858113,1.00984375,1.6738937018669098,6.739974951914472
80062.5,213.5,0,True,2,1.0666666666666667,1.0,1.0,1,1.4297523928450362,1.0242187500000002,1.8449753357426895,6.7381055181085046
80156.25,213.75,1,False,1,1.0666666666666667,1.0,1.0,1,1.282229159779036,1.00984375,1.6644356076322389,6.728892190253929
80250.0,214,0,False,2,1.0666666666666667,1.0,1.0,1,1.4277949699968002,1.0242187500000002,1.8433064566102944,6.726385911370119
80343.75,214.25,1,True,1,1.0666666666666667,1.0,1.0,1,1.2792727344387143,1.00984375,1.6620681058609335,6.716661944164888
80437.5,214.5,0,True,2,1.0666666666666667,1.0,1.0,1,1.416009958177133,1.0242187500000002,1.8332751732082748,6.713694045509792
80531.25,214.75,1,False,1,1.0666666666666667,1.0,1.0,1,1.287381931815544,1.00984375,1.6685669331027313,6.704239259864517
80625.0,215,0,False,2,1.0666666666666667,1.0,1.0,1,1.4101051410287004,1.02421875,1.8282597913868617,6.699274925340492
80718.75,215.25,1,True,1,1.0666666666666667,1.0,1.0,1,1.2954772224022502,1.00984375,1.6750701877010408,6.691940551644806
80812.5,215.5,0,True,2,1.0666666666666667,1.0,1.0,1,1.4042249480561244,1.02421875,1.8232725274575974,6.686246935500495
80906.25,215.75,1,False,1,1.0666666666666667,1.0,1.0,1,1.3013697637419366,1.00984375,1.679813571315958,6.678892296390071
81000.0,216,0,False,2,1.0666666666666667,1.0,1.0,1,1.3924399396769047,1.02421875,1.8132989932773251,6.672273641612101
81187.5,216.5,1,True,1,0.7111111111111111,1.0,1.0,1,1.3052951690422636,1.00984375,1.6829779357882118,6.6649033015335934
81281.25,216.75,0,True,1,0.7111111111111111,1.0,1.0,1,1.3885004897705362,1.02421875,1.8099716517442737,6.657977201902065
81375.0,217,1,False,2,1.0666666666666667,1.0,1.0,1,1.3092264857406053,1.00984375,1.6861506387713905,6.650581506768217
81468.75,217.25,0,False,1,1.0666666666666667,1.0,1.0,1,1.384583268413716,1.02421875,1.8066663817285913,6.645546457530361
81562.5,217.5,1,True,2,1.0666666666666667,1.0,1.0,1,1.3151190273965423,1.00984375,1.6909127681091463,6.638081484896451
81656.25,217.75,0,True,1,1.0666666666666667,1.0,1.0,1,1.3727982630373512,1.02421875,1.7967424447517488,6.632781873718199
81750.0,218,1,False,2,1.0666666666666667,1.0,1.0,1,1.3210115691849953,1.00984375,1.6956828186720871,6.625363503963637
81843.75,218.25,0,False,1,1.0666666666666667,1.0,1.0,1,1.3698425066650068,1.02421875,1.7942582080928295,6.6202939902815725
81937.5,218.5,1,True,2,1.0666666666666667,1.0,1.0,1,1.3269041111041988,1.00984375,1.7004607237994958,6.612937105668779
82031.25,218.75,0,True,1,1.0666666666666667,1.0,1.0,1,1.3757350496037546,1.02421875,1.7992126328248688,6.608308737504967
82125.0,219,1,False,2,1.0666666666666667,1.0,1.0,1,1.332796653152419,1.00984375,1.705246417468604,6.600938907060533
82218.75,219.25,0,False,1,1.0666666666666667,1.0,1.0,1,1.372798263037351,1.02421875,1.7967424447517488,6.596588740611546
82312.5,219.5,1,True,2,1.0666666666666667,1.0,1.0,1,1.3386891953279518,1.00984375,1.7100398342886993,6.590173621070498
82406.25,219.75,0,True,1,1.0666666666666667,1.0,1.0,1,1.361013259525162,1.02421875,1.7868489280394864,6.585889379240799
82500.0,220,1,False,2,1.0666666666666667,1.0,1.0,1,1.3445817376291234,1.00984375,1.714840909495265,6.579678549913265
82687.5,220.5,0,False,2,0.7111111111111111,1.0,1.0,1,1.3560903953082695,1.02421875,1.7827253090254527,6.5755737083233825
82875.0,221,1,True,2,0.5333333333333333,1.0,1.0,1,1.3475247879040446,1.00984375,1.7172416704575144,6.569726235755063
83156.25,221.75,0,True,2,0.4266666666666667,1.0,1.0,1,1.3476770209851363,1.02421875,1.775690476908383,6.5657168870571745
83343.75,222.25,1,False,2,0.4266666666666667,1.0,1.0,1,1.3469356611464578,1.00984375,1.7167609455022816,6.560149845584405
83625.0,223,0,False,2,0.4266666666666667,1.0,1.0,1,1.3288213081301616,1.02421875,1.7599829186194307,6.555987908618024
83812.5,223.5,0,True,2,1.0666666666666667,1.0,1.0,1,1.322309331382225,1.02421875,1.7545773191039988,6.5517916270794245
84000.0,224,1,False,1,1.0666666666666667,1.0,1.0,1,1.3504055933088788,1.00984375,1.7195934829220956,6.546772868952693
84093.75,224.25,0,False,1,0.7111111111111111,1.0,1.0,1,1.3262347836637378,1.02421875,1.7578346535563074,6.543010248826187
84187.5,224.5,1,True,1,1.0666666666666667,1.0,1.0,1,1.3504055933088788,1.00984375,1.7195934829220956,6.538357113853767
84281.25,224.75,0,True,1,1.0666666666666667,1.0,1.0,1,1.3327522336483972,1.0242187499999997,1.763250773209684,6.535161252414875
84375.0,225,1,False,1,1.0666666666666667,1.0,1.0,1,1.3504055933088788,1.00984375,1.7195934829220956,6.530352671385802
84468.75,225.25,0,False,1,1.0666666666666667,1.0,1.0,1,1.3421991760755492,1.0242187499999997,1.7711188047816186,6.527743941339373
84562.5,225.5,1,True,1,1.0666666666666667,1.0,1.0,1,1.3543396616053243,1.00984375,1.7228080571834767,6.523141216853006
84656.25,225.75,0,True,1,1.0666666666666667,1.0,1.0,1,1.3461217982588334,1.0242187499999997,1.7743918325956332,6.520914776888951
84750.0,226,1,False,1,1.0666666666666667,1.0,1.0,1,1.3582623353220626,1.00984375,1.7260166445560328,6.516273492705306
84843.75,226.25,0,False,1,1.0666666666666667,1.0,1.0,1,1.3461217982588334,1.0242187499999997,1.7743918325956332,6.5143351641670115
84937.5,226.5,1,True,1,1.0666666666666667,1.0,1.0,1,1.3582623353220626,1.00984375,1.7260166445560328,6.509534953402209
85031.25,226.75,0,True,1,1.0666666666666667,1.0,1.0,1,1.3461217982588334,1.0242187499999997,1.7743918325956332,6.507883798075343
85125.0,227,1,False,1,1.0666666666666667,1.0,1.0,1,1.3621963707582412,1.00984375,1.72923784013305,6.502991880814194
85218.75,227.25,0,False,1,1.0666666666666667,1.0,1.0,1,1.349071293751423,1.0242187499999997,1.7768551911322332,6.501697131390106
85312.5,227.5,1,True,2,1.0666666666666667,1.0,1.0,1,1.3661190773352463,1.00984375,1.7324530464666468,6.496718002077406
85406.25,227.75,0,True,2,1.0666666666666667,1.0,1.0,1,1.3520143547687211,1.0242187499999997,1.779315139295184,6.495550673592433
85500.0,228,1,False,1,1.0666666666666667,1.0,1.0,1,1.3661190773352463,1.00984375,1.7324530464666468,6.490466395537371
85593.75,228.25,0,False,1,1.0666666666666667,1.0,1.0,1,1.3520143547687211,1.0242187499999997,1.779315139295184,6.489213474434528
85687.5,228.5,1,True,1,1.0666666666666667,1.0,1.0,1,1.3661190773352463,1.00984375,1.7324530464666468,6.484104594445752
85781.25,228.75,0,True,1,1.0666666666666667,1.0,1.0,1,1.3520143547687211,1.0242187499999997,1.779315139295184,6.483704684137678
85875.0,229,1,False,1,1.0666666666666667,1.0,1.0,1,1.36808467284874,1.00984375,1.7340653553417793,6.478528414785511
85968.75,229.25,0,False,1,1.0666666666666667,1.0,1.0,1,1.355948416305632,1.0242187499999997,1.782606461276471,6.480099778893451
86062.5,229.5,1,True,1,1.0666666666666667,1.0,1.0,1,1.3742628627187072,1.00984375,1.7391384177663467,6.474890539700035
86156.25,229.75,0,True,1,1.0666666666666667,1.0,1.0,1,1.359871096781905,1.0242187499999997,1.785891717502549,6.476463768518719
86250.0,230,1,False,1,1.0666666666666667,1.0,1.0,1,1.3784653862131069,1.00984375,1.742593790107151,6.471264204824192
86343.75,230.25,0,False,1,1.0666666666666667,1.0,1.0,1,1.359871096781905,1.0242187499999997,1.785891717502549,6.472837433642877
86437.5,230.5,1,True,1,1.0666666666666667,1.0,1.0,1,1.3784653862131069,1.00984375,1.742593790107151,6.467563641628139
86531.25,230.75,0,True,1,1.0666666666666667,1.0,1.0,1,1.359871096781905,1.0242187499999997,1.785891717502549,6.469136870446823
86625.0,231,1,False,1,1.0666666666666667,1.0,1.0,1,1.3784653862131069,1.00984375,1.742593790107151,6.463714597129343
86718.75,231.25,0,False,1,1.0666666666666667,1.0,1.0,1,1.359871096781905,1.0242187499999997,1.785891717502549,6.46523523637343
86812.5,231.5,1,True,2,1.0666666666666667,1.0,1.0,1,1.3814148063792953,1.00984375,1.7450210433308815,6.459752031101233
86906.25,231.75,0,True,2,1.0666666666666667,1.0,1.0,1,1.359871096781905,1.0242187499999997,1.785891717502549,6.461181754682874
87000.0,232,1,False,2,1.0666666666666667,1.0,1.0,1,1.3843579427229946,1.00984375,1.747444925030598,6.455761419500437
87093.75,232.25,0,False,2,1.0666666666666667,1.0,1.0,1,1.3638051255362522,1.0242187499999997,1.789189924688215,6.4572467639303825
87187.5,232.5,1,True,2,1.0666666666666667,1.0,1.0,1,1.3843579427229946,1.00984375,1.747444925030598,6.45316163700559
87281.25,232.75,0,True,3,1.0666666666666667,1.0,1.0,1,1.3677278387950889,1.0242187499999997,1.7924820631089835,6.454657721888911
87375.0,233,1,False,2,1.0666666666666667,1.0,1.0,1,1.3843579427229946,1.00984375,1.747444925030598,6.452470413964586
87468.75,233.25,0,False,2,1.0666666666666667,1.0,1.0,1,1.3677278387950889,1.0242187499999997,1.7924820631089835,6.4538003592676185
87562.5,233.5,1,True,2,1.0666666666666667,1.0,1.0,1,1.3882918716853634,1.00984375,1.7506875894448675,6.45161033027793
87656.25,233.75,0,True,2,1.0666666666666667,1.0,1.0,1,1.3716618351424223,1.0242187499999997,1.7957870797037965,6.453367589097403
87750.0,234,1,False,2,1.0666666666666667,1.0,1.0,1,1.3922146847361785,1.00984375,1.7539242588143222,6.451269779898265
87843.75,234.25,0,False,2,1.0666666666666667,1.0,1.0,1,1.3755845808082727,1.0242187499999997,1.799086024817808,6.45295105273931
87937.5,234.5,1,True,2,1.0666666666666667,1.0,1.0,1,1.3922146847361785,1.00984375,1.7539242588143222,6.450853243540174
88031.25,234.75,0,True,3,1.0666666666666667,1.0,1.0,1,1.3755845808082727,1.0242187499999997,1.799086024817808,6.452384625630592
88125.0,235,1,False,3,1.0666666666666667,1.0,1.0,1,1.3922146847361785,1.00984375,1.7539242588143222,6.450184493417484
88218.75,235.25,0,False,3,1.0666666666666667,1.0,1.0,1,1.3791246465817812,1.0242187499999997,1.8020660266023187,6.45162777344611
88312.5,235.5,1,True,2,1.0666666666666667,1.0,1.0,1,1.3922146847361785,1.00984375,1.7539242588143222,6.449265748394623
88406.25,235.75,0,True,3,1.0666666666666667,1.0,1.0,1,1.3826556486201382,1.0242187499999997,1.8050411086104927,6.450671635331079
90000.0,240,1,True,1,0.11851851851851852,1.6,2.0,1,1.3869867468507544,1.02703125,1.820404801650518,6.4501440844452045
90093.75,240.25,0,True,1,0.11851851851851852,1.0,2.0,1,1.3774277793699268,1.0320312499999997,1.8331889752100075,6.452299119654445
90187.5,240.5,1,True,1,1.0666666666666667,1.6,1.0,1,1.3817390287186,1.03171875,1.8355545824373631,6.452116992646867
90281.25,240.75,0,False,1,1.0666666666666667,1.0,1.0,1,1.3721799926025597,1.0320312499999997,1.8287189404577846,6.454051908438166
90375.0,241,1,True,1,1.0666666666666667,1.0,1.0,1,1.3817390287186,1.03171875,1.8355545824373631,6.45378369635223
90468.75,241.25,0,True,1,1.0666666666666667,1.0,1.0,1,1.3721799926025597,1.0320312499999997,1.8287189404577846,6.455626024979237
90562.5,241.5,1,False,1,1.0666666666666667,1.0,1.0,1,1.3817390287186,1.03171875,1.8355545824373631,6.4552497841424685
90656.25,241.75,0,False,1,1.0666666666666667,1.0,1.0,1,1.3721799926025597,1.0320312499999997,1.8287189404577846,6.457092112769475
90750.0,242,1,True,1,1.0666666666666667,1.0,1.0,1,1.3817390287186002,1.03171875,1.8355545824373634,6.457417377009729
90843.75,242.25,0,True,1,1.0666666666666667,1.0,1.0,1,1.3721799926025597,1.0320312499999997,1.8287189404577846,6.4592225721333945
90937.5,242.5,1,False,1,1.0666666666666667,1.0,1.0,1,1.3817390287186002,1.03171875,1.8355545824373634,6.459423337050434
91031.25,242.75,0,False,1,1.0666666666666667,1.0,1.0,1,1.3721799926025597,1.0320312499999997,1.8287189404577846,6.461177496783811
91125.0,243,1,True,1,1.0666666666666667,1.0,1.0,1,1.3817390287186002,1.03171875,1.8355545824373634,6.461354476991162
91218.75,243.25,0,True,1,1.0666666666666667,1.6,1.0,1,1.3721799926025597,1.03671875,1.8484014559376125,6.46413111215047
91312.5,243.5,1,False,1,1.0666666666666667,1.0,1.0,1,1.3817390287186002,1.03171875,1.8355545824373634,6.46421286202497
91406.25,243.75,0,True,1,1.0666666666666667,1.6,1.0,1,1.3721799926025597,1.0414062499999999,1.8682232173915028,6.467081689252697
91500.0,244,1,True,1,1.0666666666666667,1.0,1.0,1,1.3817390287186002,1.03171875,1.8355545824373634,6.467020519805606
91593.75,244.25,0,True,1,1.0666666666666667,1.0,1.0,1,1.3721799926025597,1.0414062499999999,1.8682232173915028,6.469767737264193
91687.5,244.5,1,False,1,1.0666666666666667,1.0,1.0,1,1.3817390287186002,1.03171875,1.8355545824373634,6.469563441305528
91781.25,244.75,0,False,1,1.0666666666666667,1.0,1.0,1,1.3721799926025597,1.0414062499999999,1.8682232173915028,6.472449592552869
91875.0,245,1,True,1,1.0666666666666667,1.0,1.0,1,1.3817390287186002,1.03171875,1.8355545824373634,6.472101964582456
91968.75,245.25,0,True,1,1.0666666666666667,1.0,1.0,1,1.3721799926025597,1.0414062499999999,1.8682232173915028,6.475265969020079
92062.5,245.5,1,False,1,1.0666666666666667,1.0,1.0,1,1.3817390287186002,1.03171875,1.8355545824373634,6.474822738983374
92156.25,245.75,0,False,1,1.0666666666666667,1.0,1.0,1,1.3721799926025597,1.0414062499999999,1.8682232173915028,6.478102564201262
92250.0,246,1,True,1,1.0666666666666667,1.0,1.0,1,1.3817390287186002,1.03171875,1.8355545824373634,6.4806583882688775
92343.75,246.25,0,True,1,1.0666666666666667,1.0,1.0,1,1.3721799926025597,1.0414062499999999,1.8682232173915028,6.48116189540411
92437.5,246.5,1,False,1,1.0666666666666667,1.0,1.0,1,1.3817390287186004,1.03171875,1.8355545824373636,6.484086182722875
92531.25,246.75,0,False,1,1.0666666666666667,1.0,1.0,1,1.3721799926025597,1.0414062499999999,1.8682232173915028,6.484643924310184
92625.0,247,1,True,1,1.0666666666666667,1.0,1.0,1,1.3817390287186004,1.03171875,1.8355545824373636,6.48428521404011
92718.75,247.25,0,True,1,1.0666666666666667,1.6,1.0,1,1.3721799926025597,1.0460937499999998,1.888184791786273,6.4895314115132345
92812.5,247.5,1,False,1,1.0666666666666667,1.0,1.0,1,1.3817390287186004,1.03171875,1.8355545824373636,6.4891487817869
92906.25,247.75,0,True,1,1.0666666666666667,1.6,1.0,1,1.3721799926025597,1.05078125,1.9082867468242335,6.495013353375282
93000.0,248,1,True,1,1.0666666666666667,1.0,1.0,1,1.3817390287186004,1.03171875,1.8355545824373636,6.494534956518816
93093.75,248.25,0,True,1,1.0666666666666667,1.0,1.0,1,1.3721799926025597,1.0507812499999998,1.9082867468242324,6.500444793241487
