TimeMS,Beat,Type,Forehand,numNotes,SwingSpeed,Angle Diff,AngleChangeDiff,Pos Diff,C Stamina,C Pattern Diff,C CombinedDiff,C SmoothedDiff
14250.0,38,1,True,1,0,1.0,0,1,1.1778359975905541,0,0.0,0.0
14625.0,39,1,False,1,0.5333333333333333,1.0,1.0,1.1025,0.016666666666666666,0.034453125,4.5430315515638746e-05,9.810676635602187e-05
15000.0,40,0,True,1,0,1.0,0,1,0,0,0,6.540451090401458e-05
15375.0,41,0,False,1,0.5333333333333333,1.0,1.0,1.26,0.016666666666666666,0.039375,6.629018527885716e-05,0.00012063021073285695
15750.0,42,1,True,1,0.17777777777777778,1.0,1.0,1.05,0.027777777777777776,0.067265625,0.0003292845780731875,0.0003809401871259049
16125.0,43,1,False,1,0.5333333333333333,1.0,1.0,1.05,0.04479032082388083,0.100078125,0.0010981537291490167,0.0011079378153040214
16500.0,44,0,True,1,0.17777777777777778,1.0,1.0,1,0.027777777777777776,0.070625,0.00037853770581127355,0.00118321874903186
16875.0,45,0,False,1,0.5333333333333333,1.0,1.0,1.26,0.04479032082388083,0.10999999999999999,0.001437109865470312,0.0018111760940236617
17250.0,46,1,True,1,0.17777777777777778,1.0,1.0,1,0.05905636562630361,0.131328125,0.0024835029920628527,0.0028017397972120842
17625.0,47,1,False,1,0.5333333333333333,1.0,1.0,1.1025,0.07556372504853025,0.16578125,0.005007212600345709,0.0046841809395801876
18000.0,48,0,True,1,0.17777777777777778,1.0,1.0,1.05,0.05905636562630361,0.1428125,0.0031519365696326307,0.0054959112218222915
18375.0,49,0,False,1,0.5333333333333333,1.0,1.0,1.5750000000000002,0.07556372504853025,0.19203125,0.007609859143248382,0.007776833756644583
18750.0,50,1,True,1,0.17777777777777778,1.0,1.0,1,0.09043789220055393,0.19703125,0.008416289378758855,0.009974766069738036
19125.0,51,1,False,1,0.5333333333333333,1.0,1.0,1.1025,0.10671873729054748,0.231484375,0.013658809483068772,0.013476025504569179
19500.0,52,0,True,1,0.17777777777777778,1.0,1.0,1,0.09043789220055393,0.22328125,0.012010027442542178,0.016035711039220545
19875.0,53,0,False,1,0.5333333333333333,1.0,1.0,1.26,0.10671873729054748,0.26265625,0.019558786262612014,0.02031312896603309
20250.0,54,1,True,1,0.17777777777777778,1.0,1.0,1,0.12184284555256282,0.26273437499999996,0.01999171913414839,0.02419731167040684
20625.0,55,1,False,1,0.5333333333333333,1.0,1.0,1.05,0.137997137204158,0.295546875,0.02849085785362481,0.029689239637040104
21000.0,56,0,True,1,0.17777777777777778,1.0,1.0,1,0.12184284555256282,0.29390625,0.027483047491758807,0.03437397871492778
21375.0,57,0,False,1,0.5333333333333333,1.0,1.0,1.26,0.137997137204158,0.33328125,0.04006758114838641,0.04130787392817545
21750.0,58,1,True,1,0.17777777777777778,1.0,1.0,1,0.15325682471259688,0.326796875,0.03854793205728563,0.04726885700566311
22125.0,59,1,False,1,0.5333333333333333,1.0,1.0,1.1025,0.1693305628236463,0.36125000000000007,0.052065773531803555,0.055341730591035684
22500.0,60,0,True,1,0.17777777777777778,1.0,1.0,1.05,0.15325682471259688,0.36609375,0.05319145245475895,0.06292399809369083
22875.0,61,0,False,1,0.5333333333333333,1.0,1.0,1.5750000000000002,0.1693305628236463,0.4153125,0.07594571302664987,0.07396922877987458
23250.0,62,1,True,1,0.17777777777777778,1.0,1.0,1,0.1846752237621629,0.39250000000000007,0.06682582755933482,0.08255528959783028
23625.0,63,1,False,1,0.5333333333333333,1.0,1.0,1.05,0.2006932429798716,0.4253125,0.08507029335878187,0.09351157065239755
24000.0,64,0,True,1,0.17777777777777778,1.0,1.0,1,0.1846752237621629,0.4465625,0.08924285775084721,0.10432373109586095
24375.0,65,0,False,1,0.5333333333333333,1.0,1.0,1.5750000000000002,0.2006932429798716,0.49578125000000006,0.10734308925157061,0.11715555507377783
24750.0,66,1,True,1,0.17777777777777778,1.0,1.0,1,0.21609611487529692,0.4565625,0.10529204928727366,0.1287969621702591
25125.0,67,1,False,1,0.5333333333333333,1.0,1.0,1.05,0.23207331749117135,0.489375,0.12569419855433833,0.1425995048831234
25500.0,68,0,True,1,0.17777777777777778,1.0,1.0,1,0.21609611487529692,0.5270312500000001,0.123091251044586,0.15514891160500865
25875.0,69,0,False,1,0.5333333333333333,1.0,1.0,1.5750000000000002,0.23207331749117135,0.5762500000000002,0.14417004300787525,0.16975895860957127
26250.0,70,1,True,1,0.17777777777777778,1.0,1.0,1,0.24751854899939402,0.520625,0.14268662331286777,0.18328940004831992
26625.0,71,1,False,1,0.5333333333333333,1.0,1.0,1.26,0.2634645711417639,0.5599999999999999,0.16305319343124441,0.1986110865889442
27000.0,72,1,True,1,0.5333333333333333,1.0,1.0,1.05,0.28701314117976645,0.5928125,0.1890375844287918,0.21626372203348726
27375.0,73,1,False,1,0.5333333333333333,1.0,1.0,1.2,0.3105649968749708,0.6303124999999999,0.21822455962612516,0.236437281783258
27750.0,74,0,True,1,0.10666666666666667,1.0,1.0,1,0.24592732038872833,0.6075000000000002,0.16117838996505593,0.24886139487719908
28125.0,75,0,False,1,0.5333333333333333,1.0,1.0,1.44,0.2603250579611366,0.6525000000000002,0.1828818987554906,0.2630983823995086
28500.0,76,0,True,1,0.5333333333333333,1.0,1.0,1.05,0.2838731241545841,0.6853125000000001,0.21057133042954437,0.2796716950591419
28875.0,77,0,False,1,0.5333333333333333,1.0,1.0,1.7999999999999998,0.30742458675780937,0.7415625000000001,0.2467883911082204,0.2993268792125734
29250.0,78,1,True,1,0.10666666666666667,1.0,1.0,1,0.3244920056463565,0.6615624999999999,0.23910459436429074,0.31721385150151965
29625.0,79,1,False,1,0.5333333333333333,1.0,1.0,1.05,0.3388305960793773,0.694375,0.261791932536822,0.33658207781402005
30000.0,80,1,True,1,0.5333333333333333,1.0,1.0,1,0.3623874878607493,0.725625,0.293926486992229,0.358277110825774
30375.0,81,1,False,1,0.5333333333333333,1.0,1.0,1.05,0.38594600786593763,0.7584375,0.32843569033986986,0.38237339800195863
30750.0,82,0,True,1,0.10666666666666667,1.0,1.0,1,0.3213493925601314,0.7728125,0.268957077256546,0.3996901139723824
31125.0,83,0,False,1,0.5333333333333333,1.0,1.0,1.5750000000000002,0.33568981861383235,0.8220312500000002,0.2980696930197298,0.41898735071542226
31500.0,84,0,True,1,0.5333333333333333,1.0,1.0,1,0.35924646788988485,0.8532812500000002,0.3325983882809014,0.4406363951466943
31875.0,85,0,False,1,0.5333333333333333,1.0,1.0,1.5750000000000002,0.38280478859705963,0.9025000000000002,0.3752747933435859,0.46522338342386615
32250.0,86,1,True,1,0.10666666666666667,1.0,1.0,1,0.3999151144498444,0.7896875,0.3539956895212507,0.48693122015077256
32625.0,87,1,False,1,0.5333333333333333,1.0,1.0,1.26,0.41421798996407255,0.8290625,0.3838889495693518,0.5103529232115577
33000.0,88,1,True,1,0.5333333333333333,1.0,1.0,1,0.43777918781498804,0.8603125,0.42258465018407837,0.5361331228377043
33375.0,89,1,False,1,0.5333333333333333,1.0,1.0,1.05,0.4613413080021512,0.893125,0.4637588765450764,0.5643416125484827
33750.0,90,0,True,1,0.10666666666666667,1.0,1.0,1.05,0.3967724726612576,0.9353125000000002,0.4031172916618464,0.5865439138718607
34125.0,91,0,False,1,0.5333333333333333,1.0,1.0,1.1025,0.4110765751259538,0.9697656250000002,0.4329846984531284,0.6103127471819939
34500.0,92,0,True,1,0.5333333333333333,1.0,1.0,1,0.4346376382036073,1.0010156250000002,0.47432134259902303,0.6364633132093246
34875.0,93,0,False,1,0.5333333333333333,1.0,1.0,1.5750000000000002,0.45819964380196415,1.0502343750000003,0.5250214505364044,0.6655901762746353
35250.0,94,1,True,1,0.10666666666666667,1.0,1.0,1.2,0.4753387356193968,0.930625,0.49672552265767983,0.6915510070831244
35625.0,95,1,False,1,0.5333333333333333,1.0,1.0,1.26,0.4896168822232589,0.97,0.532000836226284,0.7192434312999899
36000.0,96,1,True,1,0.5333333333333333,1.0,1.0,1,0.5131805929569572,1.0012500000000002,0.5773808246418636,0.7493190982547054
36375.0,97,1,False,1,0.5333333333333333,1.0,1.0,1.05,0.5367448758287263,1.0340625,0.6253435582315302,0.7818447604171601
36750.0,98,0,True,1,0.10666666666666667,1.0,1.0,1.2,0.4721960777076288,1.087734375,0.5599328100614547,0.8086727119948367
37125.0,99,0,False,1,0.5333333333333333,1.0,1.0,1.1025,0.48647510182059456,1.1221875,0.5950055492096424,0.8370784580438947
37500.0,100,0,True,1,0.5333333333333333,1.0,1.0,1,0.510038730071393,1.1534375,0.6432471231728862,0.8678896622810346
37875.0,101,0,False,1,0.5333333333333333,1.0,1.0,1.5750000000000002,0.5336029411139259,1.20265625,0.7020710550886256,0.9017077126661398
38250.0,102,1,True,1,0.10666666666666667,1.0,1.0,1,0.5424105370216857,1.0330303030303032,0.6328703330775649,0.9298870858337682
38343.75,102.25,0,True,1,0.4266666666666667,1.0,1.0,1,0.546139513592533,1.1965151515151515,0.7183171193455894,0.9628041245098264
38437.5,102.5,1,False,1,1.0666666666666667,1.0,1.0,1,0.5508353279151648,1.0320588235294117,0.6443984637409886,0.9899735698887443
38531.25,102.75,0,False,1,1.0666666666666667,1.0,1.0,1,0.5613371489892209,1.1907352941176468,0.7389529592292937,1.0223495149037822
38625.0,103,1,True,2,1.0666666666666667,1.0,1.0,1,0.5785822660658925,1.0311428571428571,0.6841017915549726,1.0503536616113494
38718.75,103.25,0,True,1,1.0666666666666667,1.0,1.0,1,0.5887806986336778,1.185285714285714,0.7792318327717136,1.083427213384631
38812.5,103.5,1,False,1,1.0666666666666667,1.0,1.0,1,0.6047689145034932,1.0302777777777776,0.7224945535962266,1.1121177311817785
38906.25,103.75,0,False,1,1.0666666666666667,1.0,1.0,1,0.6146808300591046,1.1801388888888886,0.8179090857276364,1.1457348368772768
39000.0,104,1,True,1,1.0666666666666667,1.0,1.0,1,0.6295228039822046,1.0294594594594593,0.7596349552679345,1.1749831729721392
39093.75,104.25,0,True,1,1.0666666666666667,1.0,1.0,1,0.639163743623765,1.17527027027027,0.8550927632825337,1.209012395561938
39187.5,104.5,1,False,2,1.0666666666666667,1.0,1.0,1,0.6529580525114337,1.0286842105263156,0.7955766484453497,1.238706837549585
39281.25,104.75,0,False,1,1.0666666666666667,1.0,1.0,1,0.6623423523596238,1.1706578947368418,0.8908781140075194,1.2730357288239127
39375.0,105,1,True,1,1.0666666666666667,1.0,1.0,1,0.6751770505296819,1.027948717948718,0.8303696780344257,1.3030789874032216
39468.75,105.25,0,True,1,1.0666666666666667,1.0,1.0,1,0.6843179562810278,1.1662820512820509,0.925349934937583,1.33761113332107
39562.5,105.5,1,False,1,1.0666666666666667,1.0,1.0,1,0.6962719087778553,1.02725,0.8640611328860679,1.367918334582005
39656.25,105.75,0,False,1,1.0666666666666667,1.0,1.0,1,0.7051816790797507,1.1621249999999999,0.9585843821178395,1.4025709297293167
39750.0,106,1,True,2,1.0666666666666667,1.0,1.0,1,0.7163257031721131,1.0265853658536583,0.8966955957635401,1.4330679340302235
39843.75,106.25,0,True,1,1.0666666666666667,1.0,1.0,1,0.7250157023312299,1.1581707317073169,0.9906503799089301,1.4677697761862776
39937.5,106.5,1,False,1,1.0666666666666667,1.0,1.0,1,0.7354135469716873,1.025952380952381,0.9283154575208515,1.498391760341052
40031.25,106.75,0,False,1,1.0666666666666667,1.0,1.0,1,0.7438943278493252,1.1544047619047617,1.021610727943365,1.5330815814558896
40125.0,107,1,True,1,1.0666666666666667,1.0,1.0,1,0.7536035162981244,1.025348837209302,0.9589611400715701,1.5637718353678096
40218.75,107.25,0,True,1,1.0666666666666667,1.0,1.0,1,0.761884894351682,1.150813953488372,1.0515229791077412,1.598396904105002
40312.5,107.5,1,False,2,1.0666666666666667,1.0,1.0,1,0.7709574511191559,1.0247727272727272,0.9886712584956627,1.6291058036606079
40406.25,107.75,0,False,1,1.0666666666666667,1.0,1.0,1,0.7790485705404832,1.1473863636363637,1.0804401430974755,1.663620748823987
40500.0,108,1,True,1,1.0666666666666667,1.0,1.0,1,0.7875316503414899,1.024222222222222,1.0174827428357502,1.6943048748631286
40593.75,108.25,0,True,1,1.0666666666666667,1.0,1.0,1,0.7954410431821781,1.1441111111111109,1.1084112562203314,1.7286706897603785
40687.5,108.5,1,False,1,1.0666666666666667,1.0,1.0,1,0.8033774766887889,1.023695652173913,1.0454309334151515,1.759292069009386
40781.25,108.75,0,False,1,1.0666666666666667,1.0,1.0,1,0.8111131157809477,1.140978260869565,1.135481847901549,1.7934752650102268
40875.0,109,1,True,2,1.0666666666666667,1.0,1.0,1,0.8185418845383408,1.0231914893617018,1.0725496589165378,1.8240007135247465
40968.75,109.25,0,True,1,1.0666666666666667,1.0,1.0,1,0.8261112309330385,1.137978723404255,1.1616943267935405,1.8579725973959869
41062.5,109.5,1,False,1,1.0666666666666667,1.0,1.0,1,0.8330678817954565,1.022708333333333,1.0988713033307762,1.88837315067693
41156.25,109.75,0,False,1,1.0666666666666667,1.0,1.0,1,0.840477927357557,1.1351041666666664,1.1870883038020972,1.9221092051919746
41250.0,110,1,True,1,1.0666666666666667,1.0,1.0,1,0.8469949351380942,1.0222448979591834,1.1244268657629932,1.9523596219758754
41343.75,110.25,0,True,1,1.0666666666666667,1.0,1.0,1,0.854252240859257,1.1323469387755098,1.2117008651864292,1.9858389731469401
41437.5,110.5,1,False,1,1.0666666666666667,1.0,1.0,1,0.8603593265095688,1.0217999999999996,1.1492460156514392,2.0159173021211987
41531.25,110.75,0,False,1,1.0666666666666667,1.0,1.0,1,0.8674700570319884,1.1296999999999997,1.2355668057912426,2.0491222594421106
41625.0,111,1,True,2,1.0666666666666667,1.0,1.0,1,0.8731944675253445,1.0213725490196075,1.1733571449966236,2.0790094599351634
41718.75,111.25,0,True,1,1.0666666666666667,1.0,1.0,1,0.880164422307529,1.1271568627450979,1.258718830147506,2.11192511843979
41812.5,111.5,1,False,1,1.0666666666666667,1.0,1.0,1,0.88553117744907,1.020961538461538,1.1967874185635472,2.141604727588685
41906.25,111.75,0,False,1,1.0666666666666667,1.0,1.0,1,0.892365818951194,1.1247115384615383,1.2811877274317656,2.1742186224655033
42000.0,112,1,True,1,1.0666666666666667,1.0,1.0,1,0.8973979295483391,1.0205660377358488,1.2195628226054485,2.2036764625451926
42093.75,112.25,0,True,1,1.0666666666666667,1.0,1.0,1,0.9041024087677804,1.1223584905660375,1.303002524953299,2.2359782686086653
42187.5,112.5,1,False,2,1.0666666666666667,1.0,1.0,1,0.9088210699332848,1.0201851851851849,1.2417082123922443,2.2652021891760805
42281.25,112.75,0,False,1,1.0666666666666667,1.0,1.0,1,0.9154002495801171,1.1200925925925924,1.324190623835143,2.2971834587609687
42375.0,113,1,True,1,1.0666666666666667,1.0,1.0,1,0.9198250123872841,1.0198181818181815,1.2632473586620472,2.326163109066477
42468.75,113.25,0,True,1,1.0666666666666667,1.0,1.0,1,0.9262834879540268,1.1179090909090907,1.3447779197889262,2.357817042943767
42562.5,113.5,1,False,1,1.0666666666666667,1.0,1.0,1,0.9304324121992686,1.0194642857142855,1.2842029930162315,2.3865436707265895
42656.25,113.75,0,False,1,1.0666666666666667,1.0,1.0,1,0.936774531148382,1.1158035714285712,1.364788911295288,2.4178649174869267
42750.0,114,1,True,2,1.0666666666666667,1.0,1.0,1,0.9406643215853875,1.0191228070175433,1.3045968522246483,2.4463311908256107
42843.75,114.25,0,True,1,1.0666666666666667,1.0,1.0,1,0.9468942008512411,1.1137719298245612,1.3842467970476,2.4773156708749364
42937.5,114.5,1,False,1,1.0666666666666667,1.0,1.0,1,0.950540328930922,1.0187931034482753,1.3244497213821338,2.5055155202294976
43031.25,114.75,0,False,1,1.0666666666666667,1.0,1.0,1,0.9566618709097054,1.1118103448275862,1.4031735641641356,2.5361602711208375
43125.0,115,1,True,1,1.0666666666666667,1.0,1.0,1,0.9600786837806258,1.018474576271186,1.3437814758498645,2.5640887490958355
43218.75,115.25,0,True,1,1.0666666666666667,1.0,1.0,1,0.9660955909614211,1.109915254237288,1.4215900683983989,2.594391789403606
43312.5,115.5,1,False,2,1.0666666666666667,1.0,1.0,1,0.9692964092481471,1.0181666666666662,1.3626111219182753,2.6220449460940367
43406.25,115.75,0,False,1,1.0666666666666667,1.0,1.0,1,0.9752121976207453,1.1080833333333333,1.439516107360814,2.652005155440682
43500.0,116,1,True,1,1.0666666666666667,1.0,1.0,1,0.9782094032955767,1.017868852459016,1.3809568361374642,2.6793799275054515
43593.75,116.25,0,True,1,1.0666666666666667,1.0,1.0,1,0.9840274146552259,1.1063114754098362,1.4569704875936342,2.7089969406891514
43687.5,116.5,1,False,1,1.0666666666666667,1.0,1.0,1,0.9868325301463897,1.0175806451612899,1.3988360032732055,2.7360910525383213
43781.25,116.75,0,False,1,1.0666666666666667,1.0,1.0,1,0.9925559434022038,1.1045967741935485,1.4739710862044668,2.7653651659962137
43875.0,117,1,True,2,1.0666666666666667,1.0,1.0,1,0.9951797029340892,1.017301587301587,1.4162652528598545,2.7921770416850573
43968.75,117.25,0,True,1,1.0666666666666667,1.0,1.0,1,1.0008115445160661,1.102936507936508,1.4905349076543202,2.821109130768184
44062.5,117.5,1,False,1,1.0666666666666667,1.0,1.0,1,1.0032639585505487,1.0170312499999996,1.4332604943344045,2.847637815368673
44156.25,117.75,0,False,1,1.0666666666666667,1.0,1.0,1,1.0088071119998128,1.1013281250000002,1.5066781362076094,2.876229261110173
44250.0,118,1,True,1,1.0666666666666667,1.0,1.0,1,1.0110975255389176,1.0167692307692304,1.4498369507479993,2.925149931346741
44343.75,118.25,0,True,1,1.0666666666666667,1.0,1.0,1,1.0165547403567199,1.099769230769231,1.5224161844795736,2.9765180507782607
44437.5,118.5,1,False,1,1.0666666666666667,1.0,1.0,1,1.018691885773097,1.0165151515151511,1.4660091910619555,3.0259844077797964
44531.25,118.75,0,False,1,1.0666666666666667,1.0,1.0,1,1.0240657855961166,1.098257575757576,1.5377637384575111,3.07786968339767
44625.0,119,1,True,2,1.0666666666666667,1.0,1.0,1,1.026057830576782,1.0162686567164176,1.4817911610446268,3.1278574478075063
44718.75,119.25,0,True,1,1.0666666666666667,1.0,1.0,1,1.0313509207392269,1.0967910447761198,1.5527347993234548,3.180213062435021
44812.5,119.5,1,False,1,1.0666666666666667,1.0,1.0,1,1.0332055118578822,1.0160294117647055,1.4959069003032959,3.230675460857352
44906.25,119.75,0,False,1,1.0666666666666667,1.0,1.0,1,1.0384201863946612,1.0953676470588238,1.5673427223653227,3.2835125416416253
45000.0,120,1,True,1,1.0666666666666667,1.0,1.0,1,1.040144488767035,1.015797101449275,1.5001689216731813,3.334047723854779
45093.75,120.25,0,True,1,1.0666666666666667,1.0,1.0,1,1.04528303690677,1.093985507246377,1.5816002532295148,3.387245421842884
45187.5,120.5,1,False,2,1.0666666666666667,1.0,1.0,1,1.0468837703304925,1.0155714285714283,1.5043210052776836,3.437898150028431
45281.25,120.75,0,False,1,1.0666666666666667,1.0,1.0,1,1.0519483825222573,1.0926428571428575,1.5955195617391575,3.4914776969464913
45375.0,121,1,True,1,1.0666666666666667,1.0,1.0,1,1.0534318544566663,1.0153521126760563,1.5083671204397326,3.542089319128932
45468.75,121.25,0,True,1,1.0666666666666667,1.0,1.0,1,1.0584246279700098,1.0913380281690144,1.6091122734777275,3.595923409058564
45562.5,121.5,1,False,1,1.0666666666666667,1.0,1.0,1,1.0597967636710168,1.0151388888888888,1.5123110646485032,3.646546847962412
45656.25,121.75,0,False,1,1.0666666666666667,1.0,1.0,1,1.064719707804971,1.0900694444444448,1.6223894993167916,3.7006298624130456
45750.0,122,1,True,2,1.0666666666666667,1.0,1.0,1,1.0659860778948922,1.014931506849315,1.5161564711364341,3.751113734005997
45843.75,122.25,0,True,1,1.0666666666666667,1.0,1.0,1,1.0708411188282427,1.0888356164383566,1.6353618630485287,3.805333076751597
45937.5,122.5,1,False,1,1.0666666666666667,1.0,1.0,1,1.0720069645496237,1.0147297297297295,1.519906816259095,3.8556907193868013
46031.25,122.75,0,False,1,1.0666666666666667,1.0,1.0,1,1.076795949861653,1.0876351351351354,1.6480395272679669,3.9099472102875077
46125.0,123,1,True,1,1.0666666666666667,1.0,1.0,1,1.0778662062370157,1.0145333333333333,1.52356542664945,3.960054949030817
46218.75,123.25,0,True,1,1.0666666666666667,1.0,1.0,1,1.0825909091251988,1.0864666666666671,1.6604322176361679,4.014324751156495
46312.5,123.5,1,False,2,1.0666666666666667,1.0,1.0,1,1.0835702262207856,1.014342105263158,1.5271354861269035,4.064058847105167
46406.25,123.75,0,False,1,1.0666666666666667,1.0,1.0,1,1.088232349439473,1.0853289473684213,1.672549245643545,4.1179317428658875
46500.0,124,1,True,1,1.0666666666666667,1.0,1.0,1,1.0891251119100538,1.0141558441558443,1.5306200423485077,4.167323361722719
46593.75,124.25,0,True,1,1.0666666666666667,1.0,1.0,1,1.0937262914519832,1.0842207792207796,1.6843995299818506,4.221288228699087
46687.5,124.5,1,False,1,1.0666666666666667,1.0,1.0,1,1.094536636525247,1.013974358974359,1.534022013195245,4.270038237858183
46781.25,124.75,0,False,1,1.0666666666666667,1.0,1.0,1,1.099078445065758,1.083141025641026,1.6959916166239495,4.32364271434038
46875.0,125,1,True,2,1.0666666666666667,1.0,1.0,1,1.099810279108409,1.0137974683544302,1.5373441928906086,4.3719632862796205
46968.75,125.25,0,True,1,1.0666666666666667,1.0,1.0,1,1.1042942292304707,1.082088607594937,1.7073336977020837,4.42533126281727
47062.5,125.5,1,False,1,1.0666666666666667,1.0,1.0,1,1.104951243023632,1.013625,1.5405892578521267,4.4731607463438445
47156.25,125.75,0,False,1,1.0666666666666667,1.0,1.0,1,1.1093787902401993,1.0810625000000003,1.718433629267812,4.5262798434458515
47250.0,126,1,True,1,1.0666666666666667,1.0,1.0,1,1.1099644730788432,1.0134567901234568,1.5437597722790009,4.573555116339481
47343.75,126.25,0,True,1,1.0666666666666667,1.0,1.0,1,1.1143370186676276,1.080061728395062,1.7292989480100394,4.6264036742615575
47437.5,126.5,1,False,1,1.0666666666666667,1.0,1.0,1,1.1148546713873178,1.0132926829268294,1.5468581934810974,4.672219511843565
47531.25,126.75,0,False,1,1.0666666666666667,1.0,1.0,1,1.1191735650517654,1.0790853658536588,1.7399368870014962,4.723565414514926
47625.0,127,1,True,2,1.0666666666666667,1.0,1.0,1,1.1196263120758079,1.0131325301204819,1.5498868769558998,4.770423476665813
47718.75,127.25,0,True,1,1.0666666666666667,1.0,1.0,1,1.123892854444908,1.0781325301204823,1.7503543905384813,4.823313427384648
47812.5,127.5,1,False,1,1.0666666666666667,1.0,1.0,1,1.1242836549359538,1.0129761904761905,1.5528480812211816,4.86860478118675
47906.25,127.75,0,False,1,1.0666666666666667,1.0,1.0,1,1.1284990999144489,1.0772023809523812,1.7605581281337392,4.919682683485291
48000.0,128,1,True,1,1.0666666666666667,1.0,1.0,1,1.1288307581064871,1.0128235294117647,1.5557439724118496,4.964108976249255
48093.75,128.25,0,True,1,1.0666666666666667,1.0,1.0,1,1.1329963150860907,1.076294117647059,1.770554507717764,5.015017925953993
48187.5,128.5,1,False,2,1.0666666666666667,1.0,1.0,1,1.1332714898655547,1.0126744186046512,1.558576628649926,5.057689988155707
48281.25,128.75,0,False,1,1.0666666666666667,1.0,1.0,1,1.1373883258069268,1.0754069767441863,1.7803496880997283,5.106680742501995
48375.0,129,1,True,1,1.0666666666666667,1.0,1.0,1,1.1376095396051633,1.012528735632184,1.5613480441969068,5.150288840831803
48468.75,129.25,0,True,1,1.0666666666666667,1.0,1.0,1,1.1416787809995976,1.0745402298850577,1.7899495907354517,5.200628132068009
48562.5,129.5,1,False,1,1.0666666666666667,1.0,1.0,1,1.1418484280531562,1.0123863636363637,1.5640601333978645,5.242180345170823
48656.25,129.75,0,False,1,1.0666666666666667,1.0,1.0,1,1.14587116277222,1.073693181818182,1.799359910846362,5.290232092221561
48750.0,130,1,True,2,1.0666666666666667,1.0,1.0,1,1.1459915168022299,1.012247191011236,1.566714734426652,5.331151885619579
49125.0,131,1,False,2,0.5333333333333333,1.0,1.0,1,1.1458520997749202,1.0121111111111114,1.566094204589362,5.371042076997951
49250.003814697266,131.33334350585938,1,True,2,1.5999511733650706,1.0,1.0,1,1.1498271335202621,1.0119780219780221,1.5686456784343517,5.409712683099613
49375.00762939453,131.66668701171875,1,False,2,1.5999511733650706,1.0,1.0,1,1.1619894180092782,1.0118478260869566,1.5775234847711508,5.447293537341242
49500.0,132,0,True,2,0.23703703703703705,1.3,1.0,1,1.1433847042475365,1.07623595505618,1.7953733815674466,5.494271303374853
49625.003814697266,132.33334350585938,0,False,2,1.5999511733650706,1.0,1.0,1,1.1450704479953506,1.0753888888888892,1.7987622949231625,5.5403556271182435
49750.00762939453,132.66668701171875,0,True,2,1.5999511733650706,1.0,1.0,1,1.1574196760638273,1.0745604395604398,1.8236272688987325,5.58588416067831
49875.0,133,1,True,2,0.40000610360875866,1.3,1.0,1,1.164754957016175,1.01494623655914,1.5914439876643902,5.621867589880308
50000.003814697266,133.33334350585938,1,False,2,1.5999511733650706,1.0,1.0,1,1.1673842430911103,1.0147872340425534,1.5928803062573997,5.658854250117553
50124.996185302734,133.66665649414062,0,False,1,0.5333496098717205,1.0,1.0,1,1.161288027002303,1.0737500000000002,1.8235140750421612,5.7024327319804105
50250.0,134,1,True,2,0.8000122072175173,1.0,1.0,1,1.173006601908297,1.0146315789473686,1.5966597040968844,5.736825431045773
50625.0,135,1,False,3,0.5333333333333333,1.0,1.0,1,1.17060851601302,1.0144791666666668,1.5942115228177989,5.769517155569585
51000.0,136,1,True,1,0.5333333333333333,1.0,1.0,1,1.166293603839615,1.0143298969072168,1.5902893624428058,5.8042836395518895
51125.003814697266,136.33334350585938,1,False,1,1.5999511733650706,1.0,1.0,1,1.1697748045556862,1.0141836734693879,1.5924358925984974,5.837939121216706
51250.00762939453,136.66668701171875,1,True,1,1.5999511733650706,1.0,1.0,1,1.1808702670696307,1.0140404040404043,1.6005279198980895,5.870239869349956
51374.9942779541,136.99998474121094,1,False,1,1.6001709166933724,1.0,1.0,1,1.1917442763486499,1.0139000000000002,1.6084883417768305,5.90082437139063
51499.99237060547,137.33331298828125,1,True,1,1.6000244144350346,1.3,1.0,1,1.2024024130824855,1.0167326732673267,1.6277852010796867,5.934394975413296
51624.990463256836,137.66664123535156,1,True,1,1.6000244144350346,1.3,1.0,1,1.2128495240955273,1.0195098039215689,1.6468522596410637,5.965725782217485
51749.9942779541,137.99998474121094,0,True,1,0.12307706753900093,1.0,1.0,1,1.1537781982405584,1.0729569892473123,1.81386131783466,6.005186017114599
51874.99809265137,138.3333282470703,0,False,1,1.5999511733650706,1.0,1.0,1,1.1544121430494223,1.0721808510638302,1.811164535552677,6.0413647811625735
52000.00190734863,138.6666717529297,0,True,1,1.5999511733650706,1.0,1.0,1,1.1661398081477679,1.0714210526315793,1.8178957564122884,6.079621469711157
52125.0057220459,139.00001525878906,0,True,1,1.5999511733650706,1.3,1.0,1,1.177621881351459,1.0738020833333337,1.8376044067381938,6.115333275546792
52250.009536743164,139.33335876464844,0,True,1,1.5999511733650706,1.3,1.0,1,1.1888659961034322,1.0761340206185572,1.857048226410883,6.153615598303717
52374.990463256836,139.66664123535156,1,True,1,0.26666666666666666,1.0,1.25,1,1.2139354904371957,1.0217475728155343,1.656461091845644,6.181910177322651
52375.01335144043,139.6667022705078,0,False,1,1.5999511733650706,1.0,1.0,1,1.199879472837878,1.0753571428571433,1.8632300045821895,6.219147888400685
52500.0,140,1,False,2,1.5998779390000153,1.0,1.0,1,1.2149183593237272,1.0215384615384617,1.6564275297860949,6.246186676342317
52624.99237060547,140.33331298828125,1,True,1,1.6000976622108283,1.0,1.0,1,1.2249452920807609,1.0213333333333336,1.6636444242189805,6.275477181995179
52749.990463256836,140.66664123535156,1,False,1,1.6000244144350346,1.0,1.0,1,1.2347831294417688,1.0211320754716984,1.6707467034527552,6.3017916541656005
52874.9885559082,140.99996948242188,1,True,1,1.6000244144350346,1.3,1.0,1,1.2444357368259904,1.0237383177570096,1.6888283046733434,6.330757926106642
52999.98664855957,141.3332977294922,1,True,1,1.6000244144350346,1.3,1.0,1,1.2539087650108982,1.0262962962962965,1.7067009480443933,6.357122418494209
53124.996185302734,141.66665649414062,1,True,1,1.5998779390000153,1.3,1.0,1,1.2632062251188563,1.0288073394495414,1.7243664799544496,6.386151002822242
53250.0,142,0,True,1,0.2285749163478621,1.0,1.0,1,1.200870775390591,1.07459595959596,1.8608595517766229,6.416595740773463
53374.99809265137,142.3333282470703,0,False,1,1.6000244144350346,1.0,1.0,1,1.2017513163614733,1.0738500000000004,1.858460440371426,6.4490477904911305
53499.996185302734,142.66665649414062,0,True,1,1.6000244144350346,1.0,1.0,1,1.212308858361216,1.0731188118811885,1.8644556372950878,6.478531891324339
53624.9942779541,142.99998474121094,0,False,1,1.6000244144350346,1.0,1.0,1,1.2226583772577415,1.0724019607843143,1.870350791503716,6.510318224195214
53750.003814697266,143.33334350585938,0,True,1,1.5998779390000153,1.3,1.0,1,1.2328049510134513,1.0746116504854373,1.888566871398647,6.5395712209419585
53875.00190734863,143.6666717529297,0,True,2,1.6000244144350346,1.3,1.0,1,1.2427554596266472,1.0767788461538466,1.9065484504848766,6.571544889642544
54000.0,144,1,True,2,1.6000244144350346,1.0,1.0,1,1.264232521920375,1.0282882882882884,1.7231221693415473,6.594206115444261
54124.99809265137,144.3333282470703,1,False,1,1.6000244144350346,1.0,1.0,1,1.27318816449777,1.0280357142857144,1.729461058111706,6.619201983760994
54249.996185302734,144.66665649414062,1,True,1,1.6000244144350346,1.0,1.0,1,1.2819845981131868,1.0277876106194692,1.7357018135552487,6.641311945907143
54375.0057220459,145.00001525878906,1,False,1,1.5998779390000153,1.0,1.0,1,1.29062511903771,1.0275438596491229,1.7418456166140106,6.66575353381221
54500.003814697266,145.33334350585938,1,True,1,1.6000244144350346,1.0,1.0,1,1.2991147136330257,1.027304347826087,1.7478951309046862,6.6873311186150355
54625.00190734863,145.6666717529297,1,False,1,1.6000244144350346,1.0,1.0,1,1.3074582014535052,1.0270689655172416,1.7538529725353855,6.711234827888163
54750.0,146,0,True,1,0.22857192681868813,1.0,1.0,1,1.2432791485682992,1.0760476190476194,1.903864031315915,6.737161723592589
54874.99809265137,146.3333282470703,0,False,1,1.6000244144350346,1.0,1.0,1,1.24370846448826,1.0753301886792457,1.9011588642324562,6.7651208107625855
54999.996185302734,146.66665649414062,0,True,1,1.6000244144350346,1.0,1.0,1,1.2532772715110834,1.0746261682242995,1.9065137169315618,6.790252646278259
55125.0057220459,147.00001525878906,1,True,1,0.3999969482654704,1.0,1.0,1.05,1.3084035148213076,1.0272649572649575,1.7554346882731806,6.812406531118619
55250.003814697266,147.33334350585938,1,False,1,1.6000244144350346,1.0,1.0,1.05,1.3092757613562267,1.0274576271186442,1.7569431378632028,6.83163467977729
55375.00190734863,147.6666717529297,1,True,1,1.6000244144350346,1.0,1.0,1.05,1.3173222728977878,1.0276470588235296,1.7644068207764216,6.853229003415596
55500.0,148,0,False,2,0.3999969482654704,1.1,1.25,1.5750000000000002,1.2548066612624564,1.0847280092592597,1.9516448339788786,6.8781963315500825
55625.003814697266,148.33334350585938,1,False,3,0.7999938965309408,1.0,1.0,1,1.3205143218975528,1.0274166666666669,1.766124344779055,6.8990111557961935
56250.0,150,1,True,1,0.320001953136921,1.0,1.0,1.1025,1.3161441788610706,1.0280371900826448,1.765018981997045,6.916876030398013
56375.003814697266,150.33334350585938,1,False,1,1.5999511733650706,1.0,1.0,1,1.3164556270842167,1.0278073770491805,1.7643398345566048,6.9368170791184
56500.00190734863,150.6666717529297,0,True,1,0.19999961853100104,1.0,1.0,1.1025,1.2471614375102191,1.084891055045872,1.9455590437389547,6.959992570387944
56625.0,151,0,False,1,1.6000244144350346,1.0,1.0,1,1.2473549731727498,1.0841193181818185,1.9423685787278206,6.985150109690674
56750.003814697266,151.33334350585938,0,True,1,1.5999511733650706,1.0,1.0,1,1.2565439250173742,1.083361486486487,1.9472259347655425,7.007623695764694
56875.00762939453,151.66668701171875,0,False,2,1.5999511733650706,1.0,1.0,1,1.2655675908939523,1.0826171875000004,1.9520064400656951,7.032337945638217
57000.0,152,1,False,2,1.6000976622108283,1.0,1.0,1,1.3180391594376895,1.0273588709677421,1.7638269978201315,7.047887171406278
57125.003814697266,152.33334350585938,1,True,1,1.5999511733650706,1.0,1.0,1,1.325627493399453,1.0271400000000002,1.7692552014543546,7.065687760826272
57250.00190734863,152.6666717529297,1,False,1,1.6000244144350346,1.0,1.0,1,1.333094484166091,1.0269246031746033,1.7746057802997601,7.080885753488543
57375.0,153,1,True,1,1.6000244144350346,1.3,1.0,1,1.340443830063112,1.0290748031496064,1.7896026487071524,7.098646132376862
57500.003814697266,153.33334350585938,1,True,1,1.5999511733650706,1.3,1.0,1,1.3476774867354393,1.0311914062500003,1.8044461372913154,7.114156343559619
57625.00190734863,153.6666717529297,1,True,1,1.6000244144350346,1.3,1.0,1,1.3601286354109974,1.0413476562500001,1.857581184190095,7.133503377994619
57749.9942779541,153.99998474121094,0,True,1,0.2285749163478621,1.0,1.0,1,1.2658487026207275,1.081886061946903,1.9490647645014454,7.153218123385224
57874.99809265137,154.3333282470703,0,False,1,1.5999511733650706,1.0,1.0,1,1.2660505423076984,1.081167763157895,1.9461115271014275,7.174864231828917
57999.996185302734,154.66665649414062,0,True,1,1.6000244144350346,1.0,1.0,1,1.2747552046103316,1.0804619565217395,1.9507772693785796,7.193980209250773
58124.9942779541,154.99998474121094,0,True,1,1.6000244144350346,1.3,1.0,1,1.2833095878078589,1.0823545258620695,1.9667015037931395,7.215651189315095
58250.003814697266,155.33334350585938,0,True,1,1.5998779390000153,1.3,1.0,1,1.2917162283940418,1.0842147435897438,1.9824370978512906,7.235196808080679
58374.996185302734,155.66665649414062,1,False,1,0.26666870118739716,1.0,1.0,1,1.3674665497468006,1.0405468750000002,1.8605148857672476,7.252632523685626
58375.00190734863,155.6666717529297,0,True,1,1.6000244144350346,1.3,1.0,1,1.299979776911148,1.0860434322033903,1.9979876132154366,7.272081437717383
58500.0,156,1,True,2,1.5999511733650706,1.0,1.0,1,1.3738715644301647,1.04015625,1.8643825759563677,7.289012304201684
58625.003814697266,156.33334350585938,1,False,1,1.5999511733650706,1.0,1.0,1,1.3876103701513354,1.0397656249999998,1.8745927739470682,7.303692742662513
58750.00190734863,156.6666717529297,1,True,1,1.6000244144350346,1.0,1.0,1,1.4013690486337427,1.0397656249999998,1.8865174829044484,7.320751464798347
58875.0057220459,157.00001525878906,1,False,1,1.5999511733650706,1.0,1.0,1,1.415108454376138,1.03896484375,1.8950322461932814,7.335532626793595
59000.009536743164,157.33335876464844,1,True,1,1.5999511733650706,1.3,1.0,1,1.4288665452659794,1.04130859375,1.917132918449934,7.3530210984861615
59125.01335144043,157.6667022705078,1,False,1,1.5999511733650706,1.0,1.0,1,1.4426057386683144,1.0405078125,1.9257193456382038,7.368264072958772
59250.0,158,0,True,1,0.22857192681868813,1.0,1.25,1,1.2999557907859218,1.0874212184873953,2.004083416716092,7.388098343659516
59375.003814697266,158.33334350585938,0,False,1,1.5999511733650706,1.0,1.0,1,1.2998629237843082,1.0866927083333335,2.0007630588025656,7.405314557603338
59500.00762939453,158.66668701171875,0,True,1,1.5999511733650706,1.3,1.0,1,1.3078531325321956,1.0884555785123968,2.0158669113534273,7.424972972565098
59625.0,159,0,True,1,1.6000976622108283,1.3,1.0,1,1.315712667778519,1.090189549180328,2.030797775619871,7.442657915710577
59750.003814697266,159.33334350585938,0,True,1,1.5999511733650706,1.3,1.0,1,1.3234438868564296,1.0918953252032522,2.045557411603711,7.462758827198359
59875.00190734863,159.6666717529297,0,True,2,1.6000244144350346,1.3,1.0,1,1.3310494837980924,1.0935735887096774,2.0601479411944497,7.480903072958136
60000.0057220459,160.00001525878906,1,False,2,1.5999511733650706,1.0,1.0,1,1.4553723443744886,1.0401171875000002,1.9352465712452958,7.496736168622292
60125.009536743164,160.33335876464844,1,True,1,1.5999511733650706,1.0,1.0,1,1.4691301826865808,1.0401171875000002,1.9473750470353832,7.5105573501984475
60250.00190734863,160.6666717529297,1,False,1,1.6000976622108283,1.0,1.0,1,1.4828704537627235,1.0393164062500002,1.9560132643348072,7.526558641324308
60375.0,161,1,True,1,1.6000244144350346,1.3,1.0,1,1.4966293400295416,1.04166015625,1.9785407906239005,7.540926266921391
60500.003814697266,161.33334350585938,1,True,1,1.5999511733650706,1.3,1.0,1,1.5103693739744855,1.04361328125,1.9994766229125784,7.557917810920997
60625.00762939453,161.66668701171875,1,True,1,1.5999511733650706,1.3,1.0,1,1.5241268885863095,1.04595703125,2.0223181073156544,7.573269675667876
60750.0,162,0,True,1,0.22857192681868813,1.0,1.25,1,1.3307762174354179,1.0948249999999997,2.0655652074353696,7.592347383153868
60874.99809265137,162.3333282470703,0,False,1,1.6000244144350346,1.0,1.0,1,1.330443477822286,1.0940724206349204,2.061846607731765,7.608551945693676
61000.00190734863,162.6666717529297,0,True,1,1.5999511733650706,1.0,1.0,1,1.337813370775972,1.0933316929133856,2.0653073232814543,7.627480851220693
61125.0057220459,163.00001525878906,0,True,1,1.5999511733650706,1.3,1.0,1,1.3450672512412236,1.0949462890625,2.0793745585359042,7.643807177245421
61250.009536743164,163.33335876464844,0,True,1,1.5999511733650706,1.3,1.0,1,1.35752824744029,1.1051025390624998,2.137760609133518,7.665044290352205
61375.01335144043,163.6667022705078,1,False,2,0.2666646321769803,1.0,1.0,1,1.5304906703245234,1.0455664062499999,2.0263068932141435,7.679121349435342
61437.51525878906,163.8333740234375,0,False,2,1.0666341155767138,1.0,1.0,1,1.3692873069868041,1.1030712890624998,2.139473038019065,7.700283166333681
61500.0,164,1,True,2,1.6001709166933724,1.0,1.0,1,1.536894584322934,1.0455664062499999,2.0320913906771185,7.714107404371066
62250.0,166,1,True,1,0.26666666666666666,1.0,2.0,1,1.5432597473604943,1.05134765625,2.0640375231336554,7.7325941095552535
62374.99237060547,166.33331298828125,1,False,1,1.6000976622108283,1.0,1.0,1,1.5476902206807635,1.0509570312499998,2.066307678605768,7.747135164066124
62500.00762939453,166.66668701171875,1,True,1,1.599804711338948,1.0,1.0,1,1.5594747034875387,1.04939453125,2.0699559516691757,7.7656950251273456
62625.0,167,1,False,1,1.6000976622108283,1.0,1.0,1,1.5736267979350351,1.04939453125,2.082903963506553,7.78036830247199
62750.01525878906,167.3333740234375,1,True,1,1.599804711338948,1.0,1.0,1,1.5877576978673964,1.0490039062499998,2.094071384549811,7.7996184214733315
62875.00762939453,167.66668701171875,1,False,1,1.6000976622108283,1.0,1.0,1,1.5995421970043693,1.04900390625,2.104903149774047,7.8146158430038275
63000.0,168,0,True,2,0.12800125001220716,1.0,1.0,1,1.371955284560791,1.1030712890624998,2.142002048026497,7.835362785822926
63750.0,170,0,True,2,0.26666666666666666,1.0,2.0,1,1.370207930712962,1.1088525390624997,2.1673042139860277,7.852056900731292
64499.9942779541,171.99998474121094,1,False,1,0.26666870118739716,1.0,1.0,1,1.6029414224882286,1.0486132812499998,2.1062271948045637,7.871479145195805
64624.99809265137,172.3333282470703,1,True,1,1.5999511733650706,1.0,1.0,1,1.6097281444521174,1.0465820312499998,2.1030864329638748,7.885606557180017
64750.00190734863,172.6666717529297,1,False,1,1.5999511733650706,1.0,1.0,1,1.621512639633219,1.0465820312499998,2.1139199418447814,7.905173581819372
64875.0057220459,173.00001525878906,1,True,1,1.5999511733650706,1.3,1.0,1,1.6332971359453068,1.0485351562499998,2.133873804662278,7.91994868471107
65000.009536743164,173.33335876464844,1,True,1,1.5999511733650706,1.3,1.0,1,1.6474487571681906,1.0493164062499998,2.150645688482044,7.940642818769347
65125.01335144043,173.6667022705078,1,False,1,1.5999511733650706,1.1,1.0,1.05,1.661580147348665,1.0484960937499999,2.1599222737506505,7.955914147362736
65250.0,174,0,False,1,0.13333333333333333,1.0,1.0,1,1.368488498520944,1.1084619140624996,2.1638335208194586,7.976943772142078
65375.003814697266,174.33334350585938,0,True,1,1.5999511733650706,1.0,1.0,1,1.3741478730802053,1.1039697265624997,2.1482615671844276,7.991447107015998
65500.00762939453,174.66668701171875,0,False,1,1.5999511733650706,1.0,1.0,1,1.3879062357533494,1.1039697265624997,2.161359071490516,8.012286258369862
65625.0114440918,175.00003051757812,0,True,1,1.5999511733650706,1.3,1.0,1,1.4016451433655088,1.1042822265624999,2.1759554076758225,8.027357424379991
65750.01525878906,175.3333740234375,0,True,1,1.5999511733650706,1.3,1.0,1,1.4154033218750917,1.1066259765625,2.2002278160542748,8.04940354469166
65875.01907348633,175.66671752929688,0,True,1,1.5999511733650706,1.3,1.0,1,1.4291424231877228,1.1069384765625,2.2149916847547186,8.065432932750225
65906.25,175.75,1,False,1,0.25600437507476936,1.0,1.25,1,1.6659306504281426,1.0504492187499999,2.173186779854876,8.086464434942574
66000.0,176,1,True,2,2.1333333333333333,1.0,1.0,1,1.673260085522076,1.0500585937499998,2.1781821919157283,8.100900280834356
66125.00953674316,176.33335876464844,1,False,1,1.5998779390000153,1.0,1.0,1,1.6903446072983814,1.0500585937499998,2.194161120498863,8.12253958565186
66250.01335144043,176.6667022705078,1,True,1,1.5999511733650706,1.0,1.0,1,1.7015219434892157,1.0500585937499998,2.2046395674942842,8.137523864844033
66375.0171661377,177.0000457763672,1,False,1,1.5999511733650706,1.0,1.0,1,1.707413951735029,1.0500585937499998,2.2101708298480105,8.159605658572678
66500.02098083496,177.33338928222656,1,True,1,1.5999511733650706,1.3,1.0,1,1.7133059600413745,1.0524023437499999,2.2269669176524007,8.17500601168602
66625.02479553223,177.66673278808594,1,True,1,1.5999511733650706,1.3,1.0,1,1.7191979684076295,1.0547460937499997,2.243847383277149,8.19812854597692
66750.0,178,0,False,1,0.22857641114177468,1.0,1.25,1,1.4353032159917758,1.1085009765625,2.228412040748792,8.213247149891696
66875.00381469727,178.33334350585938,0,True,1,1.5999511733650706,1.0,1.0,1,1.4414881436190567,1.1040087890625,2.2130250095971937,8.235236156247662
67000.00762939453,178.66668701171875,0,False,1,1.5999511733650706,1.0,1.0,1,1.455246067468973,1.1040087890624999,2.2263611068422207,8.249961635451296
67125.0,179,1,False,1,0.4000198374095395,1.0,1.0,1.26,1.718462660701888,1.0567773437499999,2.252985748533661,8.27320749273076
67250.00953674316,179.33335876464844,1,True,1,1.5998779390000153,1.0,1.0,1.1025,1.717724105896889,1.0575781249999998,2.256167315265216,8.288621173822051
67374.99046325684,179.66664123535156,0,True,1,0.5333577485134716,1.0,1.0,1.05,1.4630814670082808,1.0999072265625,2.2144233583554134,8.31047627965602
67499.9942779541,179.99998474121094,0,False,2,1.5999511733650706,1.0,1.0,1,1.4709590552383642,1.0999072265624998,2.2220484642237937,8.332609611276029
67625.00381469727,180.33334350585938,1,False,2,1.5998779390000153,1.0,1.0,1,1.7206695707447883,1.0575781249999996,2.258973317411159,8.355902775906817
67750.00762939453,180.66668701171875,1,True,1,1.5999511733650706,1.0,1.0,1,1.7265611753117331,1.0575781249999996,2.2645899125091047,8.379085900136504
67875.0057220459,181.00001525878906,0,True,1,0.5333170577883569,1.0,1.0,1,1.4787944565370033,1.0954150390625002,2.208259297870374,8.393017574140506
67937.50762939453,181.16668701171875,1,False,1,1.0666666666666667,1.0,1.0,1,1.7295046704655372,1.0575781249999996,2.2673979728125775,8.408830367053042
68000.00953674316,181.33335876464844,0,False,1,1.5999511733650706,1.0,1.0,1,1.4870665571731438,1.0954150390625002,2.216243232146664,8.422078088500447
68062.5114440918,181.50003051757812,1,True,1,1.5999511733650706,1.0,1.0,1,1.732453183810535,1.0575781249999996,2.270212124712332,8.444981210249745
68125.01335144043,181.6667022705078,0,True,1,1.5999511733650706,1.0,1.0,1,1.501196836001638,1.0919775390625,2.213530351720093,8.465923300455632
68187.51525878906,181.8333740234375,1,False,1,1.5999511733650706,1.0,1.0,1,1.738345192367282,1.0575781249999996,2.275839530402611,8.481185750781426
68250.0171661377,182.0000457763672,0,False,1,1.5999511733650706,1.0,1.0,1.5750000000000002,1.512981319487818,1.0960791015624998,2.244541978387833,8.50304671595848
68374.99809265137,182.3333282470703,0,True,1,1.6002441778835883,1.0,1.0,1.1025,1.5247674292466449,1.0906298828124994,2.2298708857264717,8.524495253367874
68499.99618530273,182.66665649414062,0,False,1,1.6000244144350346,1.0,1.0,1.5,1.5389217696424409,1.0945361328124994,2.2623953900590545,8.547173580971583
68625.0,183,1,True,1,0.4571588015765059,1.0,1.0,1,1.7379248792225204,1.0575781249999996,2.2754379217997833,8.570219563503771
68750.00381469727,183.33334350585938,1,False,1,1.5999511733650706,1.0,1.0,1,1.7375030364896824,1.0575781249999996,2.2750348780679746,8.592978903756396
68874.99046325684,183.66664123535156,1,True,1,1.6001709166933724,1.0,1.0,1,1.7433962610674674,1.0575781249999996,2.2806678671402207,8.61565971133487
68874.99618530273,183.66665649414062,0,True,1,0.5333333333333333,1.0,1.0,1,1.5471493713054787,1.0900439453124995,2.2487580995363454,8.636612695307013
68999.9942779541,183.99998474121094,0,False,2,1.6000244144350346,1.0,1.0,1,1.5530532419359837,1.0900439453124995,2.254496309764701,8.657115934779542
69125.00381469727,184.33334350585938,0,True,1,1.5998779390000153,1.0,1.0,1,1.5648377282933759,1.0855517578124996,2.24431190583916,8.671640279229477
69250.00190734863,184.6666717529297,0,False,1,1.6000244144350346,1.0,1.0,1,1.5789897836772797,1.0851611328124995,2.256149329743184,8.6866550395897
69374.9942779541,184.99998474121094,0,True,1,1.6000976622108283,1.0,1.0,1,1.5931219420603646,1.0843603515624995,2.2660051596038158,8.701775231092702
69499.99809265137,185.3333282470703,0,False,1,1.5999511733650706,1.0,1.0,1,1.6049072418505592,1.0843603515624995,2.277474250945171,8.71661740185153
69625.02479553223,185.66673278808594,0,True,1,1.5996582761250953,1.0,1.0,1,1.6166901126322097,1.0798681640624996,2.2671278434313775,8.73045438517896
69750.0,186,1,False,1,0.2285689373677132,1.0,1.0,1,1.741717266416456,1.0575781249999996,2.279062490577785,8.751462318312743
69874.99809265137,186.3333282470703,1,True,1,1.6000244144350346,1.3,1.0,1,1.7400301409055836,1.0599218749999997,2.2889239474055914,8.765826163149109
70000.00190734863,186.6666717529297,1,False,1,1.5999511733650706,1.0,1.0,1,1.7459225534539078,1.0599218749999997,2.2945799870896675,8.787358823017032
70125.0057220459,187.00001525878906,1,True,1,1.5999511733650706,1.0,1.0,1,1.7518145621409267,1.0599218749999997,2.300240781598573,8.80883897666955
70250.00953674316,187.33335876464844,1,False,1,1.5999511733650706,1.0,1.0,1,1.7577065708839905,1.0599218749999997,2.305906680597897,8.830270663710875
70374.99618530273,187.66665649414062,0,False,2,0.2666768395807742,1.0,1.0,1,1.623454229853113,1.0783056640624997,2.2661104673553023,8.849749426684495
70500.0,188,0,True,2,1.5999511733650706,1.0,1.0,1,1.6302408641363142,1.0775048828124996,2.26880087399002,8.86871590777949
70625.00381469727,188.33334350585938,0,False,1,1.5999511733650706,1.0,1.0,1,1.6420253612703641,1.0775048828124996,2.280227500353912,8.88747187455375
70750.00190734863,188.6666717529297,0,True,1,1.6000244144350346,1.0,1.0,1,1.6538102655361382,1.0730126953124997,2.269791490578798,8.901270132707552
70875.0057220459,189.00001525878906,0,False,1,1.5999511733650706,1.0,1.0,1,1.6661866079861405,1.0730126953124997,2.28175862322709,8.915553139361878
71000.00381469727,189.33334350585938,0,True,1,1.6000244144350346,1.0,1.0,1,1.675604547260656,1.0730126953124997,2.2908826699068507,8.929941720251334
71125.00762939453,189.66668701171875,0,False,1,1.5999511733650706,1.0,1.0,1,1.6814969591241309,1.0730126953124997,2.296598807652478,8.94432426073373
71250.0,190,1,False,1,0.22857043208342598,1.0,1.0,1,1.7619207671911625,1.0599218749999997,2.30996226455317,8.958543063101185
71375.00381469727,190.33334350585938,1,True,1,1.5999511733650706,1.3,1.0,1,1.7602332866090689,1.0622656249999998,2.319923262695314,8.972491233522568
71499.99618530273,190.66665649414062,1,True,1,1.6000976622108283,1.3,1.0,1,1.7661261060243574,1.0646093749999999,2.3372628779715736,8.993213684464546
71625.0,191,1,True,1,1.5999511733650706,1.0,1.0,1,1.7720189227942442,1.0646093749999999,2.3429854440606466,9.013915339331056
71750.00381469727,191.33334350585938,1,False,1,1.5999511733650706,1.0,1.0,1,1.7779109317252724,1.0646093749999996,2.3487122740433564,9.034599653228307
71874.99618530273,191.66665649414062,0,True,1,0.26667073573917244,1.0,1.0,1,1.6800268047458338,1.0730126953124997,2.295172088938996,9.053270098806209
71875.00762939453,191.66668701171875,1,True,1,1.5999511733650706,1.0,1.0,1,1.7838029407099139,1.0646093749999996,2.35444411528771,9.073736388365194
72000.0057220459,192.00001525878906,0,False,2,1.5998779390000153,1.0,1.0,1,1.6785497856179898,1.0730126953124997,2.2937390725166993,9.091953326379404
72125.00381469727,192.33334350585938,0,True,1,1.6000244144350346,1.0,1.0,1,1.6844417950764121,1.0730126953124999,2.2994577236542786,9.105301522920104
72250.00190734863,192.6666717529297,0,True,1,1.6000244144350346,1.3,1.0,1,1.690334612346602,1.0753564453124997,2.316717882228377,9.119323393222638
72375.0114440918,193.00003051757812,0,True,1,1.5998779390000153,1.3,1.0,1,1.6962266191049604,1.0777001953124996,2.3340628751369583,9.133749837084272
72500.00381469727,193.33334350585938,0,True,1,1.6000976622108283,1.3,1.0,1,1.7021190340763108,1.0800439453124997,2.3514940998649903,9.153862185511345
72625.01907348633,193.66671752929688,0,True,1,1.599804711338948,1.3,1.0,1,1.7080110396802706,1.0823876953124998,2.3690109613944204,9.174514692775652
72750.0,194,1,False,1,0.22857342157350005,1.0,1.0,1,1.782122675759683,1.0646093749999996,2.352809017842717,9.194368670034477
72874.99809265137,194.3333282470703,0,False,1,0.8000671443068494,1.0,1.0,1,1.7094815660489067,1.0823876953124998,2.370466357929936,9.20850062442467
73000.00190734863,194.6666717529297,0,True,1,1.5999511733650706,1.0,1.0,1,1.7109567082439878,1.0823876953124998,2.3719266828106162,9.228941720502467
73125.0,195,0,False,1,1.6000244144350346,1.0,1.0,1,1.716849121883729,1.0823876953124998,2.3777634926443714,9.249617060670326
73249.99809265137,195.3333282470703,1,True,1,0.40000152588472704,1.0,1.0,1,1.77380779071091,1.0646093749999996,2.3447236301773873,9.269200479524125
73375.00190734863,195.6666717529297,0,True,1,0.7999938965309408,1.0,1.0,1,1.7183204653841382,1.0823876953124998,2.379221842861796,9.283833211003902
73499.9942779541,195.99998474121094,1,False,1,0.8000122072175173,1.0,1.0,1,1.7686486698544377,1.0646093749999996,2.3397119413537903,9.297240445247509
73624.99809265137,196.3333282470703,0,False,1,0.8000122072175173,1.0,1.0,1,1.7153742218457255,1.0823876953124998,2.376301974014361,9.3117184094156
73749.99046325684,196.66664123535156,1,True,1,0.8000122072175173,1.0,1.0,1,1.7657025274950253,1.0646093749999999,2.336851732653388,9.324703931436588
73874.9885559082,196.99996948242188,1,False,1,1.6000244144350346,1.0,1.0,1,1.7671777107381068,1.0646093749999999,2.338283728742956,9.344087358162023
73999.99809265137,197.3333282470703,0,True,1,0.5333333333333333,1.0,1.0,1,1.7109567761582238,1.0823876953124998,2.3719267500509664,9.364422814555686
74124.99046325684,197.66664123535156,0,False,1,1.6000976622108283,1.0,1.0,1,1.710957316599143,1.0823876953124998,2.3719272851293356,9.384577748769429
74250.0171661377,198.0000457763672,0,True,1,1.5996582761250953,1.0,1.0,1,1.7168485119737387,1.0823876953124998,2.377762888194086,9.40442356185024
74374.99809265137,198.3333282470703,0,False,1,1.6002441778835883,1.0,1.0,1,1.7227405265128,1.0823876953124998,2.3836050020057575,9.423965648855722
74500.02479553223,198.66673278808594,0,True,1,1.5996582761250953,1.0,1.0,1,1.7286325300408196,1.0823876953124998,2.389452762787806,9.441912159386685
74625.0171661377,199.0000457763672,0,False,1,1.6000976622108283,1.0,1.0,1,1.7345237338929078,1.0823876953124998,2.3953053452015216,9.456969292730776
74750.00953674316,199.33335876464844,0,True,1,1.6000976622108283,1.0,1.0,1,1.7404173609512823,1.0823876953124998,2.4011659122319995,9.472323823116549
74875.02479553223,199.66673278808594,0,False,1,1.599804711338948,1.0,1.0,1,1.7463093669988319,1.0823876953124998,2.4070304027660936,9.487718801890773
75000.0171661377,200.0000457763672,0,True,1,1.6000976622108283,1.0,1.0,1,1.7522013785632409,1.0823876953124998,2.4129003930998616,9.502774528476051
75125.01525878906,200.3333740234375,0,False,1,1.6000244144350346,1.0,1.0,1,1.7580946004732712,1.0823876953124998,2.4187770452433233,9.517497592794692
75250.02479553223,200.66673278808594,0,True,1,1.5998779390000153,1.0,1.0,1,1.7639866079588442,1.0823876953124998,2.424657901580914,9.536533012211093
75375.02861022949,201.0000762939453,0,False,1,1.5999511733650706,1.0,1.0,1,1.7698782129255606,1.0823876953124998,2.430543730951595,9.551128401840016
75500.03242492676,201.3334197998047,0,True,1,1.5999511733650706,1.0,1.0,1,1.7757702218369773,1.0823876953124998,2.4364353000733168,9.570430712117055
75625.00190734863,201.6666717529297,0,False,1,1.6003907203907204,1.0,1.0,1,1.78166466299277,1.0823876953124998,2.4423346023011496,9.589587563340972
76125.0,203,0,True,2,0.40000152588472704,1.0,1.0,1,1.7809316285801076,1.0823876953124998,2.441600675984221,9.60831728451997
76500.0,204,1,False,1,0.5333333333333333,1.0,1.0,1,1.7563748352283077,1.0646093749999996,2.327804524131158,9.622919967866952
76562.50190734863,204.1666717529297,0,False,1,0.45714086416685196,1.0,1.0,1,1.7738809909083761,1.0823876953124998,2.4345456313062677,9.640378604639034
76624.99809265137,204.3333282470703,1,True,1,1.6000244144350346,1.0,1.0,1,1.756374970326341,1.0646093749999996,2.3278046550737317,9.653945842541004
76687.4885559082,204.49996948242188,0,True,1,1.6001709166933724,1.3,1.0,1,1.7734602803114796,1.0847314453124999,2.4461156005014475,9.668860975367325
76750.00190734863,204.6666717529297,1,False,1,1.5999511733650706,1.0,1.0,1,1.7622673830367068,1.0646093749999996,2.333518391814417,9.680088868205436
76874.9885559082,204.99996948242188,0,True,1,1.0666666666666667,1.3,1.0,1,1.776405053836275,1.0870751953124997,2.4611114242033807,9.695112392041363
76999.99809265137,205.3333282470703,0,True,1,1.5998779390000153,1.3,1.0,1,1.7793530959231683,1.0894189453124996,2.47617162407781,9.710140279943626
77125.00190734863,205.6666717529297,0,False,1,1.5999511733650706,1.0,1.0,1,1.7852447010246495,1.0894189453124996,2.482137720107536,9.72487145457197
77250.0114440918,206.00003051757812,0,True,1,1.5998779390000153,1.0,1.0,1,1.7911363048439255,1.0894189453124996,2.4881091597563536,9.739311802251413
77312.50190734863,206.1666717529297,1,True,1,0.35555555555555557,1.0,1.0,1,1.7612869390296897,1.0646093749999996,2.3325673224329977,9.752718273535631
77375.00953674316,206.33335876464844,0,False,1,1.6000244144350346,1.0,1.0,1,1.7970283153127475,1.0894189453124996,2.4940863186395577,9.771165507770462
77437.5,206.5,1,True,1,1.6000244144350346,1.3,1.0,1,1.7603030660988077,1.0669531249999995,2.343272382991929,9.784232477563275
77500.00190734863,206.6666717529297,0,True,1,1.6000976622108283,1.0,1.0,1,1.802921538973032,1.0894189453124996,2.50006997906431,9.801830013226354
77624.9885559082,206.99996948242188,1,True,1,1.066731774807219,1.3,1.0,1,1.7632473730310056,1.0692968749999996,2.357846588947433,9.813922199814668
77687.50190734863,207.1666717529297,0,False,1,1.0666666666666667,1.0,1.0,1,1.8058659484991184,1.0894189453124996,2.503061536168868,9.830143534730427
77749.99809265137,207.3333282470703,1,False,1,1.5998779390000153,1.0,1.0,1,1.7661957929558358,1.0692968749999996,2.3607298086013473,9.840103034046331
77812.5,207.5,0,True,1,1.6000244144350346,1.0,1.0,1,1.808814761362111,1.0894189453124996,2.5060588718005543,9.855091727550342
77875.00190734863,207.6666717529297,1,True,1,1.5999511733650706,1.0,1.0,1,1.772087397942147,1.0692968749999996,2.3664949922380036,9.865254458348963
78000.0,208,0,False,2,1.0666666666666667,1.0,1.0,1,1.8117587747529527,1.0894189453124996,2.5090526267921285,9.8797527362927
78124.99809265137,208.3333282470703,0,True,1,1.6000244144350346,1.0,1.0,1,1.8147075798233798,1.0894189453124996,2.5120525496882036,9.892382165130636
78187.4885559082,208.49996948242188,1,False,1,0.6400273449183009,1.0,1.0,1,1.7726756529201875,1.0692968749999996,2.3670709061691384,9.903880288349015
78250.00762939453,208.66668701171875,0,True,1,1.5998779390000153,1.3,1.0,1,1.820599587856688,1.0917626953124997,2.530332357761037,9.91706873680187
78375.0,209,0,True,1,1.6000976622108283,1.3,1.0,1,1.8264920038515444,1.0941064453124998,2.5487005485096415,9.93450025986967
78499.99237060547,209.33331298828125,0,True,1,1.6000976622108283,1.3,1.0,1,1.8323856317407683,1.0964501953124999,2.567158165670658,9.951476650925274
78625.00190734863,209.6666717529297,0,True,1,1.5998779390000153,1.3,1.0,1,1.8382780439244797,1.0987939453124997,2.58570291922027,9.969002182520699
78750.0,210,0,True,1,1.6000244144350346,1.3,1.0,1,1.8441700547608448,1.1011376953124998,2.6043358484240287,9.98703332919323
78812.50190734863,210.1666717529297,1,True,1,0.31999316420852825,1.0,1.0,1,1.7661972038865084,1.0692968749999996,2.3607311886407096,9.996407827516311
78874.99809265137,210.3333282470703,0,True,1,1.6000244144350346,1.3,1.0,1,1.8500628735175715,1.1034814453124997,2.623058420868459,10.014257007280841
78937.5114440918,210.50003051757812,1,False,1,1.5998779390000153,1.0,1.0,1,1.7650156218327706,1.0692968749999996,2.3595755800922573,10.02285021217572
79000.00762939453,210.66668701171875,0,False,1,1.5998779390000153,1.0,1.0,1,1.8559548818684033,1.1034814453124997,2.6292227103525843,10.039290103117802
79124.9885559082,210.99996948242188,1,True,1,1.0667968908965124,1.0,1.0,1,1.7679594872483735,1.0692968749999996,2.3624551187511593,10.045874921537182
79187.50190734863,211.1666717529297,0,True,1,1.066699219743441,1.0,1.0,1,1.858898328157519,1.1034814453124997,2.6323040964989186,10.063625906993574
79249.99809265137,211.3333282470703,1,True,1,1.5998779390000153,1.3,1.0,1,1.7709082603557484,1.0716406249999997,2.3771134897229995,10.07287217932281
79312.5,211.5,0,False,1,1.6000244144350346,1.0,1.0,1,1.8618472524988472,1.1034814453125,2.635392492579825,10.090467803905817
79375.00190734863,211.6666717529297,1,True,1,1.5999511733650706,1.3,1.0,1,1.7767998653836081,1.0739843749999998,2.394736566573667,10.099269884129997
79500.0,212,1,False,2,1.6000244144350346,1.0,1.0,1,1.7826922796298783,1.0739843749999998,2.400555696850213,10.10770239449048
79624.99809265137,212.3333282470703,0,True,3,0.640003906273842,1.0,1.0,1,1.8624358246677384,1.1034814453125,2.6360090541420718,10.12376660390072
80250.0,214,1,True,1,0.26666666666666666,1.0,1.0,1,1.7812223230237578,1.0739843749999998,2.3991035409267747,10.13170512903231
80374.99809265137,214.3333282470703,1,False,1,1.6000244144350346,1.0,1.0,1,1.7797462751493636,1.0739843749999998,2.3976456889662776,10.140119894828999
80500.00762939453,214.66668701171875,1,True,1,1.5998779390000153,1.0,1.0,1,1.7856382828504294,1.0739843749999998,2.4034669843782317,10.148289145420891
80625.0114440918,215.00003051757812,1,False,1,1.5999511733650706,1.0,1.0,1,1.7915298880060193,1.0739843749999998,2.409292986533907,10.156162465757514
80750.01525878906,215.3333740234375,1,True,1,1.5999511733650706,1.0,1.0,1,1.7974218971125686,1.0739843749999998,2.415124456006571,10.163413548475908
80875.01907348633,215.66671752929688,1,False,1,1.5999511733650706,1.0,1.0,1,1.8033139062710042,1.0739843749999998,2.420960956946463,10.170363402277438
81000.0,216,0,False,1,0.14545434368571378,1.0,1.0,1,1.8549952856799359,1.1034814453125001,2.6282184198434693,10.185717165192367
81062.50190734863,216.1666717529297,1,True,1,1.066764331858182,1.0,1.0,1,1.806258047928243,1.0739843749999998,2.4238792358894843,10.194007520918325
81124.99809265137,216.3333282470703,0,True,1,1.6000244144350346,1.0,1.0,1,1.852848033644171,1.1034814453125001,2.625971649109739,10.208577752739187
81187.5,216.5,1,False,1,1.6000244144350346,1.0,1.0,1,1.8092073997994147,1.0739843749999998,2.426803925270909,10.216074064155102
81250.00190734863,216.6666717529297,0,False,1,1.5999511733650706,1.0,1.0,1,1.8587404472264655,1.1034814453125001,2.632138784418945,10.230312185997228
81375.0,217,1,True,1,1.0666666666666667,1.0,1.0,1,1.8151000831733348,1.0739843749999998,2.4326510509847825,10.237252418589904
81499.99809265137,217.3333282470703,1,False,1,1.6000244144350346,1.0,1.0,1,1.8180443748245587,1.0739843749999998,2.4355744268750263,10.243721708443804
81625.00190734863,217.6666717529297,1,True,1,1.5999511733650706,1.0,1.0,1,1.8180447794280856,1.0739843749999998,2.4355748286885994,10.250711834077492
81750.0,218,0,True,1,0.40000152588472704,1.0,1.0,1,1.8580049316912568,1.1034814453125001,2.6313686978378983,10.264827665245553
81874.99809265137,218.3333282470703,0,False,1,1.6000244144350346,1.0,1.0,1,1.8618631799837007,1.1011376953125,2.62277828922338,10.278203648141682
82000.00762939453,218.66668701171875,0,True,1,1.5998779390000153,1.0,1.0,1,1.8693770630361137,1.1011376953125,2.630624202237951,10.29094599565378
82125.0114440918,219.00003051757812,1,True,1,0.39999237075098515,1.3,1.0,1,1.8180447035640495,1.0739843749999998,2.4355747533476833,10.296999595068455
82249.99237060547,219.33331298828125,1,True,1,1.6002441778835883,1.3,1.0,1,1.8180462463373084,1.0763281249999999,2.4476002869509883,10.304867494713799
82375.00762939453,219.66668701171875,1,True,1,1.599804711338948,1.3,1.0,1,1.8224714917720002,1.0786718749999997,2.464091349419055,10.313034551129098
82500.0,220,0,False,1,0.40000610360875866,1.0,1.0,1,1.8627596305579783,1.1011376953125,2.6237139235273403,10.325341697049533
82624.99809265137,220.3333282470703,0,True,1,1.6000244144350346,1.3,1.0,1,1.8620209386530795,1.1034814453125001,2.635574433065034,10.337859526301727
