TimeMS,Beat,Type,Forehand,numNotes,SwingSpeed,Angle Diff,AngleChangeDiff,Pos Diff,C Stamina,C Pattern Diff,C CombinedDiff,C SmoothedDiff
1534.2173369034476,5.881166458129883,1,True,1,0,1.0,0,1,1.4129742342858012,0,0.0,0.0
1664.6521195121434,6.381166458129883,0,True,1,0,1.0,0,1,0,0,0,0.0
1795.086902120839,6.881166458129883,1,False,1,0.7666666666666666,1.0,1.0,1,0.02395833333333333,0.03125,3.845430129279744e-05,5.1400582728039246e-05
1925.5216847295346,7.381166458129883,0,False,1,0.7666666666666666,1.0,1.0,1,0.02395833333333333,0.03125,3.845430129279744e-05,7.710087409205887e-05
2055.95646733823,7.881166458129883,1,True,1,0.7666666666666666,1.0,1.0,1,0.05357246196093246,0.0625,0.00032155481933805903,0.00031956766438277046
2186.391249946926,8.381166458129883,0,True,1,0.7666666666666666,1.0,1.0,1,0.05357246196093246,0.0625,0.00032155481933805903,0.0004812121912432447
2316.8260325556216,8.881166458129883,1,False,1,0.7666666666666666,1.0,1.0,1,0.0863829993079914,0.09375,0.0011204274354019727,0.0010543124519173399
2447.260815164317,9.381166458129883,0,False,1,0.7666666666666666,1.0,1.0,1,0.0863829993079914,0.09375,0.0011204274354019727,0.0014841376474229112
2577.695597773013,9.881166458129883,1,True,1,0.7666666666666666,1.0,1.0,1,0.11979166666666666,0.125,0.0027052034730785583,0.0025245519007142565
2708.1303803817086,10.381166458129883,0,True,1,0.7666666666666666,1.0,1.0,1,0.11979166666666666,0.125,0.0027052034730785583,0.0033568833033473327
2838.565162990404,10.881166458129883,1,False,1,0.7666666666666666,1.0,1.0,1,0.153408184855162,0.15625,0.005345962472438856,0.005000558413450287
2968.9999455991,11.381166458129883,0,False,1,0.7666666666666666,1.0,1.0,1,0.153408184855162,0.15625,0.005345962472438856,0.0063702876718694105
3099.4347282077956,11.881166458129883,1,True,1,0.7666666666666666,1.0,1.0,1,0.18712056515193023,0.1875,0.009312780862451561,0.008752900255451054
3229.869510816491,12.381166458129883,0,True,1,0.7666666666666666,1.0,1.0,1,0.18712056515193023,0.1875,0.009312780862451561,0.010795139612806745
3360.304293425187,12.881166458129883,1,False,1,0.7666666666666666,1.0,1.0,1,0.22088491928930873,0.21875,0.014875734771940747,0.014052243400985123
3490.7390760338826,13.381166458129883,0,False,1,0.7666666666666666,1.0,1.0,1,0.22088491928930873,0.21875,0.014875734771940747,0.016902209215641204
3621.173858642578,13.881166458129883,1,True,2,0.7666666666666666,1.0,1.0,1,0.2546805767634343,0.25,0.02230490033222061,0.02116929398720376
3751.608641251274,14.381166458129883,0,True,1,0.7666666666666666,1.0,1.0,1,0.2546805767634343,0.25,0.02230490033222061,0.024962258228592698
3882.0434238599696,14.881166458129883,1,False,1,0.7666666666666666,1.0,1.0,1,0.2884965367835654,0.28125,0.031870353707204,0.030374777183187193
4012.478206468665,15.381166458129883,0,False,1,0.7666666666666666,1.0,1.0,1,0.2884965367835654,0.28125,0.031870353707204,0.035246044242322236
4142.912989077361,15.881166458129883,1,True,1,0.7666666666666666,1.0,1.0,1,0.32232640946114094,0.3125,0.0438421710877971,0.041939428138500524
4273.347771686056,16.381166458129883,0,True,1,0.7666666666666666,1.0,1.0,1,0.32232640946114094,0.3125,0.0438421710877971,0.048024322589571684
4403.782554294752,16.881166458129883,1,False,1,0.7666666666666666,1.0,1.0,1,0.3561662304045059,0.34375,0.058490428683854526,0.05613398765186235
4534.217336903448,17.381166458129883,0,False,1,0.7666666666666666,1.0,1.0,1,0.3561662304045059,0.34375,0.058490428683854526,0.06356784729229543
4664.652119512143,17.881166458129883,1,True,1,0.7666666666666666,1.0,1.0,1,0.3900134101148888,0.375,0.07608520271815246,0.07322919991659527
4795.086902120839,18.381166458129883,0,True,1,0.7666666666666666,1.0,1.0,1,0.3900134101148888,0.375,0.07608520271815246,0.08214737156979512
4925.521684729535,18.881166458129883,1,False,1,0.7666666666666666,1.0,1.0,1,0.42386618572702606,0.40625,0.09689656942232074,0.09349581126659924
5055.95646733823,19.381166458129883,0,False,1,0.7666666666666666,1.0,1.0,1,0.42386618572702606,0.40625,0.09689656942232074,0.10403364812791736
5186.391249946926,19.881166458129883,1,True,1,0.7666666666666666,1.0,1.0,1,0.45772331564008784,0.4375,0.12119460503414806,0.11720456944029724
5316.826032555622,20.381166458129883,0,True,1,0.7666666666666666,1.0,1.0,1,0.45772331564008784,0.4375,0.12119460503414806,0.1294974293318518
5447.260815164317,20.881166458129883,1,False,1,0.7666666666666666,1.0,1.0,1,0.491583900166368,0.46875,0.14924938579578512,0.14462622312892423
5577.695597773013,21.381166458129883,0,False,1,0.7666666666666666,1.0,1.0,1,0.491583900166368,0.46875,0.14924938579578512,0.1588094673136797
5708.130380381709,21.881166458129883,1,True,1,0.7666666666666666,1.0,1.0,1,0.525447271445427,0.5,0.18133098795252914,0.17603152168870886
5838.565162990404,22.381166458129883,0,True,1,0.7666666666666666,1.0,1.0,1,0.525447271445427,0.5,0.18133098795252914,0.19224051404167747
5968.9999455991,22.881166458129883,1,False,1,0.7666666666666666,1.0,1.0,1,0.5593129233090858,0.53125,0.2177094877519869,0.2116912149515001
6099.434728207796,23.381166458129883,0,False,1,0.7666666666666666,1.0,1.0,1,0.5593129233090858,0.53125,0.2177094877519869,0.23006132136633248
6229.869510816491,23.881166458129883,1,True,1,0.7666666666666666,1.0,1.0,1,0.5931804651504555,0.5625,0.2586549614434881,0.25187605309665817
6360.304293425187,24.381166458129883,0,True,1,0.7666666666666666,1.0,1.0,1,0.5931804651504555,0.5625,0.2586549614434881,0.27254264105170367
6490.739076033883,24.881166458129883,1,False,1,0.7666666666666666,1.0,1.0,1,0.6270495907311564,0.59375,0.3044374852776673,0.2968567865622612
6621.173858642578,25.381166458129883,0,False,1,0.7666666666666666,1.0,1.0,1,0.6270495907311564,0.59375,0.3044374852776673,0.3199552247972909
6751.608641251274,25.881166458129883,1,True,1,0.7666666666666666,1.3,1.0,1,0.6609200565730738,0.634375,0.36866932860980334,0.3482090975516329
6882.04342385997,26.381166458129883,0,True,1,0.7666666666666666,1.0,1.0,1,0.6609200565730738,0.625,0.3553271355061606,0.37384368602372975
7012.478206468665,26.881166458129883,1,False,1,0.7666666666666666,1.0,1.0,1,0.6947916666666663,0.665625,0.42630064099641196,0.40490466007888976
7142.912989077361,27.381166458129883,0,False,1,0.7666666666666666,1.0,1.0,1,0.6947916666666663,0.65625,0.41159398838138317,0.4332134608364002
7273.347771686056,27.881166458129883,1,True,1,0.7666666666666666,1.0,1.0,1,0.7286642614419738,0.696875,0.48964566179443303,0.46721936401327285
7403.782554294752,28.381166458129883,0,True,1,0.7666666666666666,1.0,1.0,1,0.7286642614419738,0.6875,0.4735081201563628,0.49833997700922383
7534.217336903448,28.881166458129883,1,False,1,0.7666666666666666,1.0,1.0,1,0.7625377096777279,0.728125,0.5589744672404297,0.5354282245969876
7599.434230638587,29.13116455078125,0,False,1,1.0222248218743775,1.0,1.0,1,0.7683286975213177,0.71875,0.5435204664027546,0.5696800755486139
7664.652119512143,29.381166458129883,1,True,1,1.5333333333333332,1.0,1.0,1,0.8138783714242697,0.759375,0.6418842583648682,0.6105836633138078
7729.869510816491,29.631166458129883,0,True,1,1.533327484153172,1.0,1.0,1,0.8251627612364283,0.75,0.6272300221791067,0.6486758378262967
7795.086404551631,29.88116455078125,1,False,1,1.5333391825581204,1.0,1.0,1,0.8815886723278646,0.790625,0.7402176882629622,0.6941581337499864
7925.521684729535,30.381166458129883,0,False,1,1.0222222222222221,1.0,1.0,1,0.881226598534412,0.78125,0.7187940854734465,0.7362390212307275
8055.95646733823,30.881166458129883,1,True,1,0.7666652043688372,1.0,1.0,1,0.9319147209640721,0.821875,0.8393193795138737,0.7858509399216694
8186.391249946926,31.381166458129883,0,True,1,0.7666666666666666,1.0,1.0,1,0.9206221743889659,0.8125,0.810595920674004,0.8314923973657635
8316.826032555622,31.881166458129883,1,False,1,0.7666666666666666,1.0,1.0,1,0.9657914866117128,0.853125,0.9378959174190039,0.8847554924836626
8447.261312733526,32.381168365478516,0,False,1,0.7666652043688372,1.0,1.0,1,0.9544988078943177,0.84375,0.9069522618134672,0.9339005474370259
8577.696095342222,32.881168365478516,1,True,1,0.7666652043688372,1.0,1.0,1,0.9996686173174151,0.884375,1.0439039085230544,0.9909558829763315
8708.130877950918,33.381168365478516,0,True,1,0.7666666666666666,1.0,1.0,1,0.9883758219025218,0.875,1.0106574124818526,1.0437451992017779
8838.565660559612,33.881168365478516,1,False,1,0.7666666666666666,1.0,1.0,1,1.0335460793025961,0.915625,1.1576134301701744,1.1047330747234827
8969.000443168308,34.381168365478516,0,False,1,0.7666666666666666,1.0,1.0,1,1.0222532092861014,0.90625,1.121981467702823,1.1613066182362302
9099.435225777004,34.881168365478516,1,True,1,0.7666666666666666,1.0,1.0,1,1.0674238717951745,0.946875,1.279294579156279,1.226366694370335
9164.652617081352,35.131168365478516,0,True,1,1.0222222222222221,1.1,1.0,1.05,1.0618823284443033,0.94234375,1.2607283273039547,1.2881272411141824
9229.8700083857,35.381168365478516,1,False,1,1.5333333333333332,1.0,1.0,1,1.118625975810436,0.978125,1.421652407578566,1.35817008100745
9295.087399690048,35.631168365478516,0,False,1,1.5333333333333332,1.0,1.0,1,1.1186256384784639,0.97359375,1.4056872919898915,1.4250237678804505
9360.304790994396,35.881168365478516,1,True,1,1.5333333333333332,1.0,1.0,1,1.1674975101980565,0.9787878787878787,1.4595596856065935,1.4931439305174037
9490.739573603092,36.381168365478516,0,True,1,1.0222222222222221,1.0,1.0,1,1.1564523289969646,0.9743939393939395,1.4357726125474115,1.5577546009082786
9621.174356211786,36.881168365478516,1,False,1,0.7666666666666666,1.0,1.0,1,1.1813483045026343,0.9794117647058823,1.4720092041286252,1.6226053816194355
9751.609138820482,37.381168365478516,0,False,1,0.7666666666666666,1.0,1.0,1,1.159766108762813,0.9751470588235295,1.440864895536209,1.6837121882294463
9816.82653012483,37.631168365478516,1,True,1,1.0222222222222221,1.0,1.0,1,1.1837003184298984,0.9799999999999999,1.4758777890358767,1.745082590342554
9882.043921429178,37.881168365478516,0,True,1,1.5333333333333332,1.0,1.0,1,1.1731529082845282,0.9758571428571429,1.453177048439566,1.8033991242554126
10012.478704037874,38.381168365478516,1,False,1,1.0222222222222221,1.0,1.0,1,1.1910813666780056,0.9805555555555555,1.4833644005998141,1.861777886539213
10142.91348664657,38.881168365478516,0,False,1,0.7666666666666666,1.0,1.0,1,1.1860569478586156,0.9765277777777778,1.4650628768488922,1.9175157233395592
10273.348269255266,39.381168365478516,1,True,1,0.7666666666666666,1.0,1.0,1,1.1931700091278687,0.981081081081081,1.4868286656644019,1.972922123695376
10403.78305186396,39.881168365478516,0,True,1,0.7666666666666666,1.0,1.0,1,1.1832660517937656,0.9771621621621622,1.4652963253116649,2.0256642337062467
10534.217834472656,40.381168365478516,1,False,1,0.7666666666666666,1.0,1.0,1,1.1902638368726752,0.981578947368421,1.4864814627028093,2.07813258612934
10664.652617081352,40.881168365478516,0,False,1,0.7666666666666666,1.0,1.0,1,1.180624091582437,0.9777631578947369,1.4655190826635802,2.128114151068177
11055.956964907438,42.381168365478516,0,True,1,0.5111111111111111,1.3,1.0,1,1.1734999540756614,0.9860256410256409,1.4902192140315025,2.178083825057763
11316.82653012483,43.381168365478516,0,False,1,0.7666666666666666,1.0,1.0,1,1.1665905039893718,0.986375,1.4863543369100178,2.2265735310314994
11447.261312733526,43.881168365478516,1,True,1,0.21904761904761905,1.3,1.0,1,1.1776330419438619,0.9897435897435898,1.5069212967045487,2.274879617977749
11577.696095342222,44.381168365478516,0,True,1,0.7666666666666666,1.0,1.0,1,1.1645562611816547,0.9867073170731707,1.4860533383880854,2.3209320463397303
11708.130877950918,44.881168365478516,1,False,1,0.7666666666666666,1.0,1.0,1,1.1652834647218466,0.99,1.4986192290897378,2.3664694668620774
11773.348269255266,45.131168365478516,0,False,1,1.0222222222222221,1.0,1.0,1,1.1669270505123504,0.9870238095238095,1.4889688463000068,2.41042429133526
11838.565660559612,45.381168365478516,1,True,1,1.5333333333333332,1.0,1.0,1,1.1765671534088427,0.9902439024390244,1.5079610527307419,2.454237538686043
11903.78305186396,45.631168365478516,0,True,1,1.5333333333333332,1.3,1.0,1,1.1819440118394349,0.9943023255813952,1.5269975541705059,2.497916379799587
11969.000443168308,45.881168365478516,1,False,1,1.5333333333333332,1.1,1.0,1.05,1.200469690094505,0.9941666666666665,1.5405520831063153,2.5412069383108427
12099.435225777004,46.381168365478516,0,False,1,1.0222222222222221,1.0,1.0,1,1.196362506622386,0.994431818181818,1.5384155738462404,2.583391118692384
12229.8700083857,46.881168365478516,1,True,1,0.7666666666666666,1.1,1.0,1.05,1.2105905904719299,0.9979069767441859,1.5623078708475913,2.625706790455677
12360.304790994396,47.381168365478516,0,True,1,0.7666666666666666,1.0,1.0,1,1.1979473499631905,0.9945555555555554,1.5400824981971577,2.666047972584255
12490.739573603092,47.881168365478516,1,False,1,0.7666666666666666,1.0,1.0,1,1.2076849236620868,0.9979545454545454,1.5602551371292843,2.706391513340482
12621.174356211786,48.381168365478516,0,False,1,0.7666666666666666,1.0,1.0,1,1.1954474241369328,0.9946739130434782,1.5386217752328308,2.7448746445109617
12751.609138820482,48.881168365478516,1,True,1,0.7666666666666666,1.0,1.0,1,1.2049099040671725,0.9979999999999999,1.5582965221991736,2.783378978681376
12882.043921429178,49.381168365478516,0,True,1,0.7666666666666666,1.0,1.0,1,1.1930550634638801,0.9947872340425532,1.5372250403228576,2.8201278203445623
13012.478704037874,49.881168365478516,1,False,1,0.7666666666666666,1.0,1.0,1,1.2022569127880576,0.9980434782608695,1.5564257075678005,2.8569142640757703
13142.91348664657,50.381168365478516,0,False,1,0.7666666666666666,1.0,1.0,1,1.1907634709180885,0.9948958333333334,1.535888185670544,2.8920418955700584
13273.348269255266,50.881168365478516,1,True,1,0.7666666666666666,1.0,1.0,1,1.1997180728434196,0.9980851063829786,1.5546369272180673,2.927221392228737
13403.78305186396,51.381168365478516,0,True,1,0.7666666666666666,1.0,1.0,1,1.188566410401658,0.9950000000000001,1.5346074472344104,2.960831334636875
13534.217834472656,51.881168365478516,1,False,1,0.7666666666666666,1.0,1.0,1,1.1972861710101994,0.9981249999999999,1.5529249085806298,2.994505536170601
13599.435225777004,52.131168365478516,0,False,1,1.0222222222222221,1.1,1.0,1.5750000000000002,1.1900746019161972,1.0097500000000001,1.5913108013630102,3.0290631971634077
13664.652617081352,52.381168365478516,1,True,1,1.5333333333333332,1.0,1.0,1,1.206058434247341,0.9981632653061224,1.5597915687425363,3.0616460354815307
13729.8700083857,52.631168365478516,0,True,1,1.5333333333333332,1.0,1.0,1,1.202258107801125,1.009558823529412,1.6000716779019957,3.095192449410585
13795.087399690048,52.881168365478516,1,False,1,1.5333333333333332,1.0,1.0,1,1.225501942939914,0.9982000000000001,1.5749029495881033,3.1270753046426414
13860.304790994396,53.131168365478516,0,False,1,1.5333333333333332,1.0,1.0,1,1.2210202240257084,1.0093750000000001,1.6140554108369214,3.1598722349643413
13925.522182298744,53.381168365478516,1,True,1,1.5333333333333332,1.0,1.0,1,1.24417546752916,0.9982352941176471,1.5895071520492217,3.1910766179231085
13990.739573603092,53.631168365478516,0,True,1,1.5333333333333332,1.0,1.0,1,1.2390676438702672,1.0091981132075472,1.627585095234435,3.223149114211253
14055.95696490744,53.881168365478516,1,False,1,1.5333333333333332,1.0,1.0,1,1.262123844462203,0.9982692307692308,1.6036262812646056,3.253695707293727
14186.391747516134,54.381168365478516,0,False,1,1.0222222222222221,1.0,1.0,1,1.249720076835267,1.0090277777777776,1.6353504033214745,3.28486607908642
14316.82653012483,54.881168365478516,1,True,1,0.7666666666666666,1.0,1.0,1,1.2691331086786795,0.9983018867924528,1.6092360188589185,3.31447514783911
14447.261312733526,55.381168365478516,0,True,1,0.7666666666666666,1.0,1.0,1,1.250029620420743,1.0088636363636363,1.6349586046057352,3.3444909705856833
14577.696095342222,55.881168365478516,1,False,1,0.7666666666666666,1.0,1.0,1,1.2656763108091962,0.9983333333333333,1.6066503012159457,3.372914610377337
14708.130877950918,56.381168365478516,0,False,1,0.7666666666666666,1.0,1.0,1,1.2470417114438492,1.008705357142857,1.6319796816969925,3.4017448277703144
14838.564665421196,56.88116455078125,1,True,1,0.7666695912790602,1.0,1.0,1,1.2623464423454838,0.9983636363636363,1.6041619952513815,3.4290506365377715
14969.000443168308,57.381168365478516,0,True,1,0.7666666666666666,1.0,1.0,1,1.2441595974849595,1.0085526315789473,1.6291094350674775,3.456762049020654
15099.435225777004,57.881168365478516,1,False,1,0.766663742076586,1.0,1.0,1,1.259136566618828,0.9983928571428571,1.6017656581127258,3.4830126529145597
15229.8700083857,58.381168365478516,0,False,1,0.7666666666666666,1.0,1.0,1,1.2413777568452982,1.008405172413793,1.6263420349330509,3.5096672047318136
15360.303795855978,58.88116455078125,1,True,1,0.7666695912790602,1.0,1.0,1,1.2560403439304118,0.9984210526315789,1.5994563225334721,3.5349207060242267
15490.739573603092,59.381168365478516,0,True,1,0.7666666666666666,1.3,1.0,1,1.2386910455442324,1.0133474576271186,1.6433911119561717,3.561257582342502
15621.174356211786,59.881168365478516,1,False,1,0.766663742076586,1.1,1.0,1.05,1.2530518453619146,1.0011206896551723,1.6074614543295467,3.585912820372579
15751.609138820482,60.381168365478516,0,True,1,0.7666666666666666,1.3,1.0,1,1.2360946655616614,1.018125,1.6599854367584237,3.6119350981779066
15882.044916567596,60.88117218017578,1,True,1,0.766663742076586,1.0,1.0,1,1.2501654718559607,1.0011016949152542,1.6051295635238112,3.6356715221405334
15947.26031759511,61.13116455078125,0,True,1,1.022227421539755,1.3,1.0,1,1.2365471646556228,1.0227459016393443,1.6785296197686832,3.6614651242499656
16012.478704037874,61.381168365478516,1,False,1,1.5333450318275337,1.1,1.0,1.05,1.2564341922157707,1.0036666666666667,1.619910609584045,3.684889722763867
16077.696095342222,61.631168365478516,0,True,1,1.5333216350176364,1.3,1.0,1,1.2457980289732862,1.0272177419354838,1.7037712392294653,3.7106867141290003
16142.91348664657,61.881168365478516,1,True,1,1.5333333333333332,1.0,1.0,1,1.2715098452483469,1.0036065573770492,1.6315705878480131,3.7337103835854357
16273.349264393682,62.38117218017578,0,True,1,1.022217022957579,1.0,1.0,1,1.254804383492534,1.0267857142857142,1.7093866333408005,3.758879174037945
16403.785042140797,62.88117599487305,1,False,1,0.7666608175088182,1.0,1.0,1,1.2773322043282915,1.003548387096774,1.6359520381251582,3.7812894820286966
16534.218829611073,63.38117218017578,0,False,1,0.7666666666666666,1.0,1.0,1,1.2549862839592607,1.0263671875,1.707862548025316,3.805632651358481
16664.652617081352,63.881168365478516,1,True,1,0.7666725159137668,1.0,1.0,1,1.274242132832837,1.0034920634920634,1.633287604670713,3.827237774534631
16795.086404551632,64.38116455078125,0,True,1,0.7666725159137668,1.0,1.0,1,1.252338617702975,1.0259615384615384,1.7040857822038369,3.8507232918166836
16925.521187160328,64.88116455078125,1,False,1,0.7666695912790602,1.0,1.0,1,1.2712495065207519,1.0034375,1.6307097362478455,3.901810370272573
17055.955969769024,65.38116455078125,0,False,1,0.7666666666666666,1.0,1.0,1,1.249771813443313,1.0255681818181819,1.7004293048686359,3.9550816320891604
17186.390752377716,65.88116455078125,1,True,1,0.7666666666666666,1.0,1.0,1,1.268349629943313,1.0033846153846153,1.628214168745443,4.006089324393231
17316.825534986412,66.38116455078125,0,True,1,0.7666666666666666,1.1,1.0,1.05,1.2472821584626317,1.0275,1.7061063572596415,4.059537232915599
17447.260317595108,66.88116455078125,1,False,1,0.7666666666666666,1.0,1.0,1,1.2655382851470194,1.0033333333333334,1.6257970555177554,4.110460332585917
17577.695100203804,67.38116455078125,0,False,1,0.7666666666666666,1.0,1.0,1,1.2448662848401142,1.0270955882352941,1.7025257826703981,4.163787199411563
17708.1298828125,67.88116455078125,1,True,1,0.7666666666666666,1.0,1.0,1,1.2628115085291265,1.0032835820895523,1.6234547872952245,4.214611893029047
18034.21683933424,69.13116455078125,0,True,1,0.4380952380952381,1.1,1.0,1.05,1.23916150119508,1.0289492753623188,1.7052752938637354,4.267999869703871
18099.434230638588,69.38116455078125,1,False,1,0.5111111111111111,1.0,1.0,1,1.2575136764229553,1.003235294117647,1.6190966716843278,4.318638383668926
18164.651621942936,69.63116455078125,0,False,1,1.5333333333333332,1.0,1.0,1,1.2413188078054873,1.0285357142857143,1.705382023712282,4.371980055927983
18360.30379585598,70.38116455078125,1,True,1,0.7666666666666666,1.0,1.0,1,1.2523204641040753,1.0031884057971014,1.6148336051676857,4.422402285984296
18490.738578464676,70.88116455078125,0,True,1,0.6133333333333334,1.0,1.0,1,1.2452937972909277,1.0281338028169014,1.7070165381893356,4.475712434489177
18621.17336107337,71.38116455078125,1,False,1,0.7666666666666666,1.0,1.0,1,1.2499016256955804,1.0031428571428571,1.6127592968235138,4.525945407372021
18751.608143682064,71.88116455078125,0,False,1,0.7666666666666666,1.0,1.0,1,1.2415113482574895,1.0277430555555556,1.7023770635682,4.578985936853662
18882.04292629076,72.38116455078125,1,True,1,0.7666666666666666,1.0,1.0,1,1.2475514185950423,1.0030985915492958,1.6107454645876726,4.628981543233045
19012.477708899456,72.88116455078125,0,True,1,0.7666666666666666,1.0,1.0,1,1.2393417292192441,1.0273630136986303,1.699098893158642,4.6817450968668775
19142.912491508152,73.38116455078125,1,False,1,0.7666666666666666,1.0,1.0,1,1.2452669625086217,1.0030555555555556,1.6087895074484309,4.731446684949191
19273.347274116848,73.88116455078125,0,False,1,0.7666666666666666,1.0,1.0,1,1.2372311567002288,1.0269932432432434,1.6959137174844519,4.783877711174038
19403.782056725544,74.38116455078125,1,True,1,0.7666666666666666,1.0,1.0,1,1.2430455361005404,1.003013698630137,1.6068889711612773,4.833220091298967
19534.21683933424,74.88116455078125,0,True,1,0.7666666666666666,1.0,1.0,1,1.2351772524909255,1.0266333333333333,1.6928176413555585,4.8852544555448265
19664.651621942936,75.38116455078125,1,False,1,0.7666666666666666,1.0,1.0,1,1.2408845661759256,1.002972972972973,1.60504153805779,4.934163904463182
19795.086404551632,75.88116455078125,0,False,1,0.7666666666666666,1.0,1.0,1,1.2331777644125324,1.026282894736842,1.689806983804907,4.985728895861587
19925.521187160328,76.38116455078125,1,True,1,0.7666666666666666,1.0,1.0,1,1.238781617735181,1.0029333333333332,1.6032450176908388,5.034123160720321
20055.955969769024,76.88116455078125,0,True,1,0.7666666666666666,1.3,1.0,1,1.2312305580770964,1.0298376623376624,1.7023628515648033,5.085622601468388
20121.17336107337,77.13116455078125,1,False,1,1.0222222222222221,1.0,1.0,1,1.2391124255388433,1.0028947368421053,1.6033558115575985,5.133469126010936
20186.39075237772,77.38116455078125,0,True,1,1.5333333333333332,1.3,1.0,1,1.2362980756384279,1.033301282051282,1.7203561517225867,5.184981051835215
20251.608143682064,77.63116455078125,1,True,1,1.5333333333333332,1.0,1.0,1,1.246519829613002,1.002857142857143,1.6090094956765377,5.2323527146030235
20316.825534986412,77.88116455078125,0,True,1,1.5333333333333332,1.0,1.0,1,1.2481730525894061,1.032879746835443,1.7284057054631468,5.283464836755553
20447.260317595108,78.38116455078125,1,False,1,1.0222222222222221,1.0,1.0,1,1.2537696097060107,1.0028205128205128,1.6145559608048985,5.330249047979309
20577.695100203804,78.88116455078125,0,False,1,0.7666666666666666,1.0,1.0,1,1.2529603388062989,1.03246875,1.730686499436695,5.38067141123364
20708.1298828125,79.38116455078125,1,True,1,0.7666666666666666,1.3,1.0,1,1.2539264814951345,1.0065822784810126,1.6291990533281724,5.427035459411801
20838.564665421196,79.88116455078125,0,True,1,0.7666666666666666,1.0,1.0,1,1.2508641363284885,1.032067901234568,1.727348578107834,5.476474348170951
21099.434230638588,80.88116455078125,0,False,2,0.7666666666666666,1.0,1.0,1,1.248819380999655,1.0316768292682927,1.724096484796903,5.524806298501779
21360.30379585598,81.88116455078125,1,True,2,0.7666666666666666,1.0,1.0,1,1.2452203074111157,1.0064197530864196,1.6217021661069992,5.5699304268173995
21490.738578464676,82.38116455078125,0,True,2,0.5111111111111111,1.3,1.0,1,1.2446506607905894,1.034909638554217,1.733690316087757,5.617423263705105
21751.608143682064,83.38116455078125,0,False,2,0.7666666666666666,1.0,1.0,1,1.2405483781454198,1.0344940476190476,1.7286399076432022,5.66475788076576
21882.04292629076,83.88116455078125,1,False,2,0.3833333333333333,1.0,1.0,1,1.2399462351187647,1.0063414634146342,1.6172493550234224,5.707320095752131
22142.912491508152,84.88116455078125,1,True,1,0.7666666666666666,1.3,1.0,1,1.2347458419698776,1.0098795180722893,1.626808469094588,5.750181779859014
22208.1298828125,85.13116455078125,0,True,1,0.4380952380952381,1.0,1.0,1,1.235970009717868,1.0340882352941176,1.7232482787682313,5.794630461748835
22273.347274116848,85.38116455078125,1,True,1,1.5333333333333332,1.3,1.0,1,1.2394090369745558,1.0133333333333332,1.6439068270415784,5.836593524721284
22338.564665421196,85.63116455078125,0,False,1,1.5333333333333332,1.0,1.0,1,1.2377719259163964,1.0336918604651164,1.7231330888716376,5.879026334710736
22403.782056725544,85.88116455078125,1,False,2,1.5333333333333332,1.1,1.0,1.05,1.2504039693206814,1.015,1.659185306341869,5.919873766468949
22534.21683933424,86.38116455078125,1,True,1,1.5333333333333332,1.1,1.0,1.44,1.261141714539887,1.0216162790697674,1.693940644690922,5.959586550959691
22664.651621942936,86.88116455078125,1,True,1,1.5333333333333332,1.3,1.0,1,1.271631191391589,1.024816091954023,1.7152495301728794,6.000427634729878
22795.086404551632,87.38116455078125,1,True,1,1.5333333333333332,1.3,1.0,1,1.2818809110470628,1.027943181818182,1.7362446572866777,6.0394812438855325
22925.521187160328,87.88116455078125,0,True,2,0.34074074074074073,1.0,1.0,1,1.2388349647839776,1.0333045977011495,1.7224486776136854,6.078608209787125
23055.955969769024,88.38116455078125,0,False,1,1.5333333333333332,1.0,1.0,1,1.2397700488194041,1.0329261363636364,1.7216949383437914,6.11503406204591
23186.39075237772,88.88116455078125,0,True,2,1.5333333333333332,1.3,1.0,1,1.2502639358326773,1.0359269662921347,1.7424329274450296,6.1525937414895
23316.825534986412,89.38116455078125,0,True,1,1.5333333333333332,1.3,1.0,1,1.2605233261398825,1.038861111111111,1.7628697197766667,6.187712114147792
23447.260317595108,89.88116455078125,0,True,1,1.5333333333333332,1.0,1.0,1,1.2705559922948093,1.0384340659340658,1.7694913284272944,6.223497019132598
23577.695100203804,90.38116455078125,0,False,1,1.5333333333333332,1.0,1.0,1,1.2803693671641578,1.0380163043478259,1.7759840781475758,6.255945638065702
23708.1298828125,90.88116455078125,0,True,2,1.5333333333333332,1.0,1.0,1,1.289970562277832,1.0376075268817202,1.7823512177661596,6.289264888850811
23838.564665421196,91.38116455078125,0,False,1,1.5333333333333332,1.1,1.0,1.7999999999999998,1.2993663850030466,1.0476329787234042,1.8318931468363073,6.320360363905208
23968.999448029892,91.88116455078125,0,True,2,1.5333333333333332,1.1,1.0,1,1.3085633546291882,1.0481842105263157,1.8420772006655366,6.3526747383799425
24099.434230638588,92.38116455078125,1,True,1,1.5333333333333332,1.3,1.0,1,1.2887801979464444,1.0296666666666667,1.7489241398455175,6.378082731910648
24229.869013247284,92.88116455078125,1,False,1,1.5333333333333332,1.0,1.0,1,1.298188751216678,1.0293510638297871,1.7554438735279119,6.40466438318389
24360.30379585598,93.38116455078125,1,True,1,1.5333333333333332,1.0,1.0,1,1.3073981820129132,1.029042105263158,1.761839764703594,6.4271559674282965
24490.738578464676,93.88116455078125,0,False,2,0.3833333333333333,1.1,1.0,1.5750000000000002,1.3090957946049764,1.0553124999999999,1.872651837964275,6.454160636539113
24621.17336107337,94.38116455078125,0,True,1,1.5333333333333332,1.0,1.0,1,1.309532072381697,1.054742268041237,1.87060852827862,6.476497436097042
24751.608143682064,94.88116455078125,0,False,1,1.5333333333333332,1.0,1.0,1,1.3183417870669645,1.0541836734693877,1.8758746579346899,6.500115496197275
24882.04292629076,95.38116455078125,0,True,1,1.5333333333333332,1.0,1.0,1,1.3269726238357396,1.0536363636363635,1.8810422332577503,6.518967121923422
25012.477708899456,95.88116455078125,0,True,2,1.5333333333333332,1.3,1.0,1,1.3354299757178918,1.0561,1.8989487808851424,6.53896137207077
25142.912491508152,96.38116455078125,1,False,1,1.5333333333333332,1.0,1.0,1,1.3172124655520283,1.0297346938775511,1.7728534764379735,6.5499638430561316
25273.347274116848,96.88116455078125,0,True,2,0.7666666666666666,1.3,1.0,1,1.3383458761596994,1.0585148514851486,1.9118838743409228,6.565822032862598
25403.782056725544,97.38116455078125,1,False,1,1.5333333333333332,1.0,1.0,1,1.3343233533389651,1.02914,1.7847340948688772,6.576009137402767
25534.21683933424,97.88116455078125,1,True,1,1.5333333333333332,1.0,1.0,1,1.342623409576514,1.0288514851485149,1.7905128269039052,6.587122483180654
25664.651621942936,98.38116455078125,1,False,1,1.5333333333333332,1.1,1.0,1.05,1.3507599167814215,1.0300882352941176,1.80247598353124,6.597475387754127
25795.086404551632,98.88116455078125,0,False,2,0.3833333333333333,1.0,1.0,1,1.3331898298651985,1.0579411764705882,1.9048900033905924,6.612012424336127
25925.521187160328,99.38116455078125,1,False,1,1.5333333333333332,1.1,1.0,1.05,1.3665612456123262,1.0324903846153846,1.8258580262660067,6.622976648955603
26055.955969769024,99.88116455078125,0,True,2,0.7666666666666666,1.0,1.0,1,1.328098179702748,1.057378640776699,1.898016989607103,6.636912650237493
26186.392742654552,100.38117218017578,1,False,1,1.5333099368804388,1.1,1.0,1.05,1.3817633092904948,1.0361698113207547,1.8543107118886546,6.64853370264584
26316.825534986412,100.88116455078125,0,True,1,0.7666666666666666,1.3,1.25,1,1.3257418444978615,1.0628365384615384,1.9194303639542436,6.6627681840778115
26447.260317595108,101.38116455078125,0,True,1,1.5333333333333332,1.0,1.25,1,1.3285991945025502,1.0646190476190476,1.9296645754944217,6.676641402815455
26512.477708899456,101.63116455078125,1,True,1,0.6133370768457653,1.0,1.0,1,1.383067675681687,1.0358317757009345,1.8540034451634084,6.688818868054561
26577.695100203804,101.88116455078125,0,False,1,1.5333333333333332,1.0,1.0,1,1.3365601229062214,1.0640094339622639,1.9340668381000539,6.702840878643176
26708.1298828125,102.38116455078125,0,True,1,1.5333333333333332,1.0,1.0,1,1.344371549519435,1.0634112149532708,1.938391710822785,6.717655091447227
26838.564665421196,102.88116455078125,0,False,1,1.5333333333333332,1.0,1.0,1,1.3520376463331718,1.062824074074074,1.9426409729687308,6.7318286168639325
26968.999448029892,103.38116455078125,0,True,1,1.5333333333333332,1.3,1.0,1,1.359562431550793,1.065,1.9588413847206914,6.7466307501586265
27099.434230638588,103.88116455078125,0,True,2,1.5333333333333332,1.3,1.0,1,1.3669497766084193,1.0671363636363635,1.9748335880224435,6.76128956491007
27229.869013247284,104.38116455078125,1,True,1,1.5333333333333332,1.0,1.0,1,1.3759795069039398,1.0351743119266055,1.8451530591396614,6.772539485849241
27360.30379585598,104.88116455078125,1,False,1,1.5333333333333332,1.0,1.0,1,1.383216927327347,1.0348545454545455,1.8500076830037249,6.783547827257015
27490.738578464676,105.38116455078125,1,True,1,1.5333333333333332,1.3,1.0,1,1.3903233521990448,1.0372432432432432,1.8662212334516894,6.7953664371982505
27621.17336107337,105.88116455078125,1,False,1,1.5333333333333332,1.0,1.0,1,1.397302305997861,1.0369107142857144,1.870831468849002,6.8067344869532045
27751.608143682068,106.38116455078125,1,True,1,1.5333333333333332,1.0,1.0,1,1.4041571878978345,1.03658407079646,1.8753645321054417,6.817648171183824
27882.04292629076,106.88116455078125,0,True,2,0.25555555555555554,1.3,1.0,1,1.366066409198825,1.069234234234234,1.983287237493771,6.831518233442368
28012.477708899456,107.38116455078125,1,True,1,1.5333333333333332,1.0,1.0,1,1.417507738998355,1.037295652173913,1.8899684347883259,6.842531725414069
28142.912491508152,107.88116455078125,0,False,2,0.7666666666666666,1.0,1.0,1,1.3602756183844675,1.0686160714285713,1.9753554198574736,6.855471730660394
28273.347274116848,108.38116455078125,0,True,1,1.5333333333333332,1.0,1.0,1,1.3626234139646758,1.068008849557522,1.9747903735072085,6.869090313316591
28403.782056725544,108.88116455078125,0,False,2,1.5333333333333332,1.0,1.0,1,1.3697234338067779,1.0674122807017543,1.9785401494695751,6.882194398468814
28534.214849057407,109.38115692138672,0,True,2,1.5333567305002416,1.0,1.0,1,1.3766995789358856,1.0668260869565216,1.9822275151450632,6.896091734539501
28664.651621942936,109.88116455078125,0,False,2,1.5333099368804388,1.1,1.0,1.5750000000000002,1.38355478139601,1.0725646551724137,2.01388743099737,6.9103645434791945
28795.086404551632,110.38116455078125,1,True,1,1.5333333333333332,1.3,1.0,1,1.439855869473385,1.0445333333333333,1.940791848989645,6.923007534906959
28925.521187160328,110.88116455078125,1,True,1,1.5333333333333332,1.0,1.0,1,1.445902500390684,1.0441652892561983,1.944529558808127,6.935166100871597
29055.953979492188,111.38115692138672,1,False,1,1.5333567305002416,1.0,1.0,1,1.4518497325774913,1.0438032786885245,1.9482079829309609,6.948083307020146
29186.39075237772,111.88116455078125,0,True,2,0.3833333333333333,1.0,1.0,1,1.3833426590140312,1.0719444444444444,2.010929813050545,6.962378107584117
29316.825534986412,112.38116455078125,0,False,1,1.5333333333333332,1.0,1.0,1,1.3830736775203831,1.0713347457627116,2.00797028346582,6.977207677687929
29447.260317595108,112.88116455078125,0,True,2,1.5333333333333332,1.0,1.0,1,1.389701534786338,1.070735294117647,2.011316949298615,6.991568240838547
29577.69709048064,113.38117218017578,0,False,1,1.5333099368804388,1.0,1.0,1,1.3962183262074108,1.070145833333333,2.0146093122043127,7.004829389498498
29708.1298828125,113.88116455078125,0,True,1,1.5333567305002416,1.0,1.0,1,1.4026270904316573,1.069566115702479,2.0178487921428974,7.019179463450338
29838.564665421196,114.38116455078125,0,False,2,1.5333333333333332,1.1,1.0,1.5750000000000002,1.4089304962935865,1.0749999999999997,2.0480042666313074,7.033212351581622
29968.99745775306,114.88115692138672,0,True,1,1.5333567305002416,1.3,1.0,1,1.4151309876449871,1.0768292682926828,2.061984591969286,7.048471706159345
30099.43622091542,115.38117218017578,0,False,1,1.5332865411415262,1.0,1.25,1,1.4212307980319345,1.0782258064516128,2.073965167736556,7.0628798165122175
30229.869013247284,115.88116455078125,0,True,2,1.5333567305002416,1.0,1.0,1,1.4272326166965412,1.0776,2.0766770964789285,7.078141937427555
30360.30379585598,116.38116455078125,0,False,1,1.5333333333333332,1.0,1.0,1,1.4331390522335883,1.076984126984127,2.0793463573481366,7.092294770717211
30621.17336107337,117.38116455078125,1,True,1,0.5111111111111111,1.0,1.0,1,1.4430560273558277,1.0451181102362204,1.946170566785511,7.103026040912045
30686.39075237772,117.63116455078125,0,True,1,0.6133333333333334,1.0,1.0,1,1.4338284837501598,1.0763779527559054,2.0772232217807725,7.116869087802841
30751.608143682068,117.88116455078125,1,False,2,1.5333333333333332,1.0,1.0,1,1.4430539963348052,1.044765625,1.9446305736101794,7.127376370338409
31273.347274116848,119.88116455078125,0,False,2,0.34074074074074073,1.0,1.0,1,1.4278828566090562,1.07578125,2.0690064308554894,7.140974274895139
31534.21683933424,120.88116455078125,0,True,2,0.7666666666666666,1.0,1.0,1,1.428409795702094,1.08359375,2.1051920521238237,7.1565926531852995
31664.651621942936,121.38116455078125,0,False,1,1.5333333333333332,1.0,1.0,1,1.4368803086705166,1.08359375,2.113124461408567,7.171666016987201
31795.086404551632,121.88116455078125,0,True,1,1.5333333333333332,1.0,1.0,1,1.445350822072789,1.08359375,2.1210738423718243,7.1878598959477715
31925.521187160328,122.38116455078125,0,False,1,1.5333333333333332,1.0,1.0,1,1.4538213359013281,1.08359375,2.1290400049077274,7.203521783331048
32055.955969769024,122.88116455078125,0,True,2,1.5333333333333332,1.3,1.0,1,1.4622918501487268,1.0859374999999998,2.1479239685112184,7.220631899149
32186.39075237772,123.38116455078125,0,True,1,1.5333333333333332,1.3,1.0,1,1.4707623648077472,1.0882812499999996,2.1669179018488265,7.237567127479722
32316.825534986416,123.88116455078125,0,True,2,1.5333333333333332,1.0,1.0,1,1.4792328798713188,1.0882812499999996,2.174990532112253,7.255597535139182
32447.260317595108,124.38116455078125,1,True,1,1.5333333333333332,1.0,1.0,1,1.4501373956845762,1.052578125,1.985256397756083,7.266307533545883
32577.695100203804,124.88116455078125,0,False,2,0.7666666666666666,1.0,1.0,1,1.483462091723163,1.0882812499999996,2.179027179151475,7.284213616018821
32708.1298828125,125.38116455078125,0,True,2,1.5333333333333332,1.0,1.0,1,1.4877033953325314,1.0882812499999996,2.18307941316034,7.300601169498285
32838.564665421196,125.88116455078125,0,True,2,1.5333333333333332,1.3,1.0,1,1.4961739111846315,1.0906249999999997,2.202273521696823,7.319308570062924
32968.99944802989,126.38116455078125,1,True,1,1.5333333333333332,1.0,1.0,1,1.4840194544091834,1.054921875,2.0262533857579568,7.330202103669308
33099.43622091542,126.88117218017578,1,False,1,1.5333099368804388,1.0,1.0,1,1.492489840477493,1.0549218749999998,2.033943707758241,7.343172984323045
33229.86702297045,127.38115692138672,1,True,1,1.5333801283811963,1.0,1.0,1,1.5009604869034492,1.0549218749999998,2.041648821333762,7.353758055449908
33360.30379585598,127.88116455078125,0,False,2,0.3833333333333333,1.1,1.0,1.5750000000000002,1.4982870506992436,1.0963476562499999,2.231553432704901,7.372554393011439
33490.738578464676,128.38116455078125,0,True,1,1.5333333333333332,1.1,1.0,1.26,1.500409169255195,1.0993632812499996,2.2480691475497347,7.3894303061518904
33621.17336107337,128.88116455078125,0,True,2,1.5333333333333332,1.3,1.0,1,1.508879685681294,1.1017070312499997,2.267642502521802,7.409219983981817
33751.60814368207,129.38116455078125,1,False,1,1.5333333333333332,1.0,1.0,1,1.5179015194614265,1.0561328125,2.0625983363298275,7.420333191099794
33882.042926290764,129.88116455078125,1,True,1,1.5333333333333332,1.0,1.0,1,1.5263720366543696,1.0561328125,2.0703609258548825,7.434025878740018
34012.47770889946,130.38116455078125,1,False,1,1.5333333333333332,1.0,1.0,1,1.5348425542092383,1.0561328125,2.078137475294385,7.4457442169376185
34142.912491508156,130.88116455078125,0,False,2,0.3833333333333333,1.0,1.25,1,1.510992863089684,1.1036601562499997,2.2791716185912954,7.46605931184541
34403.78205672555,131.88116455078125,0,True,2,0.7666666666666666,1.0,1.0,1,1.5088737416720546,1.1036601562499997,2.2770877198074126,7.484124938750914
34534.21683933424,132.38116455078125,0,False,1,1.5333333333333332,1.1,1.0,1.5750000000000002,1.5131149440352334,1.1093828124999996,2.3091356082351733,7.505456930722429
34664.65162194293,132.88116455078125,0,True,1,1.5333333333333332,1.0,1.0,1,1.5215854610209723,1.1093828124999996,2.3175511363803025,7.524612349193318
34795.08640455163,133.38116455078125,0,True,1,1.5333333333333332,1.3,1.25,1,1.5300559783720626,1.1142656249999996,2.3500668333151835,7.547302363325879
34860.30379585598,133.63116455078125,1,True,1,0.4380952380952381,1.0,1.25,1,1.5457284835967062,1.0627734375,2.118734059023551,7.560341388233504
34925.521187160324,133.88116455078125,0,False,1,1.5333333333333332,1.5,1.0,1.05,1.5385264960824703,1.1187578124999997,2.3809343551025473,7.584071802818718
35055.95596976902,134.38116455078125,0,False,1,1.5333333333333332,1.0,1.0,1,1.546997014146292,1.1187578124999997,2.3895170501333673,7.605507814089352
35186.390752377716,134.88116455078125,0,True,1,1.5333333333333332,1.0,1.0,1,1.5554675325577554,1.1187578124999997,2.3981158985933786,7.629913025807363
35316.82553498641,135.38116455078125,0,True,1,1.5333333333333332,1.3,1.0,1,1.5639380513112109,1.1211015624999996,2.4185403597464896,7.652254939303434
35447.26031759511,135.88116455078125,0,False,2,1.5333333333333332,1.1,1.0,1.5750000000000002,1.5724085704011321,1.1268242187499997,2.456269024545214,7.67861553330112
35577.695100203804,136.38116455078125,1,True,1,1.5333333333333332,1.0,1.0,1,1.543447524788162,1.0629296874999998,2.117334166886246,7.691470015262642
35708.1298828125,136.88116455078125,0,True,2,0.7666666666666666,1.3,1.0,1,1.5752270014838683,1.1291679687499998,2.471159212470586,7.718362075120022
35838.564665421196,137.38116455078125,1,True,1,1.5333333333333332,1.0,1.0,1,1.5603885616654707,1.0629296874999998,2.133125580407467,7.731856618499127
35968.99944802989,137.88116455078125,1,False,1,1.5333333333333332,1.0,1.0,1,1.5688590806150642,1.0629296875,2.1410417771069397,7.74846980766477
36099.43423063859,138.38116455078125,1,True,1,1.5333333333333332,1.0,1.0,1,1.5730886388448702,1.0629296875,2.1449995944931715,7.762439040573766
36229.869013247284,138.88116455078125,0,True,2,0.3833333333333333,1.3,1.0,1,1.567474589951014,1.13151171875,2.4751232127851717,7.789579651186268
36360.30379585598,139.38116455078125,1,True,1,1.5333333333333332,1.1,1.0,1.2,1.577329543372578,1.0654296875,2.1606791556794156,7.80413988092972
36490.738578464676,139.88116455078125,0,False,2,0.7666666666666666,1.0,1.0,1,1.5596977163981154,1.13151171875,2.4670569102972877,7.831087329647965
36621.17336107337,140.38116455078125,0,True,1,1.5333333333333332,1.0,1.0,1,1.5625263340645417,1.13151171875,2.469989203240989,7.855434657485159
36751.60814368207,140.88116455078125,1,True,1,0.7666666666666666,1.0,1.0,1,1.5900296984197755,1.0666406249999998,2.1783493741212823,7.8733953170368345
36882.042926290764,141.38116455078125,1,False,1,1.5333333333333332,1.0,1.0,1,1.594270607129672,1.066640625,2.182357935030066,7.8888260148056855
37012.47770889946,141.88116455078125,0,False,2,0.5111111111111111,1.0,1.0,1,1.565344755485987,1.13151171875,2.472912743013217,7.9160710740130495
37142.912491508156,142.38116455078125,1,False,1,1.5333333333333332,1.1,1.0,1.2,1.6069708064638337,1.0716406250000001,2.218183682375018,7.932230773478276
37273.34727411685,142.88116455078125,1,True,1,1.5333333333333332,1.0,1.0,1,1.6069708064638337,1.071640625,2.218183682375017,7.951492177868725
37403.78205672555,143.38116455078125,1,False,1,1.5333333333333332,1.0,1.0,1,1.6112116479447531,1.071640625,2.222237229614625,7.967215171012063
37534.21683933424,143.88116455078125,0,True,2,0.3833333333333333,1.0,1.0,1,1.5618161667577004,1.13151171875,2.4692528346968814,7.99416498186731
37664.65162194293,144.38116455078125,0,False,1,1.5333333333333332,1.0,1.0,1,1.5639381033698325,1.13151171875,2.471453400864797,8.017443272949814
37795.08640455163,144.88116455078125,0,True,2,1.5333333333333332,1.0,1.0,1,1.5709936976006587,1.1303007812499999,2.472571248253446,8.04432328312691
37925.521187160324,145.38116455078125,0,False,1,1.5333333333333332,1.1,1.0,1.5750000000000002,1.57381467693359,1.1360234375,2.5049430926766036,8.068579290462006
38055.95596976902,145.88116455078125,0,True,1,1.5333333333333332,1.3,1.0,1,1.5766407218347207,1.1383671874999999,2.5200368211269213,8.096487567406326
38186.390752377716,146.38116455078125,0,False,1,1.5333333333333332,1.0,1.25,1,1.5837026484270467,1.1403203124999999,2.5376255369683856,8.12187202525813
38251.60814368207,146.63116455078125,1,True,1,0.4380952380952381,1.0,1.0,1,1.6164507743554974,1.0716406250000001,2.227249491384247,8.137634865542623
38316.82553498641,146.88116455078125,0,True,1,1.5333333333333332,1.0,1.0,1,1.5879322602385297,1.1403203124999999,2.5420908476013255,8.16646891720506
38447.26031759511,147.38116455078125,0,False,1,1.5333333333333332,1.0,1.0,1,1.5921731682812217,1.1403203124999999,2.5465721487043083,8.191934980867503
38577.695100203804,147.88116455078125,1,False,1,0.6133333333333334,1.0,1.0,1,1.6137878047062726,1.0716406250000001,2.224701211384885,8.207475651398784
38708.1298828125,148.38116455078125,1,True,1,1.5333333333333332,1.0,1.0,1,1.6202172666085781,1.069296875,2.219631315389784,8.226347148750886
38838.564665421196,148.88116455078125,0,True,1,0.5111111111111111,1.0,1.0,1,1.5949916766785774,1.1403203124999999,2.5495526632481775,8.255254994208356
38968.99944802989,149.38116455078125,0,False,1,1.5333333333333332,1.0,1.0,1,1.597820181694807,1.1403203124999999,2.5525455405283335,8.281235322486934
39099.43423063859,149.88116455078125,1,False,2,0.5111111111111111,1.0,1.0,1,1.6260503247553657,1.069296875,2.225200844085752,8.299446174114646
39360.30379585598,150.88116455078125,1,True,1,0.7666666666666666,1.0,1.0,1,1.6204082134766051,1.069296875,2.2198135395286007,8.315006241357882
39490.738578464676,151.38116455078125,0,True,2,0.3833333333333333,1.3,1.0,1,1.6013441199554692,1.1403203124999997,2.556276765887527,8.343110434738959
39751.60814368207,152.38116455078125,1,True,1,0.7666666666666666,1.0,1.0,1,1.6161674035881943,1.066875,2.20422240051642,8.359096605370679
39882.042926290764,152.88116455078125,0,False,2,0.5111111111111111,1.0,1.25,1,1.599226950015418,1.1422734374999997,2.5642716205055054,8.385694875544381
40142.912491508156,153.88116455078125,0,True,2,0.7666666666666666,1.1,1.0,1.2,1.5978145685519873,1.1447734374999998,2.575909116690779,8.411999988686649
40403.78205672555,154.88116455078125,0,False,1,0.7666666666666666,1.0,1.0,1,1.596403434456549,1.1447734374999998,2.5744060536103746,8.438690215856546
40534.21683933424,155.38116455078125,0,True,2,1.5333333333333332,1.0,1.0,1,1.5949910518909995,1.1424296874999997,2.5605952158189007,8.464971388611824
40925.521187160324,156.88116455078125,0,True,2,0.5111111111111111,1.3,1.25,1,1.5921700388107882,1.1473125,2.583264620520607,8.491313068996456
41186.390752377716,157.88116455078125,0,False,2,0.7666666666666666,1.1,1.0,1.5750000000000002,1.589344018569024,1.15303515625,2.6105120637937977,8.517868114305118
41447.26031759511,158.88116455078125,0,True,1,0.7666666666666666,1.3,1.0,1,1.5893440185690237,1.15537890625,2.622973960838085,8.544606124898612
41577.695100203804,159.38116455078125,0,True,2,1.5333333333333332,1.3,1.0,1,1.5935849216213906,1.15772265625,2.6400714065069817,8.57167636073237
41838.564665421196,160.38116455078125,0,False,1,0.7666666666666666,1.0,1.0,1,1.5978145685519876,1.15772265625,2.644660009634493,8.598690878352619
41968.99944802989,160.88116455078125,0,True,2,1.5333333333333332,1.0,1.0,1,1.6020554418471005,1.15772265625,2.649264992074301,8.624297605691716
42229.869013247284,161.88116455078125,0,False,2,0.7666666666666666,1.1,1.0,1.7999999999999998,1.604873981144791,1.15965625,2.6627170332264223,8.650006712946164
42490.738578464676,162.88116455078125,0,True,1,0.7666666666666666,1.0,1.0,1,1.5992319350701725,1.1596562500000003,2.6565708275304787,8.678441581833795
42621.17336107337,163.38116455078125,0,False,2,1.5333333333333332,1.0,1.0,1,1.594991051891,1.1596562500000003,2.651955902784835,8.70652762275036
42882.042926290764,164.38116455078125,0,True,1,0.7666666666666666,1.0,1.0,1,1.590761414949911,1.1596562500000003,2.6473574406920433,8.734269231193435
43012.47770889946,164.88116455078125,0,False,2,1.5333333333333332,1.0,1.0,1,1.5893465265974787,1.1596562500000003,2.645820119329974,8.758491143758098
43077.695100203804,165.13116455078125,1,True,1,0.4380952380952381,1.0,1.0,1,1.574824098519574,1.0843749999999999,2.248322090694857,8.770324201455669
43142.912491508156,165.38116455078125,0,True,1,1.5333333333333332,1.0,1.0,1,1.5964084283282078,1.1596562500000003,2.6534978195831496,8.794685677066687
43208.1298828125,165.63116455078125,1,False,1,1.5333333333333332,1.0,1.0,1,1.5772488959714184,1.0843749999999999,2.2506710440272695,8.806265454654076
43273.34727411685,165.88116455078125,0,False,2,1.5333333333333332,1.0,1.0,1,1.6048789486588086,1.1596562500000003,2.6627224479007876,8.830193051566052
43534.21683933424,166.88116455078125,1,True,1,0.6133333333333334,1.0,1.0,1,1.5806316404312808,1.0843749999999996,2.253949917215107,8.845264900999773
43664.65162194294,167.38116455078125,0,True,2,0.5111111111111111,1.0,1.0,1,1.6076974967152542,1.1596562500000003,2.665795638969625,8.868883543001033
43925.521187160324,168.38116455078125,1,True,1,0.7666666666666666,1.0,1.0,1,1.5882549084401139,1.0843749999999996,2.261347324321399,8.883814941829973
44055.95596976902,168.88116455078125,0,False,2,0.5111111111111111,1.0,1.0,1,1.6048739811447916,1.1596562500000003,2.662717033226424,8.91113946423117
44316.82553498641,169.88116455078125,0,True,2,0.7666666666666666,1.1,1.0,1.2,1.6034616018739642,1.1598125000000001,2.662018098922242,8.938067307064905
44577.695100203804,170.88116455078125,1,True,1,0.7666666666666666,1.3,1.0,1,1.592495799356358,1.0878515624999998,2.28233533103188,8.949891961469918
44708.1298828125,171.38116455078125,0,False,2,0.5111111111111111,1.0,1.0,1,1.602050465578173,1.15746875,2.647898439691506,8.975644946296761
44968.99944802989,172.38116455078125,1,False,1,0.7666666666666666,1.0,1.0,1,1.5882548599696977,1.0901953124999997,2.2895953753271616,8.987912362911898
45099.43423063859,172.88116455078125,0,True,2,0.5111111111111111,1.0,1.0,1,1.5978170346129228,1.155125,2.630775819284983,9.01223755885455
45360.30379585598,173.88116455078125,0,False,2,0.7666666666666666,1.0,1.0,1,1.590761421957618,1.1527812499999999,2.610689341161179,9.03389340649986
45621.17336107337,174.88116455078125,0,True,1,0.7666666666666666,1.0,1.0,1,1.5851094727613304,1.1527812499999999,2.6046112198643483,9.055038219343011
45751.60814368207,175.38116455078125,0,False,2,1.5333333333333332,1.0,1.0,1,1.5879380375622612,1.15278125,2.607652132710029,9.078648619632558
46012.47770889946,176.38116455078125,0,True,1,0.7666666666666666,1.0,1.0,1,1.5921676321659475,1.15278125,2.6122027412975184,9.099893345974916
46142.912491508156,176.88116455078125,0,True,2,1.5333333333333332,1.3,1.0,1,1.5964084929510842,1.155125,2.629252948388879,9.12153673318304
46403.78205672555,177.88116455078125,0,False,2,0.7666666666666666,1.1,1.0,1.5750000000000002,1.6006381498360802,1.15963671875,2.6579970558818724,9.143947497968055
46664.65162194294,178.88116455078125,0,True,1,0.7666666666666666,1.3,1.0,1,1.60063814983608,1.1619804687500002,2.670609944864996,9.166245872391322
46795.08640455163,179.38116455078125,0,True,2,1.5333333333333332,1.0,1.0,1,1.6066999347843853,1.16076953125,2.670704643966285,9.188046207815814
46925.521187160324,179.88116455078125,0,False,1,1.5333333333333332,1.0,1.0,1,1.6127389355260284,1.1607695312500002,2.6773045404113462,9.214115953440029
46990.738578464676,180.13116455078125,1,True,1,1.0222222222222221,1.1,1.0,1.05,1.5924906961039458,1.0939062499999999,2.3119012422737995,9.228586212601536
47055.95596976902,180.38116455078125,0,True,1,1.5333333333333332,1.0,1.0,1,1.617829248478742,1.1607695312500002,2.6828741932165845,9.25417041860667
47121.17336107337,180.63116455078125,1,False,1,1.5333333333333332,1.1,1.0,1.05,1.5981427156671066,1.0951171875,2.3234335041114345,9.268349591742627
47186.390752377716,180.88116455078125,0,False,2,1.5333333333333332,1.0,1.0,1,1.6271443824801548,1.1607695312500002,2.6930819088873204,9.293967143937122
47251.60814368207,181.13116455078125,1,True,1,1.5333333333333332,1.1,1.0,1.05,1.60661323606186,1.096328125,2.337800250567238,9.305073371924813
47316.82553498641,181.38116455078125,0,True,1,1.5333333333333332,1.0,1.0,1,1.6356149039175678,1.1607695312500002,2.7023812130187044,9.330524740992812
47382.042926290764,181.63116455078125,1,False,1,1.5333333333333332,1.0,1.0,1,1.6150837567669725,1.096328125,2.3462168865993505,9.342143135380585
47447.26031759511,181.88116455078125,0,False,2,1.5333333333333332,1.0,1.0,1,1.6440854256491215,1.1607695312500002,2.7116966627305583,9.36522902772266
47577.695100203804,182.38116455078125,0,True,1,1.5333333333333332,1.0,1.0,1,1.652555947670293,1.1607695312500002,2.7210280921995236,9.388489782803497
47642.912491508156,182.63116455078125,1,True,1,0.7666666666666666,1.0,1.0,1,1.6193134786145336,1.096328125,2.350424927453593,9.400024717360976
47708.1298828125,182.88116455078125,0,False,1,1.5333333333333332,1.0,1.0,1,1.661026469976651,1.1607695312500002,2.730375337586619,9.422470940059592
47838.564665421196,183.38116455078125,0,True,1,1.5333333333333332,1.0,1.0,1,1.6694969925638548,1.15842578125,2.7268913647504704,9.447097963951789
47903.78205672555,183.63116455078125,1,False,1,0.7666666666666666,1.0,1.0,1,1.6193134786145333,1.096328125,2.3504249274535924,9.459813904797635
47968.99944802989,183.88116455078125,0,False,1,1.5333333333333332,1.0,1.0,1,1.673726895403367,1.1560820312499998,2.7187334810592194,9.483953023918682
48099.43423063859,184.38116455078125,0,True,1,1.5333333333333332,1.0,1.0,1,1.673726895403367,1.1560820312499998,2.7187334810592194,9.506127185705516
48164.65162194294,184.63116455078125,1,True,1,0.7666666666666666,1.0,1.0,1,1.6193134786145331,1.096328125,2.350424927453592,9.516855647599197
48229.869013247284,184.88116455078125,0,False,1,1.5333333333333332,1.0,1.0,1,1.6779675154276514,1.1560820312499998,2.7233987779552224,9.53916383613758
48360.30379585598,185.38116455078125,0,True,1,1.5333333333333332,1.0,1.0,1,1.6864380385638729,1.1560820312499998,2.732728928509507,9.561661177242142
48425.521187160324,185.63116455078125,1,False,1,0.7666666666666666,1.0,1.0,1,1.6179023362241731,1.096328125,2.3490206332903067,9.57203617007809
48490.738578464676,185.88116455078125,0,False,1,1.5333333333333332,1.0,1.0,1,1.694908561968435,1.1560820312499998,2.7420740735079354,9.593780075746647
48621.17336107337,186.38116455078125,0,True,1,1.5333333333333332,1.0,1.0,1,1.704794931433392,1.1537382812499997,2.74009911763239,9.615024132370937
48686.390752377716,186.63116455078125,1,True,1,0.7666666666666666,1.0,1.0,1,1.6122602498310856,1.0963281250000003,2.3434097853991114,9.623465327033646
48751.60814368207,186.88116455078125,0,False,1,1.5333333333333332,1.0,1.0,1,1.7146731176002878,1.1537382812499999,2.750998598064462,9.644590555325504
48882.042926290764,187.38116455078125,0,True,1,1.5333333333333332,1.0,1.0,1,1.7249641658753505,1.1537382812499999,2.7623744543116695,9.66598854492569
48947.26031759511,187.63116455078125,1,False,1,0.7666666666666666,1.0,1.0,1,1.6066082739101313,1.0963281250000003,2.3377953240955827,9.678257414275796
49012.47770889946,187.88116455078125,0,False,1,1.5333333333333332,1.0,1.0,1,1.7310039476691224,1.1537382812499999,2.7690607004690113,9.699931385287824
49142.912491508156,188.38116455078125,0,True,1,1.5333333333333332,1.0,1.0,1,1.7376046429939673,1.1537382812499999,2.776376106451192,9.72598841330886
49208.1298828125,188.63116455078125,1,True,1,0.7666666666666666,1.0,1.0,1,1.6051958953095937,1.0939843750000002,2.324833552250534,9.734002997346314
49273.34727411685,188.88116455078125,0,False,1,1.5333333333333332,1.0,1.0,1,1.7441803587537328,1.1537382812499999,2.783672287835662,9.755258510980724
49403.78205672555,189.38116455078125,0,True,1,1.5333333333333332,1.0,1.0,1,1.744180358753733,1.1513945312499998,2.7706610536960454,9.77585789953598
49468.99944802989,189.63116455078125,1,False,1,0.7666666666666666,1.0,1.0,1,1.6066082739101313,1.0939843750000002,2.326230539167404,9.78228507417778
49534.21683933424,189.88116455078125,0,False,1,1.5333333333333332,1.0,1.0,1,1.744180358753733,1.1490507812499997,2.757689145125467,9.801979473023664
49664.65162194294,190.38116455078125,1,True,1,1.0222222222222221,1.0,1.0,1,1.6094317894829446,1.0939843750000002,2.329024450633706,9.807653011565158
49729.869013247284,190.63116455078125,0,True,1,1.0222222222222221,1.3,1.0,1,1.7413591311816043,1.1513945312499996,2.7675404686580043,9.826469390415976
49795.08640455163,190.88116455078125,1,False,1,1.5333333333333332,1.0,1.0,1,1.6172083193049027,1.0939843750000002,2.3367274383604664,9.831536304432035
49925.521187160324,191.38116455078125,1,True,1,1.5333333333333332,1.0,1.0,1,1.6277895383959655,1.0916406250000001,2.335623859982646,9.842512660084598
49990.738578464676,191.63116455078125,0,True,1,0.7666666666666666,1.3,1.0,1,1.7343032218488184,1.1537382812499999,2.7727161460496235,9.861111822250704
50055.95596976902,191.88116455078125,1,False,1,1.5333333333333332,1.0,1.0,1,1.6320193035889787,1.089296875,2.3282304491713712,9.865659132050737
50186.390752377716,192.38116455078125,1,True,1,1.5333333333333332,1.0,1.0,1,1.6320193035889787,1.0880859375,2.3222612851810145,9.869418123703639
50251.60814368207,192.63116455078125,0,True,1,0.7666666666666666,1.0,1.0,1,1.7258326972476166,1.1537382812499999,2.763335504417485,9.89250952445227
50316.82553498641,192.88116455078125,1,False,1,1.5333333333333332,1.0,1.0,1,1.6320193035889787,1.0835234375,2.299859908179285,9.900840180418585
50447.26031759511,193.38116455078125,1,True,1,1.5333333333333332,1.0,1.0,1,1.6320193035889787,1.0811796875,2.2884068597444065,9.90857064709067
50512.47770889946,193.63116455078125,0,False,1,0.7666666666666666,1.0,1.0,1,1.7173621728967954,1.14608203125,2.711944285065782,9.923620391762286
50577.695100203804,193.88116455078125,1,False,1,1.5333333333333332,1.0,1.0,1,1.6320193035889787,1.0788359374999998,2.2769907186199037,9.92452645035597
50708.1298828125,194.38116455078125,1,True,1,1.5333333333333332,1.3,1.0,1,1.6320193035889787,1.0811796875,2.2884068597444065,9.925176958734584
50773.34727411685,194.63116455078125,0,True,1,0.7666666666666666,1.0,1.0,1,1.7088916488000783,1.1453007812500002,2.698442715385041,9.945096770922174
50838.564665421196,194.88116455078125,1,True,1,1.5333333333333332,1.3,1.0,1,1.636260059855943,1.0835234374999998,2.3040093792317835,9.952416538875621
50968.99944802989,195.38116455078125,1,True,1,1.5333333333333332,1.0,1.0,1,1.6468550196111593,1.0835234374999996,2.31439056869488,9.95981790531731
51034.21683933424,195.63116455078125,0,False,1,0.7666666666666666,1.1,1.0,1.5750000000000002,1.70677007670226,1.1453007812500002,2.696131429273615,9.97288047438634
51099.43423063859,195.88116455078125,1,False,1,1.5333333333333332,1.0,1.0,1,1.6574363647813772,1.0835234374999996,2.324778576133357,9.974374539494677
51229.869013247284,196.38116455078125,1,True,1,1.5333333333333332,1.0,1.0,1,1.661666228529352,1.0811796874999995,2.317376943393561,9.974632725072686
51295.086404551635,196.63116455078125,0,True,1,0.7666666666666666,1.0,1.0,1,1.7046563868481923,1.1453007812500002,2.6938296171233205,9.986420824352214
51360.30379585598,196.88116455078125,1,False,1,1.5333333333333332,1.0,1.0,1,1.661666228529352,1.0811796874999995,2.317376943393561,9.985396711394513
51490.738578464676,197.38116455078125,1,True,1,1.5333333333333332,1.1,1.0,1.26,1.661666228529352,1.0841953124999997,2.3322573698275675,9.992085996365795
51555.95596976902,197.63116455078125,0,False,1,0.7666666666666666,1.0,1.0,1,1.696185863139775,1.1453007812500002,2.6846141289312566,10.001599714280271
51621.17336107337,197.88116455078125,1,False,1,1.5333333333333332,1.1,1.0,1.26,1.661666228529352,1.0859999999999999,2.3411918613437885,10.000085776725223
51751.60814368207,198.38116455078125,1,True,1,1.5333333333333332,1.0,1.0,1,1.6680312390044565,1.0859999999999999,2.347479295141994,9.998499426882722
51882.042926290764,198.88116455078125,1,False,1,1.5333333333333332,1.0,1.0,1,1.6743720535037978,1.0859999999999999,2.3537499337479146,9.996469664318235
52012.47770889946,199.38116455078125,1,True,1,1.5333333333333332,1.0,1.0,1,1.6743720535037976,1.0859999999999999,2.353749933747914,9.993257933426852
52142.912491508156,199.88116455078125,1,False,1,1.5333333333333332,1.0,1.0,1,1.6743720535037976,1.0859999999999999,2.353749933747914,10.000664396123065
52273.34727411685,200.38116455078125,1,True,1,1.5333333333333332,1.0,1.0,1,1.6743720535037976,1.0859999999999999,2.353749933747914,9.99698618356308
52403.78205672555,200.88116455078125,1,False,1,1.5333333333333332,1.0,1.0,1,1.6743720535037976,1.0847890624999998,2.3477286683703777,10.00370929592817
52534.21683933424,201.38116455078125,1,True,1,1.5333333333333332,1.0,1.0,1,1.6743720535037976,1.0835781249999998,2.341717322897168,10.009996084511128
52664.65162194294,201.88116455078125,1,True,1,1.5333333333333332,1.3,1.0,1,1.6743720535037974,1.0847109374999997,2.347340540377482,10.01633504695641
52795.086404551635,202.38116455078125,1,True,1,1.5333333333333332,1.3,1.0,1,1.674372053503797,1.0847109374999997,2.3473405403774814,10.01233185542239
52925.521187160324,202.88116455078125,1,True,1,1.5333333333333332,1.3,1.0,1,1.6743721827521652,1.0858437499999998,2.352972566399451,10.018356047430103
53055.95596976902,203.38116455078125,1,True,1,1.5333333333333332,1.3,1.0,1,1.6794623112495988,1.0881874999999999,2.36970855849379,10.015306306096257
53186.390752377716,203.88116455078125,1,False,1,1.5333333333333332,1.5,1.0,1.2,1.6911379691235424,1.0944375,2.4128154003577067,10.013515158052806
