TimeMS,Beat,Type,Forehand,numNotes,SwingSpeed,Angle Diff,AngleChangeDiff,Pos Diff,C Stamina,C Pattern Diff,C CombinedDiff,C SmoothedDiff
12375.0,33,1,True,1,0,1.0,0,1,0.9625118414091962,0,0.0,0.0
12750.0,34,0,True,1,0,1.0,0,1,0,0,0,0.0
13125.0,35,1,False,1,0.26666666666666666,1.0,1.0,2.0,0.008333333333333333,0.0625,0.0002463012036201425,0.00029942016320088656
13500.0,36,0,False,1,0.26666666666666666,1.0,1.0,2.4,0.008333333333333333,0.075,0.00042447117835019133,0.0006115767192614519
13875.0,37,1,True,1,0.26666666666666666,1.0,1.0,1.5,0.018633899812498248,0.109375,0.0013272940548620606,0.0014573896590255482
14250.0,38,1,False,1,0.5333333333333333,1.0,1.0,1.5,0.037267799624996496,0.15625,0.003921703394816332,0.0035982334293371506
14625.0,39,0,True,1,0.17777777777777778,1.0,1.0,1,0.016197088596792503,0.10625,0.001213319961325603,0.0037163397821396256
15000.0,40,1,True,1,0.26666666666666666,1.0,1.0,1,0.05335936864527374,0.1875,0.006853527870286867,0.006376149327239198
15375.0,41,1,False,1,0.5333333333333333,1.0,1.0,1.5,0.07168604389202189,0.234375,0.01346335508948137,0.011123338958805792
15750.0,42,0,False,1,0.17777777777777778,1.0,1.0,2.4,0.023895347964007295,0.18125,0.004368508156572596,0.011604199987627238
16124.998500000002,42.999996,1,True,1,0.26666720000106625,1.0,1.0,1.2,0.08858456098242608,0.271875,0.021135746681961963,0.017556733456853425
16500.0,44,0,True,1,0.26666666666666666,1.0,1.0,1.2,0.03390709893259362,0.21875,0.007505752333573567,0.018374795565494206
16875.0,45,1,False,1,0.2666661333344004,1.0,1.0,2.4,0.10034663256273917,0.346875,0.036234960917577226,0.027126649942487275
17250.0,46,1,True,1,0.5333333333333333,1.0,1.0,1,0.11843892002969293,0.378125,0.046930260957835555,0.03741436506896863
17625.0,47,1,False,1,0.5333333333333333,1.0,1.0,1.5,0.1419115530494806,0.42500000000000004,0.06358586046630538,0.05037991627241178
18000.0015,48.000004,1,True,1,0.5333312000085348,1.0,1.0,1.5,0.16541189329835587,0.47187500000000004,0.08271043085554526,0.06608398033852188
18375.0,49,0,False,1,0.10666666666666667,1.0,1.0,1.5,0.041707387509163245,0.265625,0.011214258496545946,0.06460247565607372
18750.0,50,1,False,1,0.26666720000106625,1.0,1.0,2.4,0.1827641862564049,0.546875,0.10538301103676573,0.08236521818912987
19125.0,51,0,True,1,0.26666666666666666,1.0,1.0,1.2,0.05023709219390356,0.30312500000000003,0.015435834515086271,0.08099307452004512
19500.0,52,1,True,1,0.26666666666666666,1.0,1.0,1.5,0.1945435548210963,0.59375,0.1215525593891691,0.09910852999865785
19875.0015,53.000004,0,False,1,0.2666661333344004,1.0,1.0,2.4,0.06195626404427927,0.378125,0.02373960749866256,0.09851185469146567
20250.0,54,1,False,1,0.26666666666666666,1.0,1.0,1.2,0.20632356937101656,0.63125,0.13702214924865846,0.11674857849230168
20625.0,55,0,True,1,0.26666720000106625,1.0,1.0,1,0.07369648055995975,0.409375,0.030654463851267272,0.11653328506505255
21000.0,56,0,False,1,0.5333333333333333,1.0,1.0,2.0,0.09189701697232748,0.47187500000000004,0.04417858434093858,0.1183910355661505
21375.0,57,1,True,1,0.17777777777777778,1.0,1.0,1,0.21609604417682213,0.6625,0.1505871218930671,0.13562304348526508
21750.0,58,0,True,1,0.26666666666666666,1.0,1.0,1.2,0.10897530584481574,0.509375,0.05676541442049652,0.1383692135970453
22125.0,59,1,False,1,0.26666666666666666,1.0,1.0,2.4,0.22595810855383552,0.7375,0.17429022297053895,0.15678651839617525
22500.0,60,0,False,1,0.26666666666666666,1.0,1.0,2.4,0.12074485905278558,0.5843749999999999,0.07205074109295838,0.16057160890938396
22875.0,61,1,True,1,0.26666666666666666,1.0,1.0,1.5,0.23773941220911488,0.7843749999999999,0.19485412416903294,0.1795392427692143
23250.0,62,1,False,1,0.5333333333333333,1.0,1.0,1.5,0.2556158642611961,0.83125,0.22229999722670704,0.20057887100643382
23624.9985,62.999996,1,True,1,0.5333354666751985,1.0,1.0,1.2,0.27916319013938196,0.8687499999999999,0.2547367780026694,0.22407713417963715
24000.0,64,1,False,1,0.5333312000085348,1.0,1.0,2.4,0.3027140351873837,0.94375,0.30002303225868165,0.2512679736942552
24375.0,65,0,True,2,0.10666666666666667,1.0,1.0,1.2,0.12887212534672624,0.6218749999999998,0.08184511726738007,0.25269891820879703
24750.0,66,1,True,1,0.26666666666666666,1.0,1.0,1.2,0.3202163877286042,0.9812499999999998,0.3305201049347341,0.28071973892903757
25125.0,67,0,False,1,0.26666666666666666,1.0,1.0,2.0,0.13722672057413607,0.684375,0.0957838885738347,0.28267985614903
25500.0,68,1,False,1,0.26666666666666666,1.0,1.0,2.4,0.3319995760366334,1.05625,0.3675893220295906,0.3120664784071657
25875.0,69,0,True,1,0.26666666666666666,1.0,1.0,1.2,0.14900182284087873,0.7218749999999999,0.10982809631366147,0.3144577375652403
26250.0,70,0,False,1,0.5333333333333333,1.0,1.0,1.5,0.16697933634274478,0.7687499999999999,0.13135858675878848,0.31878950146903146
26625.0,71,1,True,1,0.17777777777777778,1.0,1.0,1.2,0.3417907829679769,1.09375,0.39166151693236695,0.3472407848224497
27000.0,72,0,True,1,0.26666666666666666,1.0,1.0,1.2,0.1843348067720501,0.8062499999999998,0.15245484647595942,0.352459835829334
27375.0,73,0,False,1,0.5333333333333333,1.0,1.0,1.5,0.2022619008692639,0.8531249999999998,0.17733791763446852,0.359637678506982
27750.0,74,1,False,1,0.17777777777777778,1.0,1.0,2.4,0.3496470176852702,1.1687499999999997,0.4265449428299965,0.3881131958401728
28125.0,75,0,True,1,0.26666666666666666,1.0,1.0,1,0.219674984387102,0.8843749999999998,0.2001787905767455,0.39606526219815474
28500.0,76,1,True,1,0.26666666666666666,1.0,1.0,1.5,0.359494172802144,1.2156249999999997,0.45571898151236145,0.42483666818400534
28875.0,77,0,False,1,0.26666666666666666,1.0,1.0,2.4,0.23145607267965676,0.9593749999999999,0.2284240795329649,0.4339083559589546
29250.0,78,0,True,1,0.5333333333333333,1.0,1.0,1.2,0.24933739351031184,0.9968749999999998,0.25621511912970485,0.44478896864389106
29625.0,79,0,False,1,0.5333333333333333,1.0,1.0,1.5,0.27288355043647616,1.0437499999999997,0.2943956342683318,0.45816922203820415
30000.0,80,0,True,1,0.5333333333333333,1.0,1.0,1.2,0.296433533032666,1.0812499999999996,0.33234606946815404,0.4738754073155407
30375.0,81,1,False,1,0.10666666666666667,1.0,1.0,1.5,0.36770300999107497,1.2624999999999997,0.48351362477707166,0.5001917089940394
30750.0,82,0,False,1,0.26666666666666666,1.0,1.0,2.4,0.3139321504111797,1.1562499999999998,0.376125233723326,0.517622449361938
31125.0,83,1,True,1,0.26666666666666666,1.0,1.0,1,0.3759912117041299,1.29375,0.5065647497459324,0.5436973354984376
31500.0,84,0,True,1,0.26666666666666666,1.0,1.0,1.2,0.32571526230563225,1.1937499999999999,0.40303621385831795,0.5615084073531077
31875.0,85,1,False,1,0.26666666666666666,1.0,1.0,2.4,0.3877749213295042,1.36875,0.5516561252157205,0.5888740956796856
32250.0,86,0,False,1,0.26666666666666666,1.0,1.0,1.2,0.3374985139428674,1.2312499999999997,0.4308736356999783,0.6070689485263178
32625.0,87,1,True,1,0.26666666666666666,1.0,1.0,1.2,0.3995587137370981,1.4062499999999998,0.5841196144272093,0.6347637718952217
33000.0,88,1,False,1,0.5333333333333333,1.0,1.0,2.0,0.41735935342334907,1.4687499999999998,0.6372648736497556,0.6649305794363903
33375.0,89,0,True,1,0.17777777777777778,1.0,1.0,1.2,0.3472902155650601,1.2687499999999998,0.45683345636147876,0.6824944572594416
33750.0,90,1,True,1,0.26666666666666666,1.0,1.0,1,0.4349105203640564,1.4999999999999998,0.6792332147629421,0.7134370275522175
34125.0,91,0,False,1,0.26666666666666666,1.0,1.0,2.4,0.3571375396430478,1.34375,0.49656392270795474,0.7320392580363478
34500.0,92,1,False,1,0.26666666666666666,1.0,1.0,2.4,0.44669458016141916,1.5749999999999997,0.7312925155946585,0.7642890004753042
34875.0,93,0,True,1,0.26666666666666666,1.0,1.0,1.2,0.3689210996647485,1.3812499999999999,0.5274351745597768,0.7832933788547173
35250.0,94,0,False,1,0.5333333333333333,1.0,1.0,1.5,0.38673131643452924,1.4281249999999999,0.5721927528469052,0.8043174690285552
35625.0,95,0,True,1,0.5333333333333333,1.0,1.0,1,0.4102912244844706,1.4593749999999999,0.6219823183606171,0.8275563903941521
36000.0,96,0,False,1,0.5333333333333333,1.0,1.0,2.4,0.4338522533972361,1.5343749999999998,0.6917915896422078,0.8540471331602612
36375.0,97,1,True,1,0.10666666666666667,1.0,1.0,1,0.448000396779109,1.5575757575757574,0.726085038180694,0.8816469024077186
36656.25,97.75,1,False,1,0.7111111111111111,1.0,1.0,1,0.45175004376890343,1.5411764705882351,0.7255199955968707,0.908379092127932
36750.0,98,0,True,1,0.26666666666666666,1.0,1.0,1,0.4444428173754434,1.5181818181818183,0.7030637895115698,0.9330909510565999
36937.5,98.5,1,True,1,0.7111111111111111,1.0,1.0,1,0.4678038210141318,1.5257142857142856,0.7465311369107626,0.9594072467221428
37218.75,99.25,1,False,1,0.7111111111111111,1.0,1.0,1,0.4829538770808201,1.511111111111111,0.7661635526324613,0.9859984239645844
37312.5,99.5,0,False,1,0.35555555555555557,1.0,1.0,1,0.4442807137383534,1.502941176470588,0.6962911486731133,1.008189501039531
37500.0,100,1,True,1,0.7111111111111111,1.0,1.0,1,0.4972743133113627,1.4972972972972973,0.7845565629594745,1.0342893360264838
37781.25,100.75,1,False,1,0.7111111111111111,1.0,1.0,1,0.5108313711790671,1.4842105263157894,0.801831091785665,1.0605391784669815
37875.0,101,0,True,1,0.35555555555555557,1.0,1.0,1,0.44597848796823686,1.4885714285714284,0.6930255602860288,1.0806340420272031
38062.5,101.5,1,True,1,0.7111111111111111,1.0,1.0,1,0.5236844410848377,1.4717948717948717,0.8180925760100352,1.1063495769283032
38343.75,102.25,1,False,1,0.7111111111111111,1.0,1.0,1,0.5358869214469367,1.46,0.8334333502753203,1.132125334948647
38437.5,102.5,0,False,1,0.35555555555555557,1.0,1.0,1,0.4475805624693894,1.4749999999999999,0.6899063992953903,1.1503353784128791
38625.0,103,1,True,1,0.7111111111111111,1.0,1.0,1,0.5474869528288582,1.448780487804878,0.8479346117049897,1.175557224522947
38906.25,103.75,1,False,1,0.7111111111111111,1.0,1.0,1,0.5585280474707238,1.438095238095238,0.8616680466684057,1.2007744827495719
39000.0,104,0,True,1,0.35555555555555557,1.0,1.0,1,0.4490948080385053,1.462162162162162,0.6869248742947078,1.217286388240752
39187.5,104.5,0,False,1,1.0666666666666667,1.0,1.0,1,0.46396927798552845,1.45,0.7063568448681864,1.2342713510531709
39281.253,104.750008,1,True,1,0.5333290667008029,1.0,1.0,1,0.5661072626912713,1.427906976744186,0.8695591403526849,1.2581850650508632
39375.0,105,0,True,1,1.0666666666666667,1.0,1.0,1,0.4910832086674922,1.4384615384615385,0.746435866385162,1.2760395350466662
39656.25,105.75,0,False,1,0.7111111111111111,1.0,1.0,1,0.5104285798415987,1.4275,0.7738160543619406,1.2946668557118628
39750.0,106,1,False,1,0.42666939735080767,1.0,1.0,1,0.5687151635908556,1.4181818181818182,0.8689767840737174,1.316982230423827
39937.5,106.5,0,True,1,0.7111111111111111,1.0,1.0,1,0.5226568359251281,1.4170731707317075,0.7894136837703472,1.3353588124742581
40218.75,107.25,0,False,1,0.7111111111111111,1.0,1.0,1,0.5342959438865444,1.4071428571428573,0.8042038204047381,1.3539352371317213
40312.5,107.5,1,True,1,0.35555555555555557,1.0,1.0,1,0.5683777285654699,1.4088888888888889,0.8634892667501641,1.3745698361973082
40500.0,108,0,True,1,0.7111111111111111,1.0,1.0,1,0.5453874499824637,1.3976744186046515,0.8182522725794938,1.3928607021279917
40781.25,108.75,0,False,1,0.7111111111111111,1.0,1.0,1,0.5559690890393114,1.3886363636363637,0.8316176227159233,1.4112882163742493
40875.0,109,1,False,1,0.35555555555555557,1.0,1.0,1,0.5669367710036463,1.4000000000000001,0.8563217822568578,1.4303072977466549
41062.5,109.5,0,True,1,0.7111111111111111,1.0,1.0,1,0.566075210657712,1.3800000000000001,0.8443522024072944,1.4484286733997618
41343.75,110.25,0,False,1,0.7111111111111111,1.0,1.0,1,0.5757371497207734,1.3717391304347826,0.856502914570581,1.466637776182796
41437.5,110.5,1,True,1,0.35555555555555557,1.0,1.0,1,0.5655578143919436,1.3914893617021278,0.8494855879311562,1.4841801005161521
41625.0,111,0,True,1,0.7111111111111111,1.0,1.0,1,0.5849835494547743,1.3638297872340428,0.8681119295960622,1.50207184633233
41906.25,111.75,0,False,1,0.7111111111111111,1.0,1.0,1,0.5938406439408365,1.3562500000000002,0.8792172772131238,1.5200132522656347
42000.0,112,1,False,1,0.35555555555555557,1.0,1.0,1,0.5642369408634881,1.3833333333333335,0.8429583642770847,1.5362034179141022
42187.5,112.5,1,True,1,1.0666666666666667,1.0,1.0,1,0.5733131650690677,1.3755102040816327,0.8543551771169797,1.552488262378345
42281.25,112.75,0,True,1,0.5333333333333333,1.0,1.0,1,0.5997548007477794,1.3489795918367349,0.8854159953268096,1.5695966692413912
42375.0,113,1,False,1,1.0666666666666667,1.0,1.0,1,0.592202509198194,1.368,0.8827846250156236,1.5862625162938215
42656.25,113.75,1,True,1,0.7111111111111111,1.0,1.0,1,0.6053628433457683,1.3607843137254902,0.9016042024203944,1.6032813963931547
42750.0,114,0,False,1,0.4266666666666667,1.0,1.0,1,0.6013659372731903,1.3420000000000005,0.8843566084199984,1.6193404771309232
42937.5,114.5,1,False,1,0.7111111111111111,1.0,1.0,1,0.613136262450058,1.353846153846154,0.9112524048513893,1.6360463304972181
43218.75,115.25,1,True,1,0.7111111111111111,1.0,1.0,1,0.6206135478591112,1.3471698113207549,0.9205244410518705,1.6527561004585671
43312.5,115.5,0,True,1,0.35555555555555557,1.0,1.0,1,0.6004210128909631,1.3352941176470592,0.8790614288393068,1.6676905324827824
43500.0,116,1,False,1,0.7111111111111111,1.0,1.0,1,0.6278113024352082,1.3407407407407408,0.9294433620329549,1.6840904316147
43781.25,116.75,1,True,1,0.7111111111111111,1.0,1.0,1,0.6347449111023376,1.3345454545454547,0.9380302888292196,1.700476337574563
43875.0,117,0,False,1,0.35555555555555557,1.0,1.0,1,0.5985256685940459,1.3288461538461542,0.8723016413607139,1.7143156623266
44062.5,117.5,1,False,1,0.7111111111111111,1.0,1.0,1,0.64142865045051,1.3285714285714287,0.9463046150008145,1.730397674072724
44343.75,118.25,1,True,1,0.7111111111111111,1.0,1.0,1,0.647875786724272,1.32280701754386,0.9542841839746017,1.7464515891633903
44437.5,118.5,0,True,1,0.35555555555555557,1.0,1.0,1,0.5967025507991529,1.3226415094339627,0.8658222886774958,1.7592807009601488
44625.0,119,1,False,1,0.7111111111111111,1.0,1.0,1,0.6540986636046022,1.3172413793103452,0.9619854447898648,1.7750381803852704
44906.25,119.75,1,True,1,0.7111111111111111,1.0,1.0,1,0.6601087810017578,1.3118644067796614,0.9694235892523171,1.7907564808282876
45000.0,120,0,False,1,0.35555555555555557,1.0,1.0,1,0.5949476077192958,1.3166666666666673,0.8596063954123984,1.8026523042197986
45187.5,120.5,0,True,1,1.0666666666666667,1.0,1.0,1,0.6024562493100377,1.3109090909090917,0.8691746733269661,1.8146455299163218
45281.25,120.75,1,False,1,0.5333333333333333,1.0,1.0,1,0.663816049249247,1.306666666666667,0.9728992565134718,1.829719599991003
45375.0,121,0,False,1,1.0666666666666667,1.0,1.0,1,0.6187795396222967,1.3053571428571435,0.8938838319058607,1.8420495546028106
45656.25,121.75,0,True,1,0.7111111111111111,1.0,1.0,1,0.6300761563388698,1.3000000000000007,0.9102356681533753,1.854678442869072
45750.0,122,1,True,1,0.4266666666666667,1.0,1.0,1,0.6640742761450008,1.3016393442622953,0.9703803684441191,1.868952161181331
45937.5,122.5,0,False,1,0.7111111111111111,1.0,1.0,1,0.6366085721053764,1.2948275862068972,0.9185379207025249,1.881397166522682
46218.75,123.25,0,True,1,0.7111111111111111,1.0,1.0,1,0.6429176492916803,1.2898305084745771,0.9265614077106671,1.8938786022509997
46312.5,123.5,1,False,1,0.35555555555555557,1.0,1.0,1,0.6622775989119991,1.2967741935483874,0.9643441667515187,1.907292524349279
46500.0,124,0,False,1,0.7111111111111111,1.0,1.0,1,0.6490146478319113,1.2850000000000008,0.9343207776604135,1.9195890436261505
46781.25,124.75,0,True,1,0.7111111111111111,1.0,1.0,1,0.6549100834184243,1.2803278688524597,0.9418296199167565,1.9319082597254216
46875.0,125,1,True,2,0.35555555555555557,1.0,1.0,1,0.6597260775597436,1.2920634920634924,0.957095561204128,1.944477769822083
47250.0,126,0,False,1,0.4266666666666667,1.0,1.0,1,0.6573639037659048,1.2758064516129037,0.9434510481794682,1.9564480754451905
47375.004,126.333344,1,False,1,0.3999968000256008,1.0,1.0,1,0.6577452231059616,1.2875000000000003,0.950956076085536,1.968445605080419
47500.002,126.666672,0,True,1,0.799993600051193,1.0,1.0,1,0.6607011105773881,1.271428571428572,0.9466849977446844,1.980131546668564
47625.003,127.000008,1,True,1,0.8000032000128033,1.0,1.0,1,0.6606788754042546,1.2830769230769234,0.9534818479992011,1.9918285525512558
47750.004,127.333344,0,False,1,0.7999936000512101,1.0,1.0,1,0.6681134135673675,1.2671875000000008,0.9570919236385301,2.0190981950943003
47875.004625,127.666679,1,False,1,0.7999948000337902,1.0,1.0,1,0.6678652855460424,1.278787878787879,0.9635198010479643,2.046550981925722
48000.005625,128.000015,0,True,1,0.7999948000338073,1.3,1.0,1.2,0.6752958937810576,1.2716923076923086,0.9723383578367201,2.0742480110705728
48125.004,128.333344,1,True,1,0.8000020000049893,1.0,1.0,1,0.6748355525681592,1.2746268656716422,0.9732796121746083,2.101966782158177
48250.002,128.666672,0,False,1,0.8000116001681845,1.3,1.0,2.4,0.6822592567265973,1.2996969696969707,1.0014789501598278,2.1304632906723553
48375.0,129,1,False,2,0.8000128002048165,1.0,1.0,1,0.6815994827849394,1.270588235294118,0.9827738805238385,2.1583529304378986
48750.0,130,0,True,2,0.40000160000640167,1.0,1.0,1.5,0.6847842925213901,1.3026865671641799,1.0078019125689388,2.1870328413538354
49125.0,131,1,True,2,0.26666666666666666,1.0,1.0,1,0.6826963854231453,1.266666666666667,0.9823521329589159,2.214826930516009
49250.004,131.333344,0,False,1,0.3999968000255965,1.0,1.0,1,0.6830196296025878,1.2982352941176476,1.0019529429931413,2.242991161196358
49375.002,131.666672,1,False,1,0.799993600051193,1.0,1.0,1,0.6836906070224448,1.2628571428571433,0.9818142311198547,2.270840728006101
49500.0,132,0,True,1,0.8000128002048165,1.0,1.0,1,0.6854129909726085,1.2939130434782615,1.0036098562560787,2.2988335645499824
49625.004,132.333344,1,True,1,0.799993600051193,1.0,1.0,1,0.6900408167447987,1.2591549295774653,0.9907860340403587,2.326849370701425
49750.002,132.666672,0,False,1,0.799993600051193,1.0,1.0,1,0.6918299936991655,1.2897142857142865,1.0125308779386453,2.3546661770246735
49875.0,133,1,False,1,0.8000128002048165,1.0,1.0,1,0.696213586454914,1.255555555555556,0.999529264938796,2.3818078064584123
49999.986750000004,133.333298,0,True,1,0.8000488029769721,1.0,1.0,1,0.6980653114632528,1.2856338028169023,1.0212171715294076,2.4090928173290926
50125.002,133.666672,1,True,1,0.799993600051193,1.0,1.0,1,0.7022160720366357,1.2520547945205482,1.008052785614652,2.4354578452025804
50250.0,134,0,False,1,0.799957602247097,1.0,1.0,1,0.7041258605223959,1.2816666666666674,1.029677284345328,2.464476084696881
50375.009625,134.333359,1,False,1,0.7999756007441821,1.0,1.0,1,0.7080548644541862,1.2486486486486492,1.0163646378718698,2.4904319440177223
50500.007625,134.666687,0,True,1,0.7999756007441821,1.6,1.0,1,0.7100185025064039,1.2860273972602747,1.043024850771524,2.5197102029418406
50625.0,135,1,True,2,0.8000308011858475,1.3,1.0,1.44,0.7137372591961675,1.2569600000000005,1.0316822892193864,2.5456417898534873
50750.004,135.333344,0,True,1,0.8000116001681845,1.6,1.0,1,0.7157513163874623,1.290270270270271,1.0560903560054953,2.575055720945709
50875.002,135.666672,1,False,1,0.799993600051193,1.0,1.0,1,0.7192692948350183,1.2535789473684216,1.0395391108291265,2.6007704034369894
51000.0,136,0,True,1,0.8000128002048165,1.0,1.0,1,0.721330579822549,1.2864000000000009,1.0638446832550033,2.6302082528914075
51125.004,136.333344,1,True,1,0.799993600051193,1.0,1.0,1,0.724656353955532,1.2502857142857147,1.0472077140625997,2.658786746923399
51249.996,136.666656,0,False,1,0.8000128002048165,1.0,1.0,1,0.7267620558223152,1.282631578947369,1.0714077112301945,2.6850229398086527
51375.0,137,1,False,1,0.8000128002048165,1.0,1.0,1,0.7299045633705195,1.2470769230769234,1.0546960622388852,2.7134561669382906
51500.004,137.333344,0,True,1,0.7999744008191475,1.0,1.0,1,0.7320511747381703,1.2789610389610395,1.0787862050089214,2.7392272360515246
51625.002,137.666672,1,True,1,0.799993600051193,1.0,1.0,1,0.7350190578164643,1.243949367088608,1.0620104774194967,2.767433354476391
51750.0,138,0,False,1,0.8000128002048165,1.0,1.0,1,0.7372037942299169,1.2753846153846162,1.0859878560315879,2.7928237038521946
51875.004,138.333344,1,False,1,0.799993600051193,1.0,1.0,1,0.7400047107437122,1.2409000000000006,1.0691569473422318,2.8169525108605638
52000.002,138.666672,0,True,1,0.799993600051193,1.0,1.0,1,0.742225307257637,1.2718987341772159,1.0930196454431438,2.840837023497716
52125.0,139,1,True,2,0.8000128002048165,1.0,1.0,1,0.7448666608972352,1.2379259259259265,1.0761420812479026,2.8629503529638383
52250.004,139.333344,0,False,1,0.799993600051193,1.0,1.0,1,0.7471203175522751,1.2685000000000008,1.0998872323099893,2.891956599788529
52375.002,139.666672,1,False,1,0.799993600051193,1.0,1.0,1,0.7496092965926737,1.235024390243903,1.0829712529250806,2.913395578981661
52500.0,140,0,True,1,0.8000128002048165,1.3,1.0,1.44,0.7518938767375576,1.2759506172839514,1.1135633047226141,2.9423943409402122
52624.935,140.33316,1,True,1,0.800214457474619,1.6,1.0,1,0.7542386777112576,1.2394216867469887,1.0943070383144167,2.963100118372171
52749.93337500001,140.666489,0,False,1,0.8002132568329307,1.3,1.0,3.0,0.756552190228531,1.3079512195121958,1.1431470070587733,2.9925416345244162
52875.0,141,1,False,1,0.7997920540659337,1.0,1.0,1,0.7587554814307479,1.2365714285714293,1.1008019657014512,3.020163197047884
53000.004,141.333344,0,True,1,0.799774063826971,1.3,1.0,1,0.7610955416391668,1.307855421686748,1.1516842377814573,3.0418179069145768
53125.002,141.666672,1,True,1,0.799993600051193,1.0,1.0,1,0.7631635107525762,1.2337882352941183,1.1071532535294817,3.069019352934297
53250.0,142,0,False,1,0.8000128002048165,1.0,1.0,1.5,0.765528350874644,1.3101428571428582,1.1616140318501162,3.0970635325323004
53375.004,142.333344,1,False,1,0.799993600051193,1.0,1.0,1.2,0.767470096540656,1.2333953488372098,1.114887205947893,3.1166759093572303
53499.996,142.666656,0,True,1,0.8000128002048165,1.0,1.0,1.2,0.7698582416520305,1.3088470588235304,1.1690094820398165,3.1442800150741506
53625.0,143,1,True,2,0.8000128002048165,1.0,1.0,1,0.7716772609473561,1.2307126436781615,1.1209629976488735,3.1632342723151647
54375.0,145,1,False,1,0.26666666666666666,1.0,1.0,2.4,0.771503445350738,1.2440000000000007,1.1293381081887044,3.1889032837410043
54500.004,145.333344,0,False,1,0.19999840001279826,1.0,1.0,1.2,0.7691558605946833,1.3075813953488382,1.1668299351134386,3.214848691818291
54625.002,145.666672,1,True,1,0.799993600051193,1.0,1.0,1.5,0.7712836118827636,1.2468764044943828,1.1308130895578978,3.238680054782674
54750.0,146,0,True,1,0.8000128002048165,1.0,1.0,1,0.7684077224637378,1.3040459770114952,1.163062278530801,3.262348976770576
54875.004,146.333344,1,False,1,0.799993600051193,1.0,1.0,1,0.7753069831578013,1.244133333333334,1.1365505004716587,3.28095542587728
54999.990375,146.666641,0,False,1,0.8000308011858475,1.0,1.0,1,0.7725563862088196,1.30059090909091,1.1686763795405175,3.303536941727244
55125.0,147,1,True,2,0.8000128002048165,1.6,1.0,1,0.7792415865548248,1.2480439560439567,1.1465266072060531,3.3217708549628457
55250.004,147.333344,0,True,1,0.7999564023760555,1.0,1.0,1,0.7766108430805996,1.2972134831460684,1.1741696483647424,3.3437421333663218
55374.98475,147.666626,1,True,1,0.8000488029769721,1.6,1.0,1,0.7830906108185377,1.251869565217392,1.1563277055198764,3.360970549408269
55500.0,148,0,False,1,0.8000128002048165,1.3,1.0,2.4,0.780574548843475,1.3174666666666677,1.1953283042686729,3.382751535160379
55625.009625,148.333359,1,True,1,0.7999204079194198,1.0,1.0,1,0.7868557074465456,1.2491612903225813,1.1616575046039326,3.3992068530156483
55750.002,148.666672,0,True,1,0.799993600051193,1.0,1.0,1,0.7844509481052871,1.313978021978023,1.2004666724597566,3.4152537042676805
55875.0,149,1,False,1,0.8000308011858475,1.0,1.0,1,0.7905401226828821,1.246510638297873,1.1668817970938432,3.435484534725891
56000.004,149.333344,0,False,1,0.799993600051193,1.0,1.0,1,0.7882424653240732,1.3105652173913054,1.2054975708116613,3.4504789574329977
56125.002,149.666672,1,True,1,0.799993600051193,1.0,1.0,1,0.7941471090544941,1.2439157894736848,1.1720051238219662,3.469723754780363
56250.0,150,0,True,1,0.8000128002048165,1.0,1.0,1,0.7919521470304224,1.3072258064516138,1.2104250897905946,3.4833752899217116
56375.004,150.333344,1,False,1,0.799993600051193,1.0,1.0,1,0.7976782773793787,1.2413750000000006,1.1770289734642956,3.5018836382389367
56500.002,150.666672,0,True,1,0.799993600051193,1.6,1.0,1,0.7955824751548802,1.3103404255319158,1.2195901801329385,3.520329407124188
56625.0,151,1,True,2,0.8000128002048165,1.3,1.0,1.44,0.8011363984350861,1.2478762886597945,1.1880112027035825,3.536456808227303
56750.004,151.333344,0,True,1,0.799993600051193,1.0,1.0,1,0.7991358239126257,1.3070736842105273,1.2242853883274527,3.5516287213820306
56875.002,151.666672,1,False,1,0.799993600051193,1.3,1.0,3.0,0.8045235819056431,1.2749387755102046,1.2128648819026413,3.5654981439605766
57000.0,152,0,False,1,0.8000128002048165,1.0,1.0,1,0.8026148958887929,1.3038750000000008,1.228887199394579,3.5798401767125316
57125.004,152.333344,1,True,1,0.799993600051193,1.0,1.0,1,0.807841849284954,1.2721616161616167,1.217405506591624,3.5944948973546484
57249.996,152.666656,0,True,1,0.8000128002048165,1.0,1.0,1,0.806022001132447,1.300742268041238,1.2333985361989377,3.6083668145828045
57375.0,153,1,False,1,0.8000128002048165,1.0,1.0,1,0.8110935513977897,1.2694400000000006,1.2218608591808664,3.621350627684227
57500.009625,153.333359,0,False,1,0.7999564023760555,1.0,1.0,1,0.8093588066212964,1.2976734693877559,1.2378211212979777,3.6367800012011244
57625.002,153.666672,1,True,1,0.799993600051193,1.0,1.0,1,0.8142805414600093,1.2667722772277235,1.2262331762469834,3.649364334081277
57750.0,154,0,True,1,0.8000308011858475,1.0,1.0,1,0.8126279834696897,1.2946666666666675,1.2421586961920734,3.6619102307474503
57875.004,154.333344,1,True,1,0.799993600051193,1.6,1.0,1,0.8174045972140235,1.2700392156862752,1.2345650749059507,3.677339876136661
58000.002,154.666672,0,False,1,0.799993600051193,1.0,1.0,1,0.8158317125311161,1.2917200000000009,1.2464141006752005,3.689543693327707
58125.0,155,1,True,2,0.8000128002048165,1.6,1.0,1,0.8204678256046095,1.2732427184466026,1.2427621774838291,3.7012063670216864
58250.004,155.333344,0,True,1,0.799993600051193,1.0,1.0,1,0.8189714208271983,1.2888316831683178,1.2505887465149885,3.717181433586607
58375.002,155.666672,1,True,1,0.799993600051193,1.6,1.0,1,0.8234718598105855,1.2763846153846161,1.250827351167713,3.7286607290617684
58500.0,156,0,False,1,0.8000128002048165,1.3,1.0,2.4,0.8220493939698482,1.306784313725491,1.269115000216432,3.7402697840585617
58625.004,156.333344,1,True,1,0.799993600051193,1.0,1.0,1,0.8264182681347699,1.2737523809523814,1.2547991332255122,3.7564497639204424
58749.93337500001,156.666489,0,True,1,0.8002132568329307,1.0,1.0,1,0.8250688183593922,1.3038058252427194,1.2730274959583363,3.772595450362049
58875.0,157,1,False,1,0.8000128002048165,1.0,1.0,1,0.829308946657778,1.2711698113207552,1.2587003069901175,3.783682933445851
59000.004,157.333344,0,False,1,0.799774063826971,1.0,1.0,1,0.8280282765418925,1.3008846153846163,1.276864603332891,3.798796008474353
59124.996,157.666656,1,True,1,0.8000128002048165,1.0,1.0,1,0.8321454660500962,1.268635514018692,1.2625328299082086,3.812720618477614
59250.0,158,0,True,1,0.8000128002048165,1.0,1.0,1,0.8309297217971869,1.2980190476190485,1.2806289439916856,3.824449489002777
59375.009625,158.333359,1,False,1,0.7999564023760555,1.0,1.0,1,0.8349288412377285,1.2661481481481485,1.2662976017581693,3.838036955009821
59500.002,158.666672,0,False,1,0.799993600051193,1.0,1.0,1,0.8337776380551751,1.295207547169812,1.2843282262951572,3.8517167496057767
59562.504,158.833344,1,True,1,1.0666986676266752,1.0,1.0,1,0.8393955258158816,1.263706422018349,1.2734321128514503,3.863396918041179
59625.005625,159.000015,0,True,2,1.5999536013456326,1.0,1.0,1,0.8418837397019843,1.2924485981308416,1.2985743833275383,3.8770823456810075
60375.01725,161.000046,1,True,1,0.24614983201812554,1.0,3.25,1,0.8402293925064381,1.2817636363636369,1.2877467212279723,3.890078461480019
60500.01525,161.333374,1,False,1,1.600025600409633,1.0,1.0,1,0.8444216758898474,1.2792252252252256,1.2943265984601022,3.9025581768291846
60625.013249999996,161.666702,1,True,1,1.600025600409633,1.0,1.0,1,0.8571418797592227,1.2767321428571434,1.3180872339110137,3.916055924172107
60750.0,162,1,False,1,1.6001696179794413,1.0,1.0,1,0.8696368971354878,1.2742831858407084,1.3416290559103252,3.9298782291523104
60874.992375,162.333313,1,True,1,1.6000976059539442,1.0,1.0,1,0.8819122216967842,1.2718771929824566,1.3649541987185385,3.9445650574612285
60999.990375,162.666641,1,False,1,1.600025600409633,1.0,1.0,1,0.8939722760778536,1.2695130434782613,1.3880628387252278,3.9593795962549323
61125.005625,163.000015,1,True,2,1.599804823811533,1.0,1.0,1,0.905821736048176,1.2671896551724142,1.4109558781123317,3.9745299921727395
61875.0,165,0,False,2,0.08888911111166653,1.0,1.0,1,0.8451880612195534,1.2897407407407413,1.3032827411379821,3.987645640629082
62624.994375,166.999985,1,True,2,0.26666866668166556,1.6,1.0,1,0.9048640063746032,1.267745762711865,1.4093698253681348,4.0034592220523
62750.004,167.333344,0,True,1,0.22857038367824498,1.0,1.0,1,0.8394595770864529,1.28708256880734,1.2899502868524189,4.014985288936628
62875.144875000005,167.667053,1,False,1,0.7995186897487707,1.0,1.0,1,0.9035743447792254,1.2654957983193282,1.4050294041647076,4.029865185105039
63000.0,168,0,False,1,0.8000128002048165,1.0,1.0,1,0.8384162110348008,1.2844727272727279,1.2860364376154527,4.04081850043126
63125.009625,168.333359,1,True,1,0.800433034271551,1.0,1.0,1,0.9054803423519131,1.2632833333333338,1.4073679802073518,4.055720238500857
63250.13925,168.667038,0,True,1,0.7995546480610409,1.0,1.0,1,0.8410647022958628,1.2819099099099105,1.28951508333798,4.06649776966055
63375.0,169,1,False,1,0.8000308011858475,1.0,1.0,1,0.9073577334128501,1.2611074380165292,1.4096759583738963,4.080434766407999
63500.004,169.333344,0,False,1,0.8004330342715168,1.0,1.0,1,0.8436683253006104,1.2793928571428577,1.2929398964044783,4.092227069308079
63625.13925,169.667038,1,True,1,0.7995546480610409,1.0,1.0,1,0.9091991089645967,1.2589672131147545,1.4119371734865027,4.105974373451604
63750.0,170,0,True,1,0.8000128002048165,1.0,1.0,1,0.8462285639240271,1.2769203539823013,1.2963128893264604,4.116182628482958
63875.004,170.333344,1,False,1,0.8004330342715168,1.3,1.0,2.25,0.9110127177164983,1.2725121951219514,1.4257367830475165,4.131951206308988
64000.12762500001,170.667007,0,False,1,0.7995918083818063,1.0,1.0,1,0.8487384457375557,1.2744912280701757,1.2996191819658343,4.142017911197436
64125.0,171,1,True,2,0.8000128002048165,1.3,1.0,1.44,0.9127996014968524,1.2773467741935485,1.4330715059055281,4.155659609346515
64250.004,171.333344,0,True,1,0.8003957957209856,1.0,1.0,1,0.8512068283798183,1.2721043478260872,1.3028755726152719,4.168112213459961
64375.121999999996,171.666992,1,False,1,0.7996097904222819,1.3,1.0,3.0,0.9145531032145766,1.298328,1.4524021760171608,4.182085258919226
64499.994375,171.999985,0,False,1,0.8000308011858475,1.0,1.0,1,0.853635175620493,1.2697586206896554,1.306084126805811,4.191677454079052
64625.004,172.333344,1,True,1,0.8003777783113418,1.0,1.0,1,0.9162806959501927,1.2959603174603174,1.454285972365338,4.208621176088015
64750.116375,172.666977,0,True,1,0.7996097904222819,1.0,1.0,1,0.8560170632814493,1.2674529914529917,1.3092310985469073,4.221159346265962
64875.0,173,1,False,1,0.8000128002048165,1.0,1.0,1,0.9179832461306395,1.2936299212598426,1.4561458751439087,4.234928099532721
65000.004,173.333344,0,False,1,0.8003597617128801,1.0,1.0,1,0.8583603660148629,1.2651864406779663,1.3123314542090536,4.246850587646312
65125.10475,173.666946,1,True,1,0.7996649403899816,1.0,1.0,1,0.9196551349947822,1.2913359375,1.4579693072730602,4.262456717192167
65250.0,174,0,True,1,0.8000128002048165,1.0,1.0,1.2,0.8606665418978606,1.2646386554621851,1.316582914708422,4.2723207850533065
65375.10675,174.333618,1,False,1,0.799993600051193,1.0,1.0,2.4,0.9249131031865612,1.3100859375,1.4832646077379912,4.288411083706575
65500.10475,174.666946,0,False,1,0.7996649403899816,1.0,1.0,1,0.8629300079695369,1.2624333333333335,1.3195737993161076,4.29960886645802
65625.0,175,1,True,2,0.8003417459255118,1.0,1.0,1,0.9322747546084155,1.3022734375,1.4931108050458044,4.314674584660046
66375.0,177,1,False,1,0.26666666666666666,1.0,1.0,1.2,0.9352182592028692,1.2999296875,1.497649300291361,4.330725046550944
66499.992375,177.333313,0,True,1,0.20002247752591137,1.0,1.0,1.7999999999999998,0.8616522765503151,1.2668760330578512,1.3201625128550707,4.34150457827396
66624.996,177.666656,1,True,1,0.8000128002048165,1.0,1.0,1,0.9366926275591011,1.2960234375,1.4978502493006465,4.35691186223871
66750.0,178,0,True,1,0.7999756007441821,1.0,1.0,1,0.8603632175263438,1.264688524590164,1.3160075755908323,4.367526812672064
66875.004,178.333344,1,False,1,0.7999744008191475,1.0,1.0,1,0.9411154271323878,1.2960234375,1.5073646336805666,4.383380109621666
67000.00200000001,178.666672,0,False,1,0.799993600051193,1.0,1.0,1,0.8625754014603538,1.2625365853658537,1.3189324962445796,4.3939862551453315
67125.0,179,1,True,2,0.8000128002048165,1.3,1.0,1.2,0.9455313100842371,1.2964921875,1.5172526585150756,4.4100493187855765
67250.004,179.333344,0,True,1,0.799993600051193,1.0,1.0,1,0.8647518628023912,1.2604193548387097,1.3218129613218919,4.4204410189764465
67375.07625,179.66687,1,False,1,0.7997560743973223,1.3,1.0,2.4,0.9499528647971972,1.3114921874999999,1.538343650898182,4.436819007885851
67500.07425,180.000198,0,False,1,0.7997752631510537,1.0,1.0,1,0.8668921232353167,1.2583360000000001,1.3246473152041232,4.446857060757092
67625.004,180.333344,1,True,1,0.8002312668360889,1.3,1.0,1,0.9558453313458694,1.3028984375,1.544565799003535,4.463134253908382
67750.00200000001,180.666672,0,True,1,0.8002312668361231,1.0,1.0,1,0.8689996034157139,1.2562857142857142,1.3274417960343652,4.472421648431072
67875.0,181,1,False,1,0.8000128002048165,1.3,1.0,1.7999999999999998,0.9602626853149456,1.3133671874999997,1.5623204736837057,4.488934198628369
68000.06662499999,181.333511,0,False,1,0.7997932534440066,1.0,1.0,1,0.8710738772175216,1.254267716535433,1.3301948982495182,4.498119880025065
68125.00200000001,181.666672,1,True,1,0.799993600051193,1.0,1.0,1,0.9632089953076725,1.3094609374999997,1.5657582219962436,4.51474239570256
68250.068625,182.000183,0,True,1,0.799993600051193,1.0,1.0,1,0.8731142845036519,1.25228125,1.3329046520787906,4.524171933851274
68375.004,182.333344,1,False,1,0.799993600051193,1.0,1.0,1,0.9661552112204767,1.3055546875,1.5692005310893125,4.540907854444936
68500.007625,182.666687,0,False,1,0.8001952476404203,1.0,1.0,1,0.8785580518083049,1.26009375,1.3495808477764342,4.550765324804894
68625.0,183,1,True,2,0.8000128002048165,1.0,1.0,1,0.9705780218182858,1.2946171874999999,1.570434637379172,4.567280781495337
68750.055375,183.333481,0,True,1,0.7998472291792147,1.0,1.0,1,0.885917757483029,1.2491562499999997,1.356710550510454,4.577087213259942
68875.00200000001,183.666672,1,False,1,0.799993600051193,1.0,1.0,1,0.9764705834404723,1.2907109374999999,1.5803836342590432,4.593637024860809
69000.0,184,0,False,1,0.8001772392585031,1.0,1.0,1,0.8923032235602447,1.2491562499999995,1.3697933863531773,4.603568723731608
69125.004,184.333344,1,True,1,0.799993600051193,1.6,1.0,1,0.9823630425793084,1.2938359375,1.595863375772643,4.620316733280874
69250.00200000001,184.666672,0,True,1,0.799993600051193,1.0,1.0,1,0.8991787620521865,1.2382187499999995,1.3759809506195626,4.630183682272297
69375.0,185,1,False,1,0.8000128002048165,1.0,1.0,1,0.9887482378079966,1.2938359375,1.6100618285324182,4.647099413946821
69500.004,185.333344,0,False,1,0.799993600051193,1.0,1.0,1,0.9055605171597405,1.2366562499999996,1.3880085078407296,4.656928752988472
69625.04775,185.666794,1,True,1,0.7998472291792147,1.0,1.0,1,0.995129451398469,1.2828984374999999,1.61570261703896,4.67356876967252
69750.0,186,0,True,1,0.8000128002048165,1.0,1.0,1,0.9123402398588564,1.2327499999999996,1.3991972100576116,4.683344634490708
69875.004,186.333344,1,False,1,0.8001400245042872,1.0,1.0,1,1.0010219165955545,1.2789921874999999,1.625810568859702,4.700048790798814
70000.00200000001,186.666672,0,False,1,0.799993600051193,1.0,1.0,1,0.9191133971726655,1.2311874999999997,1.412145904805833,4.709972654509718
70124.99437500001,186.999985,1,True,2,0.8000308011858475,1.0,1.0,1,1.0054390189817355,1.2750859374999999,1.6326397206915972,4.726652893011093
70250.004,187.333344,0,True,1,0.799993600051193,1.0,1.0,1,0.9250058558470196,1.2202499999999994,1.4163908517815123,4.73648221733602
70375.007625,187.666687,1,False,1,0.799957602247097,1.3,1.0,3.0,1.0083852176271582,1.2961796874999998,1.656001425047967,4.753614722477933
70500.0,188,0,False,1,0.8000128002048165,1.0,1.0,1,0.9308984183298663,1.2202499999999994,1.428734063734898,4.763585502483977
70625.026875,188.333405,1,True,1,0.7999384047428312,1.0,1.0,1,1.0113309181430838,1.2852421874999997,1.6539629089857584,4.780451522155244
70750.024875,188.666733,0,True,1,0.7999204079194198,1.0,1.0,1,0.935313960522981,1.2124374999999994,1.432227090463965,4.790316635342547
70875.022875,189.000061,1,False,1,0.8000128002048165,1.0,1.0,2.4,1.0157532784976073,1.2946171874999997,1.671458481224203,4.80747752357745
71000.026875,189.333405,0,False,1,0.799993600051193,1.0,1.0,1.5,0.9397363619538798,1.2147812499999995,1.443282677943383,4.817457283573766
71125.01925,189.666718,1,True,1,0.8000116001681845,1.0,1.0,1,1.0216459451356525,1.2836796874999996,1.6761203138667913,4.834551975873462
71250.01725,190.000046,0,True,1,0.8000308011858475,1.0,1.0,1.2,0.9456290251228663,1.2054062499999993,1.4487636869775824,4.844492229234187
71375.01525,190.333374,1,False,1,0.8000128002048165,1.0,1.0,1.2,1.0280311810742169,1.2836796875,1.6906914819918009,4.861807507948298
71500.01324999999,190.666702,0,False,1,0.8000128002048165,1.0,1.0,1.2,0.9524088175155756,1.2054062499999996,1.46314508882529,4.871767857687536
71625.01725,191.000046,1,True,1,0.799993600051193,1.0,1.0,1.2,1.034905827165497,1.2743046875,1.698911476156305,4.88899436069386
71750.009625,191.333359,0,True,1,0.8000116001681845,1.0,1.0,1.5,0.9591822155679842,1.2014999999999993,1.4746573484077397,4.898439815497763
71875.007625,191.666687,1,False,1,0.8000308011858475,1.0,1.0,2.0,1.0412880252777648,1.2782109375,1.7167375443920447,4.915989167493736
72000.00562499999,192.000015,0,False,1,0.8000128002048165,1.0,1.0,1.5,0.965074879261886,1.2038437499999994,1.4890355752629387,4.925601045054633
72125.004,192.333344,1,True,1,0.8000116001681845,1.0,1.0,1,1.0480675297478068,1.2743046875,1.7292472632154015,4.943325864221231
72250.007625,192.666687,0,True,1,0.799993600051193,1.0,1.0,1.2,0.9694909535890608,1.2014999999999996,1.4967618388902868,4.952874958379634
72375.0,193,1,False,1,0.8000128002048165,1.0,1.0,1,1.054841220441979,1.2743046875,1.7449708894664917,4.970827420831136
72499.992375,193.333313,1,True,1,1.6000976059539442,1.0,1.0,1,1.065175160374176,1.2633671874999999,1.760182138772578,4.987671223011638
72624.996,193.666656,1,False,1,1.5999536013456326,1.0,1.0,1,1.0799064816407526,1.2618046875,1.7935387377209342,5.006834377105722
72749.99437500001,193.999985,1,True,1,1.6000208002703056,1.0,1.0,1,1.0931553566934016,1.2539921875,1.8185469934570302,5.0264714458914534
72874.992375,194.333313,1,False,1,1.600025600409633,1.0,1.0,1,1.1064225015189684,1.2539921875,1.8502967701832396,5.045944911106294
72999.990375,194.666641,1,True,1,1.600025600409633,1.0,1.0,1,1.1211538534711027,1.2430546875,1.8767763617108832,5.067199036524591
73124.988375,194.999969,1,False,1,1.600025600409633,1.0,1.0,1,1.1367751495309306,1.2430546875,1.9148648224621367,5.088619535569259
73249.98075,195.333282,1,True,1,1.6000976059539442,1.0,1.0,1,1.1499164248786278,1.2430546875,1.9472308470441093,5.111717592006365
73374.98475,195.666626,1,False,1,1.599948801638295,1.0,1.0,1,1.1597375164749553,1.2430546875,1.9716138321337189,5.134595036456423
73499.977125,195.999939,1,True,1,1.6000976059539442,1.0,1.0,1,1.1695586165241416,1.2430546875,1.9961636131400367,5.158803053336433
73624.98075,196.333282,1,False,1,1.5999536013456326,1.0,1.0,1,1.1793797377492057,1.2430546875,2.0208806957667846,5.182927703257333
73749.973125,196.666595,1,True,1,1.6000976059539442,1.0,1.0,1,1.1892008670171244,1.2430546875,2.045765511618348,5.20826973199828
74250.0,198,1,False,2,0.39997850115556316,1.0,1.0,2.25,1.1923841872336982,1.2528203125,2.062286548405982,5.232971268844911
74625.0,199,1,True,2,0.5333333333333333,1.0,1.0,1,1.1896824799813759,1.2528203125,2.0553992194262043,5.258435925360199
74749.992375,199.333313,1,False,1,1.6000976059539442,1.0,1.0,1,1.193621087719805,1.2528203125,2.0654439569661056,5.283081020333594
74812.5,199.5,0,False,1,0.07804901273120857,1.0,1.0,1,0.9699215227168025,1.1999374999999997,1.49650994471047,5.292472847320765
74875.007625,199.666687,1,True,1,1.599804823811533,1.0,1.0,1,1.2034413871903868,1.2528203124999997,2.0906066245718473,5.317691540438447
75000.00562499999,200.000015,1,False,1,1.600025600409633,1.0,1.0,1,1.2142477791115172,1.2528203124999997,2.118490554039032,5.344658980782209
75125.009625,200.333359,1,True,1,1.599948801638295,1.0,1.0,1,1.2266248404957325,1.2528203125,2.1506785323974236,5.371448858166484
75250.01324999999,200.666702,1,False,1,1.5999536013456326,1.0,1.0,1,1.239982679091751,1.2528203125,2.1857190476449944,5.400188644889429
75375.01725,201.000046,1,True,1,1.599948801638295,1.0,1.0,1,1.2537312293462717,1.2528203125,2.2221128669019334,5.428752709253855
75437.507625,201.166687,0,True,1,0.319996096047629,1.0,1.0,1,0.9677011726337028,1.1960312499999997,1.488793806280799,5.437322663591714
75500.026875,201.333405,1,False,1,1.5998768094856624,1.0,1.0,1,1.2674793579114565,1.2528203125,2.2588397727927023,5.466799381092845
75562.50562499999,201.500015,0,False,1,1.600025600409633,1.0,1.0,1,0.9739156139163873,1.1960312499999997,1.5021688996120346,5.475042285409926
75625.024875,201.666733,1,True,1,1.600025600409633,1.0,1.0,1,1.2812279217053775,1.2528203125,2.295903138200339,5.505443903603867
75750.0285,202.000076,1,False,1,1.5999536013454962,1.0,1.0,1,1.2910336511593716,1.2528203125,2.3225428506427614,5.536931684023824
75812.51324999999,202.166702,0,True,1,0.7999756007441821,1.0,1.0,1,0.9842041492475301,1.1850937499999996,1.5161552326824026,5.544988040836912
75875.0325,202.33342,1,True,1,1.5999488016384313,1.0,1.0,1,1.296925653186071,1.2528203125,2.338632393016512,5.576807304773619
75937.5345,202.500092,0,False,1,1.5997280462320997,1.0,1.0,1,0.993054411112787,1.1835312499999997,1.5342299476972165,5.585252640632042
76000.036125,202.666763,1,False,1,1.5999536013454962,1.0,1.0,1,1.3047877492313116,1.2528203125,2.360198315099679,5.617561787986696
76125.0,203,1,True,2,1.6004625336722462,1.0,1.0,1,1.3146109170568714,1.2528203125,2.387298894385986,5.650189337227425
76250.004,203.333344,1,False,1,1.599948801638295,1.0,1.0,1,1.3244340382851694,1.2528203125,2.4145722979071964,5.683810324276531
76312.50562499999,203.500015,0,True,1,0.5333744031623793,1.0,1.0,1,0.9989282183791628,1.1796249999999997,1.5441028784582804,5.692292128749772
76375.007625,203.666687,1,True,1,1.5999536013456326,1.0,1.0,1,1.3342543597542917,1.2528203125,2.442011157574495,5.726461355549698
76500.01725,204.000046,1,False,1,1.5998768094856624,1.0,1.0,1,1.3440742828528116,1.2528203125,2.469622442647077,5.761194292188712
76625.01525,204.333374,1,True,1,1.600025600409633,1.0,1.0,1,1.3538946091906543,1.2528203125,2.4974087446866613,5.7967121229868654
76750.01324999999,204.666702,1,False,1,1.600025600409633,1.0,1.0,1,1.3637157554189803,1.2528203125,2.5253716061021487,5.832505621749875
76875.022875,205.000061,1,True,1,1.5998768094856624,1.0,1.0,1,1.3735360776698426,1.2528203124999995,2.5535066709413186,5.869508640422136
76937.524875,205.166733,0,False,1,0.3199901443035548,1.0,1.0,1,0.9977505755871297,1.1780624999999998,1.5403334864595084,5.877124772823369
76999.98075,205.333282,1,False,1,1.6005393817716145,1.0,1.0,1,1.383359255023059,1.2528203125,2.5818248523379923,5.9148234854552735
77062.48275,205.499954,0,True,1,1.6005393817716145,1.0,1.0,1,1.0039670308719293,1.1671249999999997,1.5456301713153542,5.922481204411774
77124.98475,205.666626,1,True,1,1.599948801638295,1.0,1.0,1,1.3941686978093326,1.2528203125,2.6131887989849027,5.960964347530702
77250.0,206,1,False,1,1.599804823811533,1.0,1.0,1,1.4065441841763833,1.2528203125,2.6493577830433654,5.99996242624962
77312.490375,206.166641,0,False,1,0.7999756007441821,1.0,1.0,1,1.0142590867664147,1.1655624999999998,1.567106581962802,6.008533132115293
77374.992375,206.333313,1,True,1,1.6000976059539442,1.0,1.0,1,1.4199018213227295,1.2528203125,2.688710701147166,6.04854706091049
77437.49437500001,206.499985,0,True,1,1.599948801638295,1.0,1.0,1,1.0245928380941398,1.164,1.5888413978338674,6.05753376139745
77499.996,206.666656,1,False,1,1.5999536013456326,1.0,1.0,1,1.4336512392786105,1.2528203125,2.7295584891905964,6.098305628851221
77625.0,207,1,True,2,1.599948801638295,1.0,1.0,1,1.447153193833324,1.2528203125,2.7700081353924295,6.140538498987611
78375.022875,209.000061,0,False,1,0.21332684819714998,1.0,1.0,1,1.0321281783712115,1.1624375,1.6044695685110635,6.1493751506421095
78500.026875,209.333405,0,True,1,1.599948801638295,1.0,1.0,1,1.0397160440641289,1.1515,1.6130555946574971,6.157779444483066
78625.036125,209.666763,0,False,1,1.5998816087609322,1.0,1.0,1,1.0544461314298412,1.1499375,1.645143089143718,6.166427223226833
78750.0345,210.000092,0,True,1,1.600020800270442,1.0,1.0,1,1.0676943837936854,1.14603125,1.6723512651639199,6.175185638080945
78875.038125,210.333435,0,False,1,1.5999536013454962,1.0,1.0,1,1.0794791758473932,1.14603125,1.6995071792116823,6.184059368625899
79000.04212499999,210.666779,0,True,1,1.5999488016384313,1.0,1.0,1,1.09126357590633,1.13509375,1.7182789726585,6.192815675858787
79125.04575,211.000122,0,False,2,1.5999536013454962,1.0,1.0,1,1.1045299392238281,1.13509375,1.7493551342132816,6.205525254120862
79249.992375,211.333313,0,True,1,1.6006834918510235,1.0,1.0,1,1.118770390674152,1.13509375,1.7830564364462527,6.2161724031099395
79312.5,211.5,1,False,1,0.11851851851851852,1.0,1.0,1,1.4500070531921425,1.2528203125,2.7786006561253638,6.258587308553208
79374.996,211.666656,0,False,1,1.5999536013456326,1.0,1.0,1,1.1325229274143178,1.13509375,1.815941804332466,6.270295101704863
79500.00562499999,212.000015,0,True,1,1.5998768094856624,1.0,1.0,1,1.1462710362952264,1.13509375,1.84915053362374,6.286339454112223
79625.004,212.333344,0,False,1,1.6000208002703056,1.0,1.0,1,1.1600195296143823,1.13509375,1.8826953041145145,6.299882569348859
79750.00200000001,212.666672,0,True,1,1.600025600409633,1.0,1.0,1,1.1698240524675367,1.13509375,1.9068225838351411,6.31747101039818
79875.01725,213.000046,0,False,1,1.599804823811533,1.0,1.0,1,1.1757156505449504,1.13509375,1.921403247853441,6.332051240278898
80000.01525,213.333374,0,True,1,1.600025600409633,1.0,1.0,1,1.1835779538364362,1.13509375,1.9409576363783314,6.35051468322956
80125.01925,213.666718,0,False,1,1.599948801638295,1.0,1.0,1,1.1933986543660016,1.13509375,1.965538151678337,6.366287986100384
80250.022875,214.000061,0,True,1,1.5999536013456326,1.6,1.0,1,1.2032189603930692,1.13978125,1.9941651593821135,6.38617132382611
80375.026875,214.333405,0,False,1,1.599948801638295,1.0,1.0,1,1.213039267538624,1.13978125,2.019105796593921,6.403077705016764
80500.036125,214.666763,0,True,1,1.5998816087609322,1.0,1.0,1,1.2228591769013237,1.13978125,2.0442189298091544,6.42429298064477
80625.0345,215.000092,0,False,2,1.600020800270442,1.0,1.0,1,1.2326794898375726,1.13978125,2.069506979828757,6.442426419499442
80749.98675000001,215.333298,0,True,1,1.6006114335675348,1.0,1.0,1,1.2425038455464879,1.13978125,2.0949797996499937,6.4649952016556576
80874.990375,215.666641,0,False,1,1.5999536013456326,1.0,1.0,1,1.252327803992027,1.1397812500000002,2.1206263301425414,6.484034369547026
81000.0,216,0,True,1,1.5998768094856624,1.0,1.0,1,1.2621477181063252,1.1397812500000002,2.146437280001374,6.50797786915409
81062.496,216.166656,1,True,1,0.11428597551080143,1.0,1.0,1,1.4424543914421726,1.2528203125,2.755893356826499,6.545063510803542
81124.992375,216.333313,0,False,1,1.6000976059539442,1.0,1.0,1,1.2729546884235152,1.1397812500000002,2.1750452459516856,6.569732449831551
81187.5,216.5,1,False,1,1.599948801638295,1.0,1.0,1,1.4430872654476896,1.2528203125,2.757792092153402,6.606819197905253
81250.007625,216.666687,0,True,1,1.599804823811533,1.0,1.0,1,1.2853312153555876,1.1397812500000002,2.2080694552436055,6.6323407329816035
81375.00562499999,217.000015,1,True,1,1.066634667626658,1.0,1.0,1,1.4489732629032273,1.2528203125,2.7754863488204613,6.669879675563818
81437.496,217.166656,0,False,1,1.0667328041005357,1.0,1.0,1,1.2957303035093488,1.13978125,2.2360334606328274,6.696076832915273
81499.992375,217.333313,1,False,1,1.6001696179794413,1.0,1.0,1,1.4578306510558907,1.2528203125,2.802233015327354,6.733657128090886
81562.5,217.5,0,True,1,1.599948801638295,1.0,1.0,1,1.3065455350068869,1.13978125,2.2524193286956304,6.760235937822504
81625.00200000001,217.666672,1,True,1,1.5998768094856624,1.0,1.0,1,1.4696040865977869,1.2528203125,2.838008651103193,6.798555019420717
81750.00562499999,218.000015,1,False,1,1.5999536013456326,1.0,1.0,1,1.478442016772026,1.2528203125,2.865032015040994,6.837514744113623
81875.01525,218.333374,1,True,1,1.5998768094856624,1.0,1.0,1,1.487279838500772,1.2528203125,2.892199132547764,6.882305506238773
82000.01324999999,218.666702,1,False,1,1.600025600409633,1.0,1.0,1,1.4961180627598687,1.2528203125,2.9195117666173753,6.922811752751695
82125.011625,219.000031,1,True,2,1.6000208002703056,1.0,1.0,1,1.50495728587113,1.2528203125,2.9469719763081916,6.96928149626276
82250.026875,219.333405,1,False,1,1.599804823811533,1.0,1.0,1,1.5137950797087696,1.2460078124999998,2.9680078809520682,7.010898417534627
82375.01925,219.666718,1,True,1,1.6000976059539442,1.0,1.0,1,1.5226332085362115,1.2460078124999998,2.9957387015937824,7.058674294338601
82500.01725,220.000046,1,False,1,1.600025600409633,1.0,1.0,1,1.5314727564596735,1.2460078124999998,3.023619158155925,7.101593971090086
82625.01525,220.333374,1,True,1,1.600025600409633,1.0,1.0,1,1.5403118018153892,1.2460078124999998,3.0516433801067087,7.150880623725308
82750.01324999999,220.666702,1,False,1,1.600025600409633,1.0,1.0,1,1.5491508481973761,1.2460078124999998,3.079813116761053,7.194800460772197
82875.01725,221.000046,1,True,1,1.599948801638295,1.6,1.0,1,1.5579895752929496,1.2506953125,3.1126940654883417,7.2457458240400605
83000.009625,221.333359,1,False,1,1.6000976059539442,1.0,1.0,1,1.5668285977319674,1.2506953125,3.135973227421778,7.291088502879446
83125.007625,221.666687,1,True,1,1.600025600409633,1.0,1.0,1,1.5756680419741806,1.2506953125,3.1467914292439483,7.3429257537569095
83250.00562499999,222.000015,1,False,1,1.600025600409633,1.0,1.0,1,1.5845059722449115,1.2460078125,3.1295028000030922,7.387578206445088
83375.004,222.333344,1,True,1,1.6000208002703056,1.0,1.0,1,1.5933449995929145,1.2460078125,3.140301390892491,7.439152100028441
83500.007625,222.666687,1,False,1,1.5999536013456326,1.0,1.0,1,1.6021848391190738,1.2460078125,3.1511237337238036,7.484322631444615
83625.0,223,1,True,2,1.6000976059539442,1.0,1.0,1,1.6110239962202955,1.2444453125000001,3.152562680968406,7.5361686691896175
84375.0,225,1,True,2,0.26666666666666666,1.0,2.0,1,1.6124942676411402,1.2522578125000001,3.2015945131895562,7.582679144601489
84750.00562499999,226.000015,0,True,1,0.06274498731276755,1.0,3.25,1,1.3117852487984316,1.1573593750000002,2.294784962380401,7.609610077460557
84875.009625,226.333359,0,False,1,1.599948801638295,1.0,1.0,1,1.3170589932106131,1.1573593750000002,2.3092236550256806,7.630659792674283
85000.01324999999,226.666702,1,False,1,0.3199932161438203,1.0,1.0,1,1.6098398441919348,1.2413203125,3.1323629371930664,7.681252013410465
85125.01725,227.000046,1,True,1,1.599948801638295,1.0,1.0,1,1.6145596253011547,1.2374140625,3.114763994988149,7.7249698663446775
85187.51925,227.166718,0,True,1,0.6399802886071096,1.0,1.0,1,1.3215603897917723,1.1573593750000002,2.3215880318733,7.752088577846332
85250.026875,227.333405,1,False,1,1.5998768094856624,1.0,1.0,1,1.6233975333970954,1.2374140625,3.125515684486968,7.795671718236028
85312.522875,227.500061,0,False,1,1.5999536013456326,1.0,1.0,1,1.3221504603186922,1.1573593750000002,2.3232115798438477,7.822660390929631
85375.036125,227.666763,1,True,1,1.5998816087609322,1.0,1.0,1,1.632234965465824,1.2327265625000001,3.108273781129766,7.8653477267977765
85500.0285,228.000076,1,False,1,1.6000976059539442,1.0,1.0,1,1.6410733155597972,1.2280390625000002,3.0910862424571377,7.913872136939544
85562.536125,228.166763,0,True,1,0.7999576022470629,1.0,1.0,1,1.3255841031041828,1.1573593750000002,2.332671719917481,7.934300155050467
85625.0325,228.33342,1,True,1,1.5999488016384313,1.0,1.0,1,1.6499125445935472,1.2280390625000002,3.101769364138551,7.98281016009682
85687.5285,228.500076,0,False,1,1.6000976059539442,1.0,1.0,1,1.3309948875111015,1.1573593750000002,2.34762299708888,8.003376175141755
85750.036125,228.666763,1,False,1,1.5999536013454962,1.0,1.0,1,1.6587510766452922,1.2280390625000002,3.1124720643639665,8.051822186891044
85875.040125,229.000107,1,True,1,1.599948801638295,1.0,1.0,1,1.6675892067362588,1.2280390625000002,3.1231944866525643,8.094291352761823
85937.54212499999,229.166779,0,True,1,0.7999564023760897,1.0,1.0,1,1.3363877259771058,1.1573593750000002,2.3625781155510475,8.121250297691258
86000.038125,229.333435,1,False,1,1.600025600409633,1.0,1.0,1,1.6764279410472294,1.2280390625000002,3.1339376449459215,8.16335993358163
86062.54575,229.500122,0,False,1,1.5999536013454962,1.0,1.0,1,1.3417976331172992,1.1573593750000002,2.3735287013027886,8.190279199544209
86125.053375,229.666809,1,True,1,1.599804823811533,1.0,1.0,1,1.6852657696452351,1.2212265625,3.103933418489512,8.231592031170461
86250.022875,230.000061,1,False,1,1.6003904952809087,1.0,1.0,1,1.694105626545752,1.1985703125,2.9812096567965543,8.27572593288464
86312.51925,230.166718,0,True,1,0.8000848089897549,1.0,1.0,1,1.3471904608063778,1.1573593750000002,2.379003312835272,8.29588543289156
86375.020875,230.333389,1,True,1,1.6000256004094964,1.0,1.0,1,1.702946795456472,1.1985703125,2.9915870499173423,8.34000001136491
86437.563,230.500168,0,False,1,1.5994401959314282,1.0,1.0,1,1.3541761036801803,1.1573593750000002,2.386108732252079,8.36022913450437
86500.053375,230.666809,1,False,1,1.5995841081319355,1.0,1.0,1,1.7117834026140135,1.1985703125,3.0019769378443715,8.404483577675553
86625.0,231,1,True,2,1.6006834918510235,1.0,1.0,1,1.7206236669116917,1.1985703125,3.01238879661749,8.442141625382114
86749.992375,231.333313,1,False,1,1.6000976059539442,1.0,1.0,1,1.7294668500372585,1.1938828125,2.9954231273537486,8.485799578557998
86812.49437500001,231.499985,0,True,1,0.5334309511973986,1.0,1.0,1,1.3591675585356244,1.1573593750000002,2.391195266916999,8.505524258127561
86874.996,231.666656,1,True,1,1.5999536013456326,1.0,1.0,1,1.7383059013162763,1.1891953125,2.978495190909292,8.548371887905713
87000.0,232,1,False,1,1.599948801638295,1.0,1.0,1,1.7471441333580895,1.1845078125000001,2.96160791321523,8.583840967867417
87125.004,232.333344,1,True,1,1.599948801638295,1.0,1.0,1,1.7559824450354409,1.1845078125000004,2.9718801916930837,8.62609045471211
87250.01324999999,232.666702,1,False,1,1.5998816087610688,1.0,1.0,1,1.7648202785424596,1.1845078125000004,2.98216809497721,8.661788909973321
87375.00562499999,233.000015,0,False,1,0.3555484445866683,1.0,1.0,1,1.355241184540127,1.1573593750000002,2.387193439358775,8.687159254089796
87437.507625,233.166687,1,True,1,1.0666986676266752,1.0,1.0,1,1.7707072975730085,1.1845078125000004,2.9890299243238045,8.72260521737202
87500.009625,233.333359,0,True,1,1.599948801638295,1.0,1.0,1,1.357210082539159,1.1529843750000002,2.3674009580485835,8.73990620982436
87562.51725,233.500046,1,False,1,1.5998768094856624,1.0,1.0,1,1.7766044032901278,1.1845078125000004,2.995910585064276,8.774164413943588
87625.01324999999,233.666702,0,False,1,1.5999536013456326,1.0,1.0,1,1.3660482960322262,1.1364218750000001,2.2948472367336366,8.78773524978132
87750.01725,234.000046,0,True,1,1.599948801638295,1.0,1.0,1,1.3771050339933608,1.132515625,2.2868324509907403,8.800173106249328
87812.51925,234.166718,1,True,1,0.799993600051193,1.0,1.0,1,1.7795451439295156,1.1845078125000004,2.999344430922709,8.832157526158824
87875.026875,234.333405,0,False,1,1.5998768094856624,1.0,1.0,1,1.3903621777108797,1.132515625,2.299990674687575,8.843130604151527
87937.522875,234.500061,1,False,1,1.5999536013456326,1.0,1.0,1,1.785565625006247,1.1669296875000004,2.9046487366017764,8.870409534176657
88000.024875,234.666733,0,True,1,1.600025600409633,1.0,1.0,1,1.4014012972521246,1.132515625,2.310985718614861,8.880078981598507
88125.0285,235.000076,0,False,2,1.5999536013454962,1.0,1.0,1,1.4102399371745795,1.132515625,2.3198137969156303,8.889300483319053
88250.0325,235.33342,0,True,1,1.5999488016384313,1.0,1.0,1,1.4190779543852787,1.132515625,2.328662970908987,8.89806987361158
88312.5345,235.500092,1,True,1,0.5333168005125137,1.0,1.0,1,1.7871456684841769,1.1669296875000004,2.9064500424437685,8.922592658642206
88375.036125,235.666763,0,False,1,1.5999536013454962,1.0,1.0,1,1.4279161736703745,1.132515625,2.337533818215534,8.930435055462482
88500.0345,236.000092,0,True,1,1.600020800270442,1.0,1.0,1,1.436755194789311,1.1278281250000004,2.323356749482942,8.938069751650897
88625.04375,236.33345,0,False,1,1.5998816087609322,1.0,1.0,1,1.4455935166204905,1.1231406250000004,2.3092316723293855,8.945015796947224
88750.04775,236.666794,0,True,1,1.599948801638295,1.0,1.0,1,1.4544312398038182,1.123140625,2.3180452685960047,8.968423135433243
88875.051375,237.000137,0,False,1,1.5999536013456326,1.0,1.0,1,1.4632693535240886,1.123140625,2.326879284773053,8.975155060368818
88937.553375,237.166809,1,False,1,0.3199903362918429,1.0,1.0,1,1.7741859931706854,1.1669296875000004,2.8916896936891967,8.997185195230571
89000.055375,237.333481,0,True,1,1.599948801638295,1.0,1.0,1,1.472107680335576,1.123140625,2.335733318265065,9.002457810887284
89062.551375,237.500137,1,True,1,1.600025600409633,1.0,1.0,1,1.767099843156756,1.1669296875000004,2.883632684704641,9.022342897093193
89125.053375,237.666809,0,False,1,1.600025600409633,1.0,1.0,1,1.480946405438381,1.123140625,2.3446073322732395,9.025833032368261
89250.068625,238.000183,0,True,1,1.599804823811533,1.0,1.0,1,1.489784225640725,1.123140625,2.3534997952593026,9.05047039753861
89375.06662499999,238.333511,0,False,1,1.600025600409633,1.0,1.0,1,1.4986221592896807,1.123140625,2.3624115106716577,9.05342138291396
89500.070625,238.666855,0,True,1,1.599948801638295,1.0,1.0,1,1.5074607775223954,1.116328125,2.3376006342920235,9.077224660541912
89625.07425,239.000198,0,False,2,1.5999536013454962,1.0,1.0,1,1.5162977834354012,1.093671875,2.2362218980682855,9.075524211457836
91125.0,243,0,True,2,0.1333399336600499,1.0,1.0,1,1.5170322341638771,1.091328125,2.225725915702765,9.07276568519435
91250.004,243.333344,0,False,1,1.599948801638295,1.0,1.0,1,1.5177717006958342,1.087421875,2.207837606644108,9.09247322908371
91312.48275,243.499954,1,False,1,0.0888916000826913,1.0,1.0,1,1.758770548426929,1.1669296875000004,2.874174752595243,9.10773200240702
91374.990375,243.666641,0,True,1,1.6001744190117322,1.0,1.0,1,1.5266110411004659,1.085859375,2.208909647836859,9.126955102925843
91500.0,244,0,False,1,1.5998768094856624,1.0,1.0,1,1.5387776929502641,1.084296875,2.2131704737687565,9.12276595810292
91562.50200000001,244.166672,1,True,1,0.7999384047428312,1.0,1.0,1,1.7459881176703298,1.1669296875000004,2.85968693032209,9.13622532659557
91624.99799999999,244.333328,0,True,1,1.600025600409633,1.0,1.0,1,1.550917354205407,1.084296875,2.2248526954819745,9.130819800110846
91687.5,244.5,1,False,1,1.600025600409633,1.0,1.0,1,1.7415638438178913,1.1669296875000004,2.854679979560238,9.168161008608651
91750.00200000001,244.666672,0,False,1,1.599948801638295,1.0,1.0,1,1.5597557695287574,1.084296875,2.2333770041283625,9.162216565189759
