TimeMS,Beat,Type,Forehand,numNotes,SwingSpeed,Angle Diff,AngleChangeDiff,Pos Diff,C Stamina,C Pattern Diff,C CombinedDiff,C SmoothedDiff
1985.1764791152057,5.624666690826416,1,True,1,0,1.0,0,1.2,0.8421293728001047,0,0.0,0.0
2161.6470673504996,6.124666690826416,1,False,1,1.1333333333333333,1.0,1.0,2.4,0.035416666666666666,0.075,0.0004665475602514308,0.000850749476118484
2338.1176555857937,6.624666690826416,1,True,1,1.1333333333333333,1.0,1.0,1,0.07919407420311755,0.10625,0.0014959930616227515,0.002385795215991714
2426.352949703441,6.874666690826416,0,True,1,0,1.0,0,1.44,0,0,0,0.0017893464119937857
2514.588243821088,7.124666690826416,1,False,1,1.1333333333333333,1.0,1.0,2.0,0.12769660767268295,0.16875,0.006026207580084774,0.005826992938508862
2691.058832056382,7.624666690826416,1,True,1,1.1333333333333333,1.0,1.0,1,0.17708333333333331,0.2,0.010685205244220215,0.01135065136970257
2779.2941261740293,7.874666690826416,0,False,1,0.5666666666666667,1.0,1.0,1.5,0.017708333333333333,0.046875,0.00011010144168828455,0.009786492596578943
2955.764546113856,8.374666213989258,0,True,1,1.1333344141652562,1.0,1.0,1.2,0.05599869894154085,0.084375,0.0007209336487811264,0.00889183664914467
3132.2351343491496,8.874666213989258,0,False,1,1.1333333333333333,1.0,1.0,2.0,0.10325648614483922,0.146875,0.003873057893614965,0.009473303925685683
3220.470428466797,9.124666213989258,1,False,1,0.37777789787013727,1.0,1.0,1.7999999999999998,0.2088616015216756,0.25625,0.02170763244752536,0.016442747086729614
3396.941016702091,9.624666213989258,1,True,1,1.1333333333333333,1.0,1.0,1,0.2433777679024746,0.2875,0.03113508412567858,0.025270647515785994
3485.176310819738,9.874666213989258,0,True,1,0.5666666666666667,1.0,1.0,1,0.13830655224782057,0.178125,0.007155270467113677,0.025339366172267463
3573.411604937385,10.124666213989258,1,False,1,1.1333333333333333,1.0,1.0,1,0.2932439218468286,0.31875,0.04400574215023071,0.03573548736070007
3661.646899055032,10.374666213989258,0,False,1,1.1333333333333333,1.0,1.0,1,0.17708338061973009,0.209375,0.012021210853717601,0.036314477976614926
3749.8821931726793,10.624666213989258,1,True,1,1.1333333333333333,1.6,1.0,1,0.3431743268400743,0.36875,0.06849564499675884,0.05054708726505256
3838.117487290326,10.874666213989258,0,True,1,1.1333333333333333,1.0,1.0,1,0.2267773642167349,0.240625,0.01914467144279116,0.05175168285797799
3926.3527814079735,11.124666213989258,1,True,1,1.1333333333333333,1.6,1.0,1,0.393144503478401,0.41875,0.10071870197897226,0.07031459010852703
4014.5880755256203,11.374666213989258,0,False,1,1.1333333333333333,1.0,1.0,1,0.27661305692533417,0.271875,0.028668629334644497,0.07221680683491155
4102.823369643267,11.624666213989258,1,True,1,1.1333333333333333,1.6,1.0,1,0.44314099758375997,0.46875000000000006,0.14173649325726456,0.09562186915461325
4279.293957878562,12.124666213989258,1,True,1,1.1333333333333333,1.6,1.0,1,0.49315580496927386,0.5187499999999999,0.19261059908741282,0.12596331844047232
4455.764546113855,12.624666213989258,1,True,1,1.1333333333333333,1.0,1.0,1,0.5431838669560853,0.5499999999999999,0.23383635719956647,0.16057464588172693
4543.999840231502,12.874666213989258,0,True,1,0.3777777777777778,1.0,1.0,1,0.30898100550062213,0.303125,0.039771780005338965,0.1598688747816244
4632.23513434915,13.124666213989258,1,False,1,1.1333333333333333,1.0,1.0,1,0.5932218301604814,0.5812499999999999,0.2805925268511199,0.1974102691574683
4720.470428466797,13.374666213989258,0,False,1,1.1333333333333333,1.0,1.0,1,0.34317436918595795,0.334375,0.05357105113749787,0.19732540892167608
4808.705722584444,13.624666213989258,1,True,2,1.1333333333333333,1.0,1.0,1,0.6432673840228857,0.6124999999999999,0.33322432730472684,0.2380431574320226
5161.646899055032,14.624666213989258,1,False,2,0.5666666666666667,1.0,1.0,1,0.6804599794618114,0.6437499999999999,0.388188942491832,0.28333861573339525
5514.58807552562,15.624666213989258,1,True,2,0.5666666666666667,1.75,1.25,1.2,0.7054992546182101,0.7257812499999999,0.5331689459308203,0.34486189462511024
5867.529251996209,16.624666213989258,1,False,2,0.5666666666666667,1.0,1.25,1,0.7305388101684325,0.7648437499999999,0.6187240619787141,0.41313420746122664
6220.470428466797,17.624666213989258,0,True,2,0.13333333333333333,1.0,1.0,1,0.3702607375432065,0.365625,0.06956259454517082,0.4076362962489857
6573.411604937385,18.624666213989258,0,False,2,0.5666666666666667,1.0,1.0,1,0.38592017061947065,0.396875,0.0871933067622453,0.4046482193660832
6926.352781407973,19.624666213989258,0,True,2,0.5666666666666667,1.75,1.25,1.2,0.41095115329055254,0.47890625,0.1447335160423919,0.40862224883835796
7279.293957878562,20.624666213989258,0,False,2,0.5666666666666667,1.0,1.25,1,0.4359835581400827,0.51796875,0.18164220631496739,0.41655433876311826
7632.23513434915,21.624666213989258,1,True,2,0.11333333333333333,1.0,1.0,1,0.7454617150461749,0.7960937499999999,0.6912047495806342,0.4803200776406168
7985.176310819738,22.624666213989258,1,False,2,0.5666666666666667,1.0,1.0,1,0.7605866079569943,0.8273437499999999,0.7692577493905339,0.548707222769636
8338.117487290327,23.624666213989258,1,True,2,0.5666666666666667,1.75,1.25,1.2,0.7856266872440731,0.909375,0.9441167776109425,0.6314068417747066
8691.058663760914,24.624666213989258,1,False,2,0.5666666666666667,1.0,1.25,1,0.8106669695346201,0.9484375,1.0114559678030894,0.7163338715747944
9043.999840231503,25.624666213989258,0,True,2,0.11333333333333333,1.0,1.0,1,0.4508366810887041,0.54921875,0.21433407621720518,0.718099885206939
9396.94101670209,26.624666213989258,0,False,2,0.5666666666666667,1.0,1.0,1,0.46602399855408255,0.58046875,0.2508190489681258,0.7232745480064078
9749.88219317268,27.624666213989258,0,True,2,0.5666666666666667,1.75,1.25,1.2,0.49105878305667067,0.6625,0.3619433354272371,0.738575388937093
10102.823369643267,28.624666213989258,0,False,2,0.5666666666666667,1.0,1.25,1,0.5160944001669063,0.7015625,0.42866985376671235,0.7591949781308458
10455.764546113856,29.624666213989258,0,True,2,0.5666666666666667,1.0,1.0,1,0.5411307343220835,0.7328125,0.489195032680576,0.7841925221809729
10632.23513434915,30.124666213989258,0,False,2,1.1333333333333333,1.0,1.0,1,0.5790926522322958,0.7640625,0.555186428633213,0.8137299598725052
10808.705722584444,30.624666213989258,0,True,2,1.1333333333333333,1.6,1.0,1,0.6291362531477088,0.8140625,0.6472800636788095,0.8497043885321358
10985.176310819737,31.124666213989258,0,False,2,1.1333333333333333,1.0,1.0,1,0.6791862125302254,0.8453125,0.7364856573614241,0.8914375431654307
11161.646899055033,31.624666213989258,0,True,2,1.1333333333333333,1.0,1.0,1,0.7292412211803979,0.8765625,0.8315123499833293,0.9390172764370699
11338.118160472197,32.12466812133789,0,False,2,1.1333290100262576,1.0,1.0,1,0.7793002075916091,0.9078125,0.9323741102018132,0.9925249091211775
11514.58874870749,32.62466812133789,0,True,2,1.1333333333333333,1.6,1.0,1,0.8293625383252264,0.9578125,1.0507885913079222,1.0529440811079607
11691.059336942784,33.12466812133789,0,False,2,1.1333333333333333,1.0,1.0,1,0.8794277295767293,0.9890625,1.1639177861415522,1.119441249544425
11867.52992517808,33.62466812133789,0,True,2,1.1333333333333333,1.3,1.25,1.5,0.9294952416396817,1.065234375,1.314072785238797,1.1944000699162918
12044.000513413373,34.12466812133789,0,False,2,1.1333333333333333,1.0,1.25,1,0.9795647186502026,1.1042968750000002,1.4459843942901167,1.2759821702374872
12220.471101648667,34.62466812133789,0,True,2,1.1333333333333333,1.75,1.25,1.44,1.029635873951953,1.2027343750000001,1.6301838242555093,1.367537037626161
12396.94168988396,35.12466812133789,0,False,2,1.1333333333333333,1.0,1.25,1,1.0797084740542071,1.2417968750000001,1.7767126605247676,1.4658473075359242
12573.412278119255,35.62466812133789,0,True,2,1.1333333333333333,1.3,1.25,1.5,1.1297823268538227,1.3179687500000001,1.9612219826485764,1.573144086086555
12749.88286635455,36.12466812133789,0,False,2,1.1333333333333333,1.0,1.25,1,1.1798572728551209,1.3570312500000001,2.1216435453463816,1.6873013068975127
12926.353454589844,36.62466812133789,0,True,2,1.1333333333333333,1.75,1.25,1.44,1.210682287279066,1.4113636363636364,2.2512502568987793,1.8059014592613734
13102.824042825137,37.12466812133789,0,False,2,1.1333333333333333,1.0,1.25,1,1.2223904596772501,1.4066176470588236,2.277983457918219,1.9220068916143442
13279.294631060431,37.62466812133789,1,True,1,1.1333333333333333,1.6,1.0,1,1.3335236327437439,1.4852564102564103,2.6617986471440616,2.058595887658556
13367.52992517808,37.87466812133789,0,True,1,0.7555555555555556,1.0,1.0,1,1.2257778632360514,1.395,2.2763049284171157,2.1662353391461187
13455.765219295727,38.12466812133789,1,False,1,1.1333333333333333,1.0,1.0,1,1.34034199362861,1.473125,2.6694733563957174,2.294529135614408
13544.000513413373,38.37466812133789,0,False,1,1.1333333333333333,1.0,1.0,1,1.2287756827137917,1.3840277777777779,2.2742053952567316,2.394520767962523
13632.23580753102,38.62466812133789,1,True,1,1.1333333333333333,1.0,1.0,1,1.3468235225823342,1.4615853658536586,2.676814845490225,2.515304751135315
13720.471101648667,38.87466812133789,0,True,1,1.1333333333333333,1.0,1.0,1,1.2390251881671657,1.3736486486486488,2.2920606451687435,2.609560241809429
13808.706395766314,39.12466812133789,1,False,1,1.1333333333333333,1.0,1.0,1,1.3529925792836854,1.4505952380952383,2.6838460443464767,2.7235035161256533
13896.94168988396,39.37466812133789,0,False,1,1.1333333333333333,1.0,1.0,1,1.248727860210785,1.3638157894736842,2.3090712972799015,2.8125297583921247
13985.176984001608,39.62466812133789,1,True,1,1.1333333333333333,1.0,1.0,1,1.3588712296845893,1.4401162790697675,2.69058765374616,2.9202227340047417
14073.412278119255,39.87466812133789,0,True,1,1.1333333333333333,1.0,1.0,1,1.2579263247645889,1.3544871794871796,2.325297875775066,3.0044672585342402
14161.647572236903,40.12466812133789,1,False,1,1.1333333333333333,1.0,1.0,1,1.3644795097783255,1.4301136363636364,2.6970584278246785,3.106433002231887
14249.88286635455,40.37466812133789,0,False,1,1.1333333333333333,1.0,1.0,1,1.2666588898371867,1.345625,2.3407950131324244,3.1862925082710354
14338.118160472197,40.62466812133789,1,True,1,1.1333333333333333,1.0,1.0,1,1.3698356537881025,1.4205555555555556,2.70327541283165,3.282996173811992
14426.353454589844,40.87466812133789,0,True,1,1.1333333333333333,1.0,1.0,1,1.274960078708944,1.3371951219512195,2.355612182632336,3.3588236231869657
14514.58874870749,41.12466812133789,1,False,1,1.1333333333333333,1.0,1.0,1,1.374956292251841,1.411413043478261,2.7092541500297753,3.450680331102059
14602.824042825137,41.37466812133789,0,False,1,1.1333333333333333,1.0,1.0,1,1.2828610860270808,1.3291666666666668,2.36979431963077,3.5227908804436066
14691.059336942784,41.62466812133789,1,True,1,1.1333333333333333,1.0,1.0,1,1.3798566245366446,1.4026595744680854,2.715008849011791,3.610172337866926
14779.294631060431,41.87466812133789,0,True,1,1.1333333333333333,1.3,1.0,1.2,1.2903901695064768,1.3345348837209303,2.395434845405461,3.6794423181821525
14867.52992517808,42.12466812133789,1,False,1,1.1333333333333333,1.0,1.0,1,1.3845505695526819,1.3942708333333336,2.72055253647793,3.762674488613524
14955.765219295727,42.37466812133789,0,False,1,1.1333333333333333,1.3,1.0,2.4,1.2975729875968103,1.3751136363636365,2.4532823623770517,3.8308908871263605
15044.000513413373,42.62466812133789,1,True,1,1.1333333333333333,1.0,1.0,1,1.38905089781419,1.3862244897959186,2.725897184546602,3.910247460436946
15132.23580753102,42.87466812133789,0,True,1,1.1333333333333333,1.3,1.0,1.2,1.304432891614948,1.3792222222222223,2.4762929874261257,3.975898653574204
15220.471101648667,43.12466812133789,1,False,1,1.1333333333333333,1.0,1.0,1,1.393369347486419,1.3785000000000003,2.7310538219065603,4.051648712244065
15308.706395766314,43.37466812133789,0,False,1,1.1333333333333333,1.0,1.0,1,1.3109911793477262,1.3709782608695653,2.4868363265918174,4.114371754379518
15396.94168988396,43.62466812133789,1,True,1,1.1333333333333333,1.0,1.0,1,1.3975167266391646,1.3710784313725493,2.7360326305125655,4.1867660660968005
15573.412278119255,44.12466812133789,1,False,1,1.1333333333333333,1.0,1.0,1,1.401503003582456,1.3639423076923078,2.740843030043026,4.257608608346437
15749.88286635455,44.62466812133789,0,True,2,0.4533333333333333,1.0,1.0,1,1.3070528711750766,1.3630851063829788,2.4683541086989997,4.314771003841361
16102.824042825137,45.62466812133789,0,False,2,0.5666666666666667,1.0,1.0,1,1.2946906533975633,1.3555208333333333,2.426866675678995,4.3687711438694565
16279.294631060431,46.12466812133789,1,True,1,1.1333333333333333,1.6,1.0,1,1.3978785136487575,1.3550000000000002,2.7214111079565666,4.434138381126494
16455.765219295725,46.62466812133789,1,True,1,1.1333333333333333,1.6,1.0,1,1.4015708847454078,1.359375,2.7365833344026362,4.498628858329283
16544.00051341337,46.87466812133789,0,True,1,0.4533333333333333,1.0,1.0,1,1.2828886503843984,1.348265306122449,2.3875597393640278,4.547005887192863
16632.23580753102,47.12466812133789,1,True,1,1.1333333333333333,1.6,1.0,1,1.4051325261069174,1.36359649122807,2.751259822510102,4.6093563268008335
16808.706395766316,47.62466812133789,1,True,1,1.1333333333333333,1.6,1.0,1,1.4085702601000538,1.3676724137931033,2.7654643292976226,4.670887698510357
16896.941689883963,47.87466812133789,0,False,1,0.5666666666666667,1.0,1.0,1,1.2715156820108962,1.3413000000000002,2.350013418941407,4.7142167122922345
17073.412278119256,48.37466812133789,1,True,1,0.7555555555555556,1.0,1.0,1,1.4073648656420163,1.3614406779661015,2.7557758684401756,4.772855150532993
17249.88286635455,48.87466812133789,1,False,1,1.1333333333333333,1.0,1.0,1,1.406119326006936,1.3554166666666663,2.7461931258810863,4.829838967702073
17338.118160472197,49.12466812133789,0,True,1,0.4533333333333333,1.0,1.0,1,1.2606392552492416,1.3346078431372552,2.3143597537904927,4.868662957534029
17514.58874870749,49.62466812133789,0,False,1,1.1333333333333333,1.0,1.0,1,1.2578438797203788,1.328173076923077,2.300931334464649,4.906139910930396
17691.059336942784,50.12466812133789,0,True,1,1.1333333333333333,1.6,1.0,1,1.2644149402659457,1.3333018867924529,2.3233737421276213,4.943689428052598
17867.529925178078,50.62466812133789,0,True,1,1.1333333333333333,1.6,1.0,1,1.270740308986489,1.3382407407407408,2.345082026061876,4.981281352229629
17955.765219295725,50.87466812133789,1,True,1,0.2833333333333333,1.0,1.0,1,1.3995405487071704,1.3495901639344259,2.721056458284858,5.032234048633085
18044.00051341337,51.12466812133789,0,True,1,1.1333333333333333,1.6,1.0,1,1.2768335128703403,1.343,2.366090953041201,5.06893710635868
18220.471101648665,51.62466812133789,0,True,1,1.1333333333333333,1.6,1.0,1,1.282707103806667,1.3475892857142857,2.386433182101185,5.105648063012866
18308.706395766316,51.87466812133789,1,False,1,0.5666666666666667,1.0,1.0,1,1.386512588242508,1.3439516129032254,2.6773062976589244,5.152232943058358
18485.17698400161,52.37466812133789,0,True,1,0.7555555555555556,1.0,1.0,1,1.2836846750569686,1.3414912280701754,2.3834554205123815,5.18728471509351
18661.647572236903,52.87466812133789,0,False,1,1.1333333333333333,1.0,1.0,1,1.2845493253704567,1.335603448275862,2.380371989361573,5.221538949702414
18749.88286635455,53.12466812133789,1,True,1,0.4533333333333333,1.0,1.0,1,1.3758818639535417,1.3384920634920634,2.641052422977012,5.2643581655945955
18926.353454589844,53.62466812133789,1,False,1,1.1333333333333333,1.0,1.0,1,1.3718110659552145,1.3332031249999998,2.6241767453832385,5.305762150448614
19102.824042825137,54.12466812133789,1,True,1,1.1333333333333333,1.6,1.0,1,1.3753922843683963,1.3373076923076923,2.6384942124214406,5.346874781327208
19279.29463106043,54.62466812133789,1,True,1,1.1333333333333333,1.6,1.0,1,1.3788641367642458,1.3412878787878786,2.6524126295913772,5.387690574523364
19367.529925178078,54.87466812133789,0,True,1,0.2833333333333333,1.0,1.0,1,1.2798218837444602,1.3299152542372883,2.3621707690221765,5.417850819571033
19455.765219295725,55.12466812133789,1,True,1,1.1333333333333333,1.6,1.0,1,1.3822315578142603,1.345149253731343,2.6659483125354124,5.457710659165898
19632.23580753102,55.62466812133789,1,True,1,1.1333333333333333,1.6,1.0,1,1.3854991897073488,1.3488970588235292,2.679116708096665,5.497279723159133
19720.471101648665,55.87466812133789,0,False,1,0.5666666666666667,1.0,1.0,1,1.2683680179052226,1.3244166666666668,2.325938284315546,5.524419879520403
19896.941689883963,56.37466812133789,1,True,1,0.7555555555555556,1.0,1.0,1,1.38480101039966,1.343840579710145,2.672192830780563,5.562447513523433
20073.412278119256,56.87466812133789,1,False,1,1.1333333333333333,1.0,1.0,1,1.3840648150830812,1.3389285714285712,2.665309657110452,5.599571949290918
20161.647572236903,57.12466812133789,0,True,1,0.4533333333333333,1.0,1.0,1,1.2593389153929662,1.3190983606557378,2.2966816877990612,5.624142092353858
20338.118160472197,57.62466812133789,0,False,1,1.1333333333333333,1.0,1.0,1,1.2570333868933579,1.3139516129032258,2.285797535435716,5.647932982874738
20514.58874870749,58.12466812133789,0,True,1,1.1333333333333333,1.6,1.0,1,1.26256581351746,1.3184920634920634,2.304828937136267,5.671913662447443
20691.059336942784,58.62466812133789,0,True,1,1.1333333333333333,1.6,1.0,1,1.2679239681285996,1.322890625,2.3233373176857666,5.696062779129792
20779.29463106043,58.87466812133789,1,True,1,0.2833333333333333,1.0,1.0,1,1.378718610134527,1.3341549295774646,2.6451406899184184,5.729830004061441
20867.529925178078,59.12466812133789,0,True,1,1.1333333333333333,1.6,1.0,1,1.2731159575288244,1.3271538461538461,2.3413435170933194,5.753635510864644
21044.00051341337,59.62466812133789,0,True,1,1.1333333333333333,1.6,1.0,1,1.278149393383841,1.3312878787878788,2.35886731170608,5.77757797788084
21132.23580753102,59.87466812133789,1,False,1,0.5666666666666667,1.0,1.0,1,1.3678097221025711,1.3295138888888889,2.609080683713469,5.8087258051776915
21308.706395766316,60.37466812133789,1,True,1,1.1333333333333333,1.0,1.0,1,1.3654805373350745,1.3249999999999997,2.598062072318867,5.839026685942727
21396.941689883963,60.62466812133789,0,True,1,0.5666666666666667,1.0,1.0,1,1.2770536798411902,1.3263432835820896,2.3513234312167746,5.861454963546865
21485.17698400161,60.87466812133789,1,False,1,1.1333333333333333,1.0,1.0,1,1.368709298214862,1.3206081081081078,2.603201219185381,5.890986832512899
21573.412278119256,61.12466812133789,0,False,1,1.1333333333333333,1.0,1.0,1,1.2758959174439288,1.321544117647059,2.34375837543294,5.91241183221202
21661.647572236903,61.37466812133789,1,True,1,1.1333333333333333,1.0,1.0,1,1.371851371348863,1.3163333333333331,2.608217291312025,5.941209885245644
21749.88286635455,61.62466812133789,0,True,2,1.1333333333333333,1.0,1.0,1,1.2806682867628207,1.3168840579710144,2.3524920901813275,5.962149002449179
22102.824042825137,62.62466812133789,1,False,1,0.4533333333333333,1.3,1.0,3.0,1.368591108355547,1.3503289473684208,2.6312671913915153,5.990763824847257
22279.29463106043,63.12466812133789,0,False,1,0.3777777777777778,1.0,1.0,1,1.2776802072938176,1.3123571428571428,2.340195378377827,6.010638267973011
22455.765219295725,63.62466812133789,1,True,1,0.5666666666666667,1.3,1.0,1,1.3601180322830013,1.3496753246753244,2.6061595462784135,6.084893454420492
22808.70504940257,64.62466430664062,0,True,2,0.3777787385187917,1.0,1.0,1,1.2671337839880494,1.3079577464788732,2.307569082814896,6.150627852436692
23161.646225873163,65.62466430664062,0,False,2,0.5666666666666667,1.0,1.0,1,1.2587313954903323,1.3036805555555555,2.28104486119886,6.215577186203072
23514.58740234375,66.62466430664062,1,False,1,0.5666666666666667,1.0,1.0,1,1.3390317579769309,1.3765625,2.5714745677832385,6.288844121739832
23691.057990579044,67.12466430664062,0,True,1,0.3777777777777778,1.0,1.0,1,1.250598700559676,1.2995205479452054,2.2555027808705583,6.3529366300428824
23867.528578814337,67.62466430664062,1,True,1,0.5666666666666667,1.0,1.0,1,1.3323522962074958,1.3719135802469133,2.548002985593996,6.425230363987692
24220.469755284925,68.62466430664062,0,False,2,0.3777777777777778,1.0,1.0,1,1.240851351507672,1.2954729729729728,2.225923497231591,6.488648656600551
24573.410931755516,69.62466430664062,0,True,2,0.5666666666666667,1.0,1.0,1,1.2331411039430324,1.2915333333333332,2.2020100020119795,6.551368197478054
24926.352108226103,70.62466430664062,1,False,1,0.5666666666666667,1.0,1.0,1,1.3132739719310753,1.358630952380952,2.4815550018048054,6.621962775989336
25102.822696461397,71.12466430664062,0,False,1,0.3777777777777778,1.0,1.0,1,1.225669774869633,1.2876973684210526,2.1789467996546357,6.683427238823747
25279.29328469669,71.62466430664062,1,True,1,0.5666666666666667,1.0,1.0,1,1.307215611087467,1.3544117647058822,2.4606381249037006,6.752649094993415
25632.234461167278,72.62466430664062,0,True,2,0.3777777777777778,1.0,1.0,1,1.21663067465787,1.283961038961039,2.152008220721475,6.813760647411988
25985.17563763787,73.62466430664062,0,False,2,0.5666666666666667,1.0,1.0,1,1.209532298109324,1.2803205128205128,2.130353118627631,6.873205248052716
26338.116814108456,74.62466430664062,1,False,1,0.5666666666666667,1.0,1.0,1,1.2898714978688386,1.3423295454545452,2.4012464431968756,6.941279501352368
26691.057990579044,75.62466430664062,0,True,2,0.2833333333333333,1.0,1.0,1,1.2018045444629082,1.2767721518987343,2.107267985405217,6.999368585145101
27043.99916704963,76.62466430664062,1,False,1,0.5666666666666667,1.0,1.0,1,1.278954799295047,1.3347222222222221,2.364236692993539,7.066185386727876
27396.940343520222,77.62466430664062,1,True,2,0.5666666666666667,1.0,1.0,1,1.2736774114554708,1.331043956043956,2.346448492584439,7.130171140996145
27749.88151999081,78.62466430664062,0,False,1,0.1888888888888889,1.3,1.0,3.0,1.1908955748219963,1.3095625,2.107981449996622,7.189415311753599
27926.352108226103,79.12466430664062,1,False,1,0.3777777777777778,1.0,1.0,1,1.2670673599250144,1.3274456521739129,2.325188284684193,7.251626629592146
28102.822696461397,79.62466430664062,0,True,1,0.5666666666666667,1.3,1.0,1.2,1.1827055931760955,1.3126543209876544,2.0896951608853382,7.305678718630247
28455.763872931984,80.62466430664062,0,False,2,0.5666666666666667,1.3,1.0,3.0,1.178026415239934,1.3442073170731708,2.105551947242459,7.359007990168422
28808.70504940257,81.62466430664062,0,True,2,0.5666666666666667,1.3,1.0,1.2,1.1734606878271916,1.3468072289156627,2.0961633399403445,7.417599084067507
29161.646225873163,82.62466430664062,0,False,1,0.5666666666666667,1.0,1.0,1,1.1690043341030243,1.3426785714285716,2.0811419033649123,7.468900674506143
29338.116814108456,83.12466430664062,1,True,1,0.3777777777777778,1.0,1.0,1,1.2466286758972873,1.3171052631578946,2.260784159484254,7.531789004241617
29514.58740234375,83.62466430664062,0,True,1,0.5666666666666667,1.0,1.0,1,1.1646534702644191,1.3386470588235295,2.066527739220885,7.581174610048321
29867.528578814337,84.62466430664062,0,False,2,0.5666666666666667,1.0,1.0,1,1.160404394248589,1.3347093023255816,2.052304766921363,7.628588910139684
30220.469755284925,85.62466430664062,0,True,2,0.5666666666666667,1.0,1.0,1,1.1562535752248593,1.3308620689655173,2.0384577311597147,7.671477880450072
30573.410931755516,86.62466430664062,0,False,1,0.5666666666666667,1.0,1.0,1,1.1521976438073416,1.3271022727272728,2.024972150146023,7.711544964649653
30749.88151999081,87.12466430664062,1,False,1,0.3777777777777778,1.0,1.0,1,1.2274479049660223,1.307397959183673,2.20117989576259,7.772279404474185
30926.352108226103,87.62466430664062,0,True,1,0.5666666666666667,1.0,1.0,1,1.1482333829313605,1.323426966292135,2.0118342676610097,7.827116635602294
31279.29328469669,88.62466430664062,0,False,2,0.5666666666666667,1.0,1.0,1,1.1443577193417065,1.3198333333333334,1.999031008605094,7.87994962744117
31632.234461167278,89.62466430664062,0,True,2,0.5666666666666667,1.0,1.0,1,1.1405677156453704,1.3163186813186813,1.9865499377507925,7.931375396945439
31808.70504940257,90.12466430664062,1,True,1,1.1333333333333333,1.0,1.0,1,1.2146989388652067,1.298267326732673,2.159634817287763,7.973214181765189
31896.940343520222,90.37466430664062,0,False,1,0.7555555555555556,1.0,1.0,1,1.1383109380706367,1.3128804347826089,1.977979223107175,8.0076533006296
32073.410931755516,90.87466430664062,0,True,1,1.1333333333333333,1.0,1.0,1,1.140431396216699,1.3095161290322583,1.980353869425219,8.037177962144028
32161.646225873163,91.12466430664062,1,False,1,0.5666666666666667,1.0,1.0,1,1.21459435375999,1.2953431372549016,2.156769830826688,8.069810459475645
32249.88151999081,91.37466430664062,0,False,1,1.1333333333333333,1.0,1.0,1,1.145376438586145,1.3062234042553194,1.9898280315103376,8.120398166154974
32338.116814108456,91.62466430664062,1,True,1,1.1333333333333333,1.0,1.0,1,1.2144528962136492,1.2924757281553396,2.1538620315740515,8.174620023635942
32426.352108226103,91.87466430664062,0,True,1,1.1333333333333333,1.3,1.0,1.2,1.150216819677562,1.3088947368421056,2.0042191148710207,8.221412053070564
32514.58740234375,92.12466430664062,1,False,1,1.1333333333333333,1.0,1.0,1,1.2182049337845553,1.2896634615384612,2.1611570472222703,8.270774403027849
32602.822696461397,92.37466430664062,0,False,1,1.1333333333333333,1.3,1.0,2.4,1.1549558273771625,1.3277604166666668,2.032482945506019,8.314746051606555
32691.057990579044,92.62466430664062,1,True,2,1.1333333333333333,1.0,1.0,1,1.2218851589734057,1.286904761904762,2.1683305663443213,8.360708056842745
33043.99916704963,93.62466430664062,1,False,2,0.5666666666666667,1.0,1.0,1,1.2217158029800939,1.284198113207547,2.1654905877931965,8.403965195760286
33573.41093175551,95.12466430664062,0,True,1,0.20606060606060606,1.3,1.0,1.2,1.1528433835573322,1.3301546391752581,2.029252997379047,8.440798965205945
33749.881519990806,95.62466430664062,0,False,1,1.1333333333333333,1.3,1.0,1.7999999999999998,1.1506921450420844,1.3404591836734694,2.032828270406478,8.475027083657377
33926.3521082261,96.12466430664062,1,True,1,0.22666666666666666,1.0,1.0,1,1.215527657140781,1.2815420560747661,2.147000896315719,8.509634457789854
34102.82269646139,96.62466430664062,1,False,1,1.1333333333333333,1.0,1.0,1,1.2131323331545845,1.278935185185185,2.1384757579264613,8.540625044482494
34279.293284696694,97.12466430664062,0,True,1,0.3777777777777778,1.3,1.0,1.7999999999999998,1.1498874446728722,1.3505555555555557,2.039629833887872,8.565575996342892
34455.76387293199,97.62466430664062,0,False,2,1.1333333333333333,1.3,1.0,1.5,1.1490405477305976,1.35655,2.0427478828187686,8.58633754384972
34985.17563763787,99.12466430664062,1,True,1,0.22666666666666666,1.3,1.25,1,1.2108475313409217,1.2821100917431192,2.1353384724995053,8.605978749499952
35161.64622587316,99.62466430664062,1,False,1,1.1333333333333333,1.3,1.0,1.7999999999999998,1.208539393691717,1.2917272727272724,2.1378261904780107,8.620442590981307
35338.116814108456,100.12466430664062,0,True,1,0.22666666666666666,1.0,1.25,1,1.1472130536576375,1.3554950495049503,2.037220611119834,8.627865032354904
35514.58740234375,100.62466430664062,0,False,1,1.1333333333333333,1.0,1.0,1,1.1453485537685648,1.3520098039215684,2.029483246275679,8.629809945077156
35691.057990579044,101.12466430664062,1,True,1,0.3777777777777778,1.3,1.0,1.5,1.207296660043603,1.2976576576576573,2.139839459047795,8.63032838646207
35867.52857881434,101.62466430664062,1,False,2,1.1333333333333333,1.3,1.0,1.5,1.20602786963437,1.3034821428571424,2.1416993614090845,8.627207041806983
36396.94034352022,103.12466430664062,0,True,1,0.22666666666666666,1.3,1.25,1.2,1.1435919498215912,1.3578155339805824,2.030146473548338,8.620145623978884
36573.41093175551,103.62466430664062,0,False,1,1.1333333333333333,1.3,1.0,1.7999999999999998,1.1417992428684838,1.3672596153846153,2.033910924825148,8.602255729265625
36749.881519990806,104.12466430664062,1,True,1,0.22666666666666666,1.0,1.25,1,1.2038862134672428,1.3030088495575216,2.1357274213352824,8.598250368575567
36926.3521082261,104.62466430664062,1,False,1,1.1333333333333333,1.0,1.0,1,1.201721984008369,1.3003508771929821,2.127777011551106,8.58281625475019
37102.82269646139,105.12466430664062,0,True,1,0.3777777777777778,1.3,1.0,1.7999999999999998,1.1411240681732007,1.3765238095238093,2.040341939840725,8.57615297332908
37279.293284696694,105.62466430664062,0,False,2,1.1333333333333333,1.3,1.0,1.5,1.1404101480709623,1.3819339622641509,2.0433008335295524,8.558102773316419
37808.705049402575,107.12466430664062,1,True,1,0.22666666666666666,1.3,1.25,1,1.1996547516590925,1.3031739130434778,2.124924784272395,8.553340707029784
37985.17563763787,107.62466430664062,1,False,1,1.1333333333333333,1.3,1.0,1.7999999999999998,1.1975652199838969,1.3121120689655168,2.127423476901376,8.537487010908908
38161.64622587316,108.12466430664062,0,True,1,0.22666666666666666,1.0,1.25,1,1.1387645075574166,1.3807009345794388,2.0380766122767824,8.529765779532294
38338.116814108456,108.62466430664062,0,False,1,1.1333333333333333,1.0,1.0,1,1.137084775612522,1.3771759259259255,2.0307631576707483,8.510965936273022
38514.58740234375,109.12466430664062,1,True,1,0.3777777777777778,1.3,1.0,1.5,1.1964793377310152,1.317564102564102,2.129443482041197,8.505385616164057
38691.057990579044,109.62466430664062,1,False,2,1.1333333333333333,1.3,1.0,1.5,1.1953687346572361,1.3229237288135587,2.1313238843845057,8.489266601477134
39220.469755284925,111.12466430664062,0,True,1,0.22666666666666666,1.3,1.25,1.2,1.135499459834213,1.38243119266055,2.0313939433828456,8.480451088185127
39396.94034352022,111.62466430664062,0,False,1,1.1333333333333333,1.3,1.0,1.7999999999999998,1.1338808755111207,1.3911363636363632,2.034975417209704,8.461409759403617
39573.41093175551,112.12466430664062,1,True,1,0.22666666666666666,1.0,1.25,1,1.1934238444151237,1.3223109243697473,2.1257577783593655,8.45486070461937
39749.881519990806,112.62466430664062,1,False,1,1.1333333333333333,1.0,1.0,1,1.1914574385602326,1.3196249999999994,2.118309790957761,8.43802340713862
39926.3521082261,113.12466430664062,0,True,1,0.3777777777777778,1.3,1.0,1.7999999999999998,1.133312538367062,1.3996846846846842,2.041068673786939,8.42865729440118
40102.82269646139,113.62466430664062,0,False,2,1.1333333333333333,1.3,1.0,1.5,1.1327085525930782,1.404598214285714,2.0438798548396204,8.409535361262542
40632.23446116728,115.12466430664062,1,True,1,0.22666666666666666,1.3,1.25,1,1.189576784930927,1.322148760330578,2.1156984376667745,8.401565059082673
40808.705049402575,115.62466430664062,1,False,1,1.1333333333333333,1.3,1.0,1.7999999999999998,1.1876749091566228,1.330491803278688,2.1181875272912887,8.384402362297488
40985.17563763787,116.12466430664062,0,True,1,0.22666666666666666,1.0,1.25,1,1.1312173426750773,1.4032300884955748,2.0389254682131215,8.37259642797705
41161.64622587316,116.62466430664062,0,False,1,1.1333333333333333,1.0,1.0,1,1.1296946738611926,1.39969298245614,2.0319908574877816,8.352825518799055
41338.116814108456,117.12466430664062,1,True,1,0.3777777777777778,1.3,1.0,1.5,1.1867218026983215,1.3355284552845523,2.1201989435081745,8.342679620532111
41514.58740234375,117.62466430664062,1,False,2,1.1333333333333333,1.3,1.0,1.5,1.1857452988529182,1.3404838709677416,2.122082921349848,8.325328707451405
42043.99916704963,119.12466430664062,0,True,1,0.22666666666666666,1.3,1.25,1.2,1.128255277855333,1.404478260869565,2.0325884914519863,8.312386192961132
42220.469755284925,119.62466430664062,0,False,1,1.1333333333333333,1.3,1.0,1.7999999999999998,1.1267851697147322,1.4125431034482756,2.0359991071750367,8.292440706557914
42396.94034352022,120.12466430664062,1,True,1,0.22666666666666666,1.0,1.25,1,1.1839700505774835,1.3397599999999996,2.1168715491955234,8.274662394130953
42573.41093175551,120.62466430664062,1,False,1,1.1333333333333333,1.0,1.0,1,1.1821743568815952,1.3370634920634916,2.1098666166784295,8.2644483012919
42749.881519990806,121.12466430664062,0,True,1,0.3777777777777778,1.3,1.0,1.7999999999999998,1.1263057603879774,1.4204700854700851,2.0417845067937375,8.253476467933114
42926.3521082261,121.62466430664062,0,False,2,1.1333333333333333,1.3,1.0,1.5,1.1257934785864165,1.4249576271186437,2.0444593055770115,8.234188630251252
43632.23446116728,123.62466430664062,0,True,2,0.2833333333333333,1.3,1.0,1.2,1.1247703584677329,1.4260924369747896,2.042890153286699,8.214423794067425
43985.17563763787,124.62466430664062,0,False,2,0.5666666666666667,1.3,1.0,3.0,1.1203771658050874,1.446708333333333,2.0500789824861765,8.20480822906482
44338.116814108456,125.62466430664062,0,True,2,0.5666666666666667,1.0,1.0,1,1.1177298410160457,1.4430165289256196,2.0401606229952045,8.184547457341141
44691.057990579044,126.62466430664062,0,False,2,0.5666666666666667,1.0,1.0,1,1.1151260963432787,1.439385245901639,2.030428779140385,8.163604686626895
45043.99916704963,127.62466430664062,0,True,2,0.5666666666666667,1.0,1.0,1,1.1125648644274397,1.4358130081300813,2.02087831984972,8.154226907670743
45396.94034352022,128.62466430664062,0,False,2,0.5666666666666667,1.0,1.0,1,1.1100451124832498,1.432298387096774,2.0115042982939606,8.133020982543218
45749.881519990806,129.62466430664062,0,True,2,0.5666666666666667,1.0,1.0,1,1.107565840910802,1.4288399999999999,2.0023019437697616,8.111825895502907
46102.82269646139,130.62466430664062,0,False,2,0.5666666666666667,1.0,1.0,1,1.1051260819732651,1.425436507936508,1.993266654004842,8.102677250698859
46455.76387293199,131.62466430664062,0,True,2,0.5666666666666667,1.0,1.0,1,1.1027248985373157,1.4220866141732282,1.9843939878599453,8.093658409268645
46808.705049402575,132.62466430664062,0,False,2,0.5666666666666667,1.0,1.0,1,1.1003613828728527,1.4187890625,1.975679658404078,8.083751844242554
47161.64622587316,133.62466430664062,0,True,2,0.5666666666666667,1.6,1.0,1,1.1023231804263953,1.4312890624999999,1.9914269198392531,8.073675436645727
47514.58740234375,134.62466430664062,0,True,2,0.5666666666666667,1.6,1.0,1,1.105449156117585,1.4320703124999998,1.9998681925906847,8.053127205356766
47867.52857881434,135.62466430664062,0,True,2,0.5666666666666667,1.6,1.0,1,1.1023231744725663,1.4351953125,1.9948401001056082,8.042549456445391
48220.469755284925,136.62466430664062,0,True,2,0.5666666666666667,1.6,1.0,1,1.0960623525831907,1.4320703125,1.9766165109832952,8.030872883011273
48573.41093175551,137.62466430664062,0,True,2,0.5666666666666667,1.6,1.0,1,1.0929274615924547,1.4367578125,1.9729576206569537,8.010804448440757
48926.3521082261,138.62466430664062,0,False,2,0.5666666666666667,1.0,1.0,1,1.0898015369732854,1.4367578125000002,1.965254072472565,7.998888977219654
49279.293284696694,139.62466430664062,0,True,2,0.5666666666666667,1.0,1.0,1,1.0835407216601656,1.4367578125000002,1.949871647604726,7.986623080763503
49632.23446116728,140.62466430664062,0,False,2,0.5666666666666667,1.0,1.0,1,1.0772799066490057,1.4367578125000002,1.9345514720362162,7.96649332320037
49985.17563763787,141.62466430664062,0,True,2,0.5666666666666667,1.0,1.0,1,1.075188917612784,1.4367578125000002,1.9294486724861777,7.946699000685875
50161.64622587316,142.12466430664062,1,False,1,1.1333333333333333,1.0,1.0,1,1.1029559594192782,1.3192968749999994,1.8966533086817126,7.925562330561352
50338.116814108456,142.62466430664062,0,False,2,0.5666666666666667,1.0,1.0,1,1.0731060301452646,1.4367578125000002,1.9243725221479941,7.9048188753125554
50514.58740234375,143.12466430664062,1,False,1,1.1333333333333333,1.0,1.0,1,1.1154775921350217,1.3046484374999996,1.9147255900987696,7.892070183378698
50691.057990579044,143.62466430664062,0,True,2,0.5666666666666667,1.0,1.0,1,1.0723675665105792,1.4367578125000002,1.922574479053762,7.870889836732545
50867.52857881434,144.12466430664062,1,False,1,1.1333333333333333,1.0,1.0,1,1.133007879788837,1.3046484374999996,1.9577820145449847,7.850337433393616
51043.99916704963,144.62466430664062,0,False,2,0.5666666666666667,1.0,1.0,1,1.0747587456869672,1.4367578125000002,1.9283997494953877,7.839010690921044
51220.469755284925,145.12466430664062,1,False,1,1.1333333333333333,1.0,1.0,1,1.1455295151008145,1.2899999999999996,1.9762750989647346,7.819182472421573
51396.94034352022,145.62466430664062,0,True,2,0.5666666666666667,1.0,1.0,1,1.0747587456869672,1.4240625000000002,1.9174914020193954,7.797875494481595
51573.41093175551,146.12466430664062,0,False,1,1.1333333333333333,1.0,1.0,1,1.0778937120287586,1.4221093750000002,1.9234438483115452,7.787241131976823
51749.881519990806,146.62466430664062,0,True,2,1.1333333333333333,1.0,1.0,1,1.0866689533291394,1.4221093750000002,1.9448777282049492,7.777527580906739
51926.3521082261,147.12466430664062,0,False,1,1.1333333333333333,1.0,1.0,1,1.0954239948997213,1.4221093750000002,1.9663848710499665,7.7678845691175455
52102.82269646139,147.62466430664062,0,True,2,1.1333333333333333,1.0,1.0,1,1.1016848107718389,1.4094140625000005,1.9708021756903251,7.757840071751471
52279.293284696694,148.12466430664062,0,False,1,1.1333333333333333,1.0,1.0,1,1.1079456269312413,1.4074609375000005,1.9845807722369737,7.739019274721907
52455.76387293199,148.62466430664062,0,True,2,1.1333333333333333,1.0,1.0,1,1.1142064433730858,1.4074609375000002,2.0001176593300745,7.729297003602669
52632.23446116728,149.12466430664062,0,False,1,1.1333333333333333,1.0,1.0,1,1.1173324664709077,1.4074609375000002,2.007899022472759,7.719297149299277
52808.705049402575,149.62466430664062,1,True,1,0.5666666666666667,1.0,1.0,1,1.1380165337887966,1.2806249999999997,1.9496591528860148,7.700508787401405
52896.94034352022,149.87466430664062,0,True,1,0.7555555555555556,1.0,1.0,1,1.1152474720129169,1.4027734375000003,1.998612538541456,7.683429158888233
52985.17563763787,150.12466430664062,1,False,1,1.1333333333333333,1.0,1.0,1,1.1348818314858027,1.2806249999999997,1.9419274583138781,7.67176457206654
53073.41093175551,150.37466430664062,0,False,1,1.1333333333333333,1.0,1.0,1,1.1131585722764037,1.4027734375000003,1.9934228277520483,7.65439065180437
53161.64622587316,150.62466430664062,1,True,1,1.1333333333333333,1.0,1.0,1,1.1348818553689257,1.2806249999999997,1.9419275171576493,7.642941611647105
53249.881519990806,150.87466430664062,0,True,1,1.1333333333333333,1.0,1.0,1,1.1131585722764037,1.4027734375000003,1.9934228277520483,7.625424772517392
53338.116814108456,151.12466430664062,1,False,1,1.1333333333333333,1.0,1.0,1,1.1348818553689257,1.2806249999999997,1.9419275171576493,7.613726889721944
53426.3521082261,151.37466430664062,0,False,1,1.1333333333333333,1.0,1.0,1,1.1131585961595272,1.4027734375000003,1.9934228870472959,7.5955533102067605
53514.58740234375,151.62466430664062,1,True,1,1.1333333333333333,1.0,1.0,1,1.1348818553689257,1.2576757812499997,1.9225130416408482,7.583652626753015
53602.82269646139,151.87466430664062,0,True,1,1.1333333333333333,1.0,1.0,1,1.11315862004265,1.3980859375000005,1.9893382250603229,7.566078038014871
53691.057990579044,152.12466430664062,1,False,1,1.1333333333333333,1.0,1.0,1,1.1348818553689257,1.2557226562499997,1.920867991111547,7.555060078003605
53779.293284696694,152.37466430664062,0,False,1,1.1333333333333333,1.0,1.0,1,1.11315862004265,1.3980859375000005,1.9893382250603229,7.546748717831751
53867.52857881434,152.62466430664062,1,True,1,1.1333333333333333,1.0,1.0,1,1.134881855368926,1.2483007812499998,1.9146273116732049,7.528033702651803
53955.76387293199,152.87466430664062,0,True,1,1.1333333333333333,1.0,1.0,1,1.11315862004265,1.3868554687500005,1.9795735767644633,7.520171876031687
54043.99916704963,153.12466430664062,1,False,1,1.1333333333333333,1.0,1.0,1,1.1348818553689257,1.2463476562499998,1.912987807851995,7.502078904522117
54132.23446116728,153.37466430664062,0,False,1,1.1333333333333333,1.0,1.0,1,1.11315862004265,1.3849023437500005,1.9778785218990818,7.495011560576508
54220.469755284925,153.62466430664062,1,True,2,1.1333333333333333,1.3,1.0,1,1.1348818553689257,1.2257421874999996,1.895762557400364,7.486285900963237
54396.94034352022,154.12466430664062,0,True,1,0.7555555555555556,1.0,1.0,1,1.1110736329199211,1.3681054687500005,1.9582013820175113,7.471374411499455
54485.17563763787,154.37466430664062,1,False,1,0.7555555555555556,1.3,1.0,2.4,1.1327968306604748,1.2403515624999997,1.9028628834528298,7.463508176793301
54573.41093175551,154.62466430664062,0,False,1,1.1333333333333333,1.0,1.0,1,1.1089847258481458,1.3661523437500005,1.9513780913345313,7.448998244430591
54661.64622587316,154.87466430664062,1,True,1,1.1333333333333333,1.3,1.0,1,1.1307079611744217,1.2352734374999998,1.8935226456967658,7.441633424960941
54749.881519990806,155.12466430664062,0,True,1,1.1333333333333333,1.0,1.0,1,1.1089847258481458,1.3549218750000005,1.9417243965556286,7.43625898004378
54838.116814108456,155.37466430664062,1,False,1,1.1333333333333333,1.3,1.0,2.4,1.1307079611744217,1.2498828124999999,1.9057402734077005,7.4221409253467385
54926.3521082261,155.62466430664062,0,False,1,1.1333333333333333,1.0,1.0,1,1.1089847258481458,1.3529687500000003,1.9400487510906617,7.4173764835690426
55014.58740234375,155.87466430664062,1,True,1,1.1333333333333333,1.3,1.0,1,1.1307079611744217,1.2475390625,1.9037758537111011,7.4042569469998
55102.82269646139,156.12466430664062,0,True,1,1.1333333333333333,1.0,1.0,1,1.1089847258481458,1.3361718750000002,1.9256785807815806,7.392268291778354
55191.057990579044,156.37466430664062,1,False,1,1.1333333333333333,1.3,1.0,2.4,1.1307079611744215,1.2641015625,1.9176931204911938,7.386846561015025
55279.293284696694,156.62466430664062,0,False,2,1.1333333333333333,1.0,1.0,1,1.1089847258481456,1.3342187500000002,1.9240123693998423,7.375416181616259
55632.23446116728,157.62466430664062,0,True,2,0.5666666666666667,1.0,1.0,1,1.1079417436779222,1.3342187500000002,1.92146442519527,7.370622919951715
55808.705049402575,158.12466430664062,1,False,1,1.1333333333333333,1.0,1.0,2.4,1.123194951624314,1.2773828125,1.910512599419455,7.365065822283665
55896.94034352022,158.37466430664062,0,False,1,0.7555555555555556,1.0,1.0,2.0,1.1048128027351047,1.3420312500000002,1.9204872971051616,7.3600604275319474
55985.17563763787,158.62466430664062,1,True,1,1.1333333333333333,1.3,1.0,1,1.123194951624314,1.2797265625,1.9124903259739816,7.355255175166754
56073.41093175551,158.87466430664062,0,True,1,1.1333333333333333,1.0,1.0,1,1.1027238845563894,1.3420312500000002,1.9153929287351095,7.345414223459393
56161.64622587316,159.12466430664062,1,False,1,1.1333333333333333,1.0,1.25,1,1.1231949516243138,1.2816796874999998,1.9141396360866185,7.341072353052123
56249.881519990806,159.37466430664062,0,False,1,1.1333333333333333,1.0,1.0,1,1.1027238845563891,1.3420312500000002,1.915392928735109,7.33717143528755
56338.116814108456,159.62466430664062,1,True,1,1.1333333333333333,1.75,1.25,1.5,1.1231949516243138,1.299501953125,1.9292396906069416,7.334059574397737
56426.3521082261,159.87466430664062,0,True,1,1.1333333333333333,1.0,1.0,1,1.1027238845563891,1.3420312500000002,1.915392928735109,7.330937422675196
56514.58740234375,160.12466430664062,1,False,1,1.1333333333333333,1.0,1.25,1,1.1231949516243136,1.301455078125,1.9308999291384554,7.323236555188646
56602.82269646139,160.37466430664062,0,False,1,1.1333333333333333,1.0,1.0,1,1.102723884556389,1.3420312500000002,1.9153929287351084,7.320488730477218
56691.057990579044,160.62466430664062,1,True,1,1.1333333333333333,1.3,1.25,1,1.1231949516243136,1.306337890625,1.9350551741538198,7.318665919006563
56779.293284696694,160.87466430664062,0,True,1,1.1333333333333333,1.0,1.0,1,1.1027238845563887,1.3420312500000002,1.915392928735108,7.316638500163751
56867.52857881434,161.12466430664062,1,False,1,1.1333333333333333,1.0,1.25,1,1.1231949516243134,1.308291015625,1.9367191244534672,7.310287144446823
56955.76387293199,161.37466430664062,0,False,1,1.1333333333333333,1.0,1.0,1,1.1027238845563887,1.3420312500000002,1.915392928735108,7.308503924012644
57043.99916704963,161.62466430664062,1,True,1,1.1333333333333333,1.0,1.0,1.5,1.1231949516243132,1.312197265625,1.9400501854352332,7.307355583891461
57220.469755284925,162.12466430664062,0,True,2,0.7555555555555556,1.0,1.0,1,1.100638916015427,1.3376562500000002,1.9065945346913569,7.300227542446105
57396.94034352022,162.62466430664062,0,False,1,1.1333333333333333,1.0,1.0,1,1.0985499903618847,1.3210937500000002,1.8874932804409723,7.297311801530871
57485.17563763787,162.87466430664062,1,True,1,0.7555555555555556,1.0,1.0,1,1.1211099469556212,1.316103515625,1.9382612976943245,7.291168864996032
57573.41093175551,163.12466430664062,0,True,1,1.1333333333333333,1.0,1.0,1,1.0985499903618847,1.3167187500000002,1.8838003486939046,7.287737870931595
57661.64622587316,163.37466430664062,1,False,1,1.1333333333333333,1.0,1.0,1,1.1190210574298092,1.316103515625,1.9331348976810852,7.281241021092715
57749.881519990806,163.62466430664062,0,False,1,1.1333333333333333,1.0,1.0,1,1.0985499903618847,1.3167187500000002,1.8838003486939046,7.277004728666357
57838.116814108456,163.87466430664062,1,True,1,1.1333333333333333,1.0,1.0,1,1.1190210574298092,1.316103515625,1.9331348976810852,7.270303489575617
57926.3521082261,164.12466430664062,0,True,1,1.1333333333333333,1.75,1.25,1.2,1.1023128959370865,1.3294140625000002,1.903664521833722,7.262843492211912
58014.58740234375,164.37466430664062,1,False,1,1.1333333333333333,1.0,1.0,1,1.1221558444711988,1.3161035156249998,1.9408308047276972,7.260324150519729
58102.82269646139,164.62466430664062,0,False,1,1.1333333333333333,1.0,1.25,1,1.1091978379632228,1.3313671875000002,1.9221020567238125,7.257169318478318
58191.057990579044,164.87466430664062,1,True,1,1.1333333333333333,1.0,1.0,1,1.1252818987215651,1.3114160156249999,1.9445155516124213,7.251400068071029
58279.293284696694,165.12466430664062,0,True,1,1.1333333333333333,1.3,1.25,1.2,1.116086667785386,1.3387890625000003,1.9453251680869754,7.245896785249587
58367.52857881434,165.37466430664062,1,False,1,1.1333333333333333,1.0,1.0,1,1.1252818987215651,1.306728515625,1.9405155232834175,7.243072801727911
58455.76387293199,165.62466430664062,0,False,1,1.1333333333333333,1.0,1.0,1.5,1.1229716346232357,1.3426953125000003,1.965648213013622,7.240876063479637
58632.23446116728,166.12466430664062,1,True,1,0.7555555555555556,1.0,1.0,1.2,1.1231968904437593,1.303603515625,1.932732177914295,7.2351033669456335
58720.469755284925,166.37466430664062,0,True,1,0.7555555555555556,1.0,1.0,1.2,1.1277684855375014,1.3442578125000004,1.9788692458630253,7.230574335875237
58808.705049402575,166.62466430664062,1,False,1,1.1333333333333333,1.0,1.0,1,1.1211080045270614,1.2989160156250001,1.9236285861723141,7.227337850601926
58896.94034352022,166.87466430664062,0,False,1,1.1333333333333333,1.0,1.0,1,1.1294368074012144,1.3442578125000004,1.9830081940267195,7.226013674699178
58985.17563763787,167.12466430664062,1,True,1,1.1333333333333333,1.0,1.0,1,1.1231968904437593,1.2989160156250001,1.9287465806425188,7.219999176827739
59073.41093175551,167.37466430664062,0,True,1,1.1333333333333333,1.0,1.0,1,1.1294368074012144,1.3395703125000005,1.9789576894910885,7.2153623105973885
59161.64622587316,167.62466430664062,1,False,1,1.1333333333333333,1.0,1.0,1,1.1252818987215654,1.2989160156250001,1.933862395219986,7.212618966584392
59249.881519990806,167.87466430664062,0,False,1,1.1333333333333333,1.0,1.0,1,1.1294368074012144,1.3348828125000005,1.974913069951159,7.210937988641224
59338.116814108456,168.12466430664062,1,True,1,1.1333333333333333,1.75,1.25,1.5,1.1299872860149243,1.31673828125,1.9606731629516272,7.205950309888685
59426.3521082261,168.37466430664062,0,True,1,1.1333333333333333,1.0,1.0,1,1.1294368074012144,1.3301953125000006,1.9708743716384152,7.201479810453048
59514.58740234375,168.62466430664062,1,False,1,1.1333333333333333,1.0,1.25,1,1.13780788763485,1.31869140625,1.981731405363687,7.199809868115254
59602.82269646139,168.87466430664062,0,False,1,1.1333333333333333,1.0,1.0,1,1.1294368074012144,1.3255078125000006,1.966841631028673,7.197631378181498
59691.057990579044,169.12466430664062,1,True,1,1.1333333333333333,1.3,1.25,1,1.1446966705275123,1.32357421875,2.0031142445261296,7.194160729443572
59779.293284696694,169.37466430664062,0,True,1,1.1333333333333333,1.0,1.0,1,1.1315256790468755,1.3255078125000006,1.9720130468357115,7.189732746330685
59867.52857881434,169.62466430664062,1,False,1,1.1333333333333333,1.0,1.0,1.5,1.1484470115010625,1.32748046875,2.0158876346935504,7.18910053382095
60043.99916704963,170.12466430664062,0,False,2,0.7555555555555556,1.0,1.0,1.5,1.1315256790468755,1.3294140625000004,1.9753768500716626,7.187522456759904
60220.469755284925,170.62466430664062,0,True,1,1.1333333333333333,1.0,1.0,1,1.1341421589524605,1.3294140625000004,1.9818692690317423,7.1833177446126735
60308.705049402575,170.87466430664062,1,False,1,0.7555555555555556,1.0,1.0,1,1.1463619640445575,1.3243554687499999,2.007954723277244,7.179802687342688
60396.94034352022,171.12466430664062,0,False,1,1.1333333333333333,1.0,1.0,1,1.141962780646382,1.3294140625000004,2.0013433654292943,7.178946480641152
60485.17563763787,171.37466430664062,1,True,1,1.1333333333333333,1.0,1.0,1,1.1442731173065586,1.31966796875,1.9986768369073464,7.177912254685193
60573.41093175551,171.62466430664062,0,True,1,1.1333333333333333,1.75,1.25,1.2,1.1488515569153066,1.3421093750000002,2.029639819515603,7.1751736437797
60661.64622587316,171.87466430664062,1,False,1,1.1333333333333333,1.0,1.0,1,1.1442731173065586,1.31498046875,1.9946274344677744,7.171649662888145
60749.881519990806,172.12466430664062,0,False,1,1.1333333333333333,1.0,1.25,1,1.1526019201807114,1.3440625000000002,2.040787465599314,7.171641650651736
60838.116814108456,172.37466430664062,1,True,1,1.1333333333333333,1.0,1.0,1,1.1463619640445573,1.31498046875,1.999841304874379,7.170386896028899
60926.3521082261,172.62466430664062,0,True,1,1.1333333333333333,1.3,1.25,1.2,1.1526019201807112,1.3467968750000001,2.043180921238548,7.168320713353791
61014.58740234375,172.87466430664062,1,False,1,1.1333333333333333,1.0,1.0,1,1.1484470115010619,1.31498046875,2.0050530355525846,7.165097264202455
61102.82269646139,173.12466430664062,0,False,1,1.1333333333333333,1.0,1.25,1,1.152601920180711,1.3440625000000002,2.0407874655993132,7.165150316581107
61191.057990579044,173.37466430664062,1,True,1,1.1333333333333333,1.0,1.0,1,1.1531522028043868,1.31498046875,2.0168409953458077,7.164718663868358
61279.293284696694,173.62466430664062,0,True,1,1.1333333333333333,1.0,1.0,1.2,1.1526019201807107,1.3409375000000003,2.0380546136907967,7.162378192221141
61455.76387293199,174.12466430664062,1,False,1,0.7555555555555556,1.0,1.0,1.5,1.158882216766412,1.31888671875,2.03464544169766,7.159886907156363
61543.99916704963,174.37466430664062,0,False,1,0.7555555555555556,1.0,1.0,2.0,1.150516865863955,1.3440625000000004,2.035534894889254,7.159970856635549
61632.23446116728,174.62466430664062,1,True,1,1.1333333333333333,1.0,1.0,1,1.1599252205359472,1.31888671875,2.0372753991060617,7.1600072209845536
61720.469755284925,174.87466430664062,0,True,1,1.1333333333333333,1.0,1.0,1,1.1515627015248102,1.3440625000000004,2.0381686038323665,7.157764801908463
61808.705049402575,175.12466430664062,1,False,1,1.1333333333333333,1.0,1.0,1,1.1599252205359472,1.31888671875,2.0372753991060617,7.155696519326538
61896.94034352022,175.37466430664062,0,False,1,1.1333333333333333,1.0,1.0,1,1.154688867277962,1.3440625000000004,2.046052105352437,7.155818112544846
61985.17563763787,175.62466430664062,1,True,1,1.1333333333333333,1.75,1.25,1.5,1.159925220535947,1.336708984375,2.052843974314931,7.156057010098652
62073.41093175551,175.87466430664062,0,True,1,1.1333333333333333,1.0,1.0,1,1.154688867277962,1.3440625000000004,2.046052105352437,7.1561471010297755
62161.64622587316,176.12466430664062,1,False,1,1.1333333333333333,1.0,1.25,1,1.1636877885201475,1.316005859375,2.044265507996215,7.155981462424581
62249.881519990806,176.37466430664062,0,False,1,1.1333333333333333,1.0,1.0,1,1.1588702780382003,1.3440625000000002,2.056622345275418,7.156450492902363
62338.116814108456,176.62466430664062,1,True,1,1.1333333333333333,1.3,1.25,1,1.1705728365248338,1.3185449218749998,2.063929871735444,7.157405012314035
62426.3521082261,176.87466430664062,0,True,1,1.1333333333333333,1.0,1.0,1,1.1672180073433889,1.3440625000000002,2.077812598252684,7.159027194449469
62514.58740234375,177.12466430664062,1,False,1,1.1333333333333333,1.0,1.25,1,1.1768336435744895,1.2978417968749998,2.0617543574211274,7.160458928556006
62602.82269646139,177.37466430664062,0,False,1,1.1333333333333333,1.0,1.0,1,1.1745190258163478,1.3440625000000002,2.096442088662581,7.163141187215571
62691.057990579044,177.62466430664062,1,True,1,1.1333333333333333,1.0,1.0,1.5,1.1830944509233627,1.2994042968749995,2.0790723170791043,7.165585978256443
62867.52857881434,178.12466430664062,0,True,2,0.7555555555555556,1.0,1.0,1,1.1797340677341643,1.3440625000000002,2.109804054991753,7.169159185403552
63043.99916704963,178.62466430664062,0,False,1,1.1333333333333333,1.0,1.0,1,1.1860004077428208,1.3440625000000002,2.125920525586267,7.17343987636147
63132.23446116728,178.87466430664062,1,True,1,0.7555555555555556,1.0,1.0,1,1.1935255010616703,1.3033105468749997,2.109240700067813,7.176796648677826
63220.469755284925,179.12466430664062,0,True,1,1.1333333333333333,1.0,1.0,1,1.1933014840287435,1.3440625000000002,2.1447822192886803,7.180925566297884
63308.705049402575,179.37466430664062,1,False,1,1.1333333333333333,1.0,1.0,1,1.1977030300895093,1.3033105468749997,2.120005726847625,7.184491808803573
63396.94034352022,179.62466430664062,0,False,1,1.1333333333333333,1.0,1.0,1,1.2006089480565658,1.3440625000000002,2.1637511064054062,7.189823682784079
63485.17563763787,179.87466430664062,1,True,1,1.1333333333333333,1.0,1.0,1,1.2039638501074081,1.3033105468749997,2.1361953812534744,7.1944746836660745
63573.41093175551,180.12466430664062,0,True,1,1.1333333333333333,1.75,1.25,1.2,1.2089566863483923,1.3567578125000002,2.196966715158494,7.201076683727603
63661.64622587316,180.37466430664062,1,False,1,1.1333333333333333,1.0,1.0,1,1.210224670345418,1.3033105468749997,2.1524525832657027,7.2068486577303785
63749.881519990806,180.62466430664062,0,False,1,1.1333333333333333,1.0,1.25,1,1.216257824598028,1.3587109375000002,2.2179215977387132,7.214922492483793
63838.116814108456,180.87466430664062,1,True,1,1.1333333333333333,1.0,1.0,1,1.2164854908001408,1.3033105468749997,2.168777452964196,7.221741492971318
63926.3521082261,181.12466430664062,0,True,1,1.1333333333333333,1.3,1.25,1.2,1.2240888539502393,1.3661328125,2.245364834595829,7.2316770471510745
64014.58740234375,181.37466430664062,1,False,1,1.1333333333333333,1.0,1.0,1,1.222746311468247,1.3033105468749995,2.18517010899932,7.2391077408951885
64102.82269646139,181.62466430664062,0,False,1,1.1333333333333333,1.0,1.0,1.5,1.234003875922086,1.3473828125,2.2546186290240797,7.248792037090194
64279.293284696694,182.12466430664062,1,True,1,0.7555555555555556,1.0,1.0,1.2,1.2269166422035336,1.3048730468749996,2.197523172853048,7.2566259268268025
64367.52857881434,182.37466430664062,0,True,1,0.7555555555555556,1.0,1.0,1.2,1.2402541266078173,1.3445703125,2.2687158974609907,7.265485113318949
64455.76387293199,182.62466430664062,1,False,1,1.1333333333333333,1.0,1.0,1,1.2310940726853592,1.3048730468749996,2.208531396190918,7.2734666767212826
64543.99916704963,182.87466430664062,0,False,1,1.1333333333333333,1.0,1.0,1,1.2444315192046662,1.3219140624999999,2.259274452038286,7.281529947351431
64632.23446116728,183.12466430664062,1,True,1,1.1333333333333333,1.0,1.0,1,1.2373548938387935,1.3048730468749996,2.2250864217831277,7.290294002328606
64720.469755284925,183.37466430664062,0,True,1,1.1333333333333333,1.0,1.0,1,1.250692340786392,1.3175390624999999,2.2720438348267735,7.300226378506894
64808.705049402575,183.62466430664062,1,False,1,1.1333333333333333,1.0,1.0,1,1.2436157151949956,1.3048730468749996,2.2417095922435575,7.308683767633057
64896.94034352022,183.87466430664062,0,False,1,1.1333333333333333,1.0,1.0,1,1.2569531625644677,1.3175390624999999,2.2888424872391973,7.317871290494325
64985.17563763787,184.12466430664062,1,True,1,1.1333333333333333,1.75,1.25,1.5,1.2498765367509184,1.3226953124999996,2.2745398157980135,7.32652544028708
65073.41093175551,184.37466430664062,0,True,1,1.1333333333333333,1.0,1.0,1,1.2632139845359733,1.3175390624999999,2.305709419785164,7.335675097924644
65161.64622587316,184.62466430664062,1,False,1,1.1333333333333333,1.0,1.25,1,1.2571838601407137,1.3246484374999996,2.2959374211451746,7.344103650044485
65249.881519990806,184.87466430664062,0,False,1,1.1333333333333333,1.0,1.0,1,1.2694748066980475,1.3175390624999999,2.3226447426211942,7.353071444117775
65338.116814108456,185.12466430664062,1,True,1,1.1333333333333333,1.0,1.0,1,1.265531602825775,1.3246484374999994,2.318467615721854,7.363579603992481
65426.3521082261,185.37466430664062,0,True,1,1.1333333333333333,1.0,1.0,1,1.275735629047884,1.3175390624999999,2.3396485646040968,7.373296466391313
65514.58740234375,185.62466430664062,1,False,1,1.1333333333333333,1.0,1.0,1,1.272832884117063,1.3246484374999994,2.338273007604193,7.384589218096484
65602.8226964614,185.87466430664062,0,False,1,1.1333333333333333,1.0,1.0,1,1.2819964515827322,1.3175390624999999,2.356720993306058,7.3949403775478535
65691.05799057904,186.12466430664062,1,True,1,1.1333333333333333,1.0,1.0,1,1.2801401539589228,1.3246484374999994,2.358187834001525,7.406800544544178
65779.29328469669,186.37466430664062,0,True,1,1.1333333333333333,1.0,1.0,1,1.288257274299895,1.3175390624999999,2.373862135029585,7.4176400926195
65867.52857881434,186.62466430664062,1,False,1,1.1333333333333333,1.0,1.0,1,1.288487898263261,1.3246484374999994,2.381052616004434,7.4301517272718
65955.76387293199,186.87466430664062,0,False,1,1.1333333333333333,1.0,1.0,1,1.2945180971967265,1.3175390624999999,2.391072094822304,7.441481623058951
66043.99916704964,187.12466430664062,1,True,1,1.1333333333333333,1.3,1.0,1,1.2957892339883983,1.3269921874999995,2.4033233178425295,7.4551809596004155
66132.23446116727,187.37466430664062,0,True,1,1.1333333333333333,1.0,1.0,1,1.300778920270633,1.3175390624999996,2.4083509764916315,7.467119549479087
66220.46975528492,187.62466430664062,1,False,1,1.1333333333333333,1.3,1.0,2.4,1.3030964521549553,1.3435546874999995,2.438984280791226,7.4818818159514455
66308.70504940258,187.87466430664062,0,False,1,1.1333333333333333,1.0,1.0,1,1.3059941886604758,1.3175390624999999,2.4227969842557493,7.494232004191958
66396.94034352023,188.12466430664062,1,True,1,1.1333333333333333,1.3,1.0,1,1.311444197994015,1.3458984374999994,2.4644435519533348,7.509897471600565
66573.41093175551,188.62466430664062,1,False,1,1.1333333333333333,1.3,1.0,2.4,1.318745586234095,1.3624609374999994,2.500541148990382,7.5247409773498495
66661.64622587316,188.87466430664062,0,True,1,0.5666666666666667,1.0,1.0,1,1.3049528024170203,1.3175390624999996,2.419908571576945,7.539184258797541
66749.88151999081,189.12466430664062,1,True,1,1.1333333333333333,1.3,1.0,1,1.3218722913993954,1.3648046874999995,2.5115706383677026,7.554390314647239
66838.11681410845,189.37466430664062,0,False,1,1.1333333333333333,1.0,1.0,1,1.3018186270194376,1.3175390624999996,2.4112270829814,7.56907702655969
66926.3521082261,189.62466430664062,1,False,2,1.1333333333333333,1.3,1.0,2.25,1.3250064099696839,1.3798437499999994,2.534751724705082,7.585504207026732
67102.8226964614,190.12466430664062,1,True,1,1.1333333333333333,1.0,1.0,1,1.3281331326911514,1.3798437499999994,2.5436112253462664,7.603760528924274
67191.05799057904,190.37466430664062,0,True,1,0.5666666666666667,1.0,1.0,1.44,1.2986919792264808,1.3166015624999996,2.401716738235798,7.616591662090283
67279.29328469669,190.62466430664062,1,False,1,1.1333333333333333,1.0,1.0,1,1.3281331326911514,1.3798437499999994,2.5436112253462664,7.6351141077932665
67367.52857881434,190.87466430664062,0,False,1,1.1333333333333333,1.0,1.0,1,1.2955577857276817,1.3000390624999996,2.3778238355158052,7.647539534776765
67455.76387293199,191.12466430664062,1,True,1,1.1333333333333333,1.75,1.25,1.5,1.3281331326911514,1.3976660156249994,2.5607178004184985,7.666201277284644
67543.99916704964,191.37466430664062,0,True,1,1.1333333333333333,1.0,1.0,1,1.3006903792571844,1.2956640624999995,2.387941723635206,7.678962727838317
67632.23446116727,191.62466430664062,1,False,1,1.1333333333333333,1.0,1.25,1,1.3312672338704028,1.3996191406249994,2.571519769037911,7.69798821267579
