TimeMS,Beat,Type,Forehand,numNotes,SwingSpeed,Angle Diff,AngleChangeDiff,Pos Diff,C Stamina,C Pattern Diff,C CombinedDiff,C SmoothedDiff
2088.705882352941,11.836,1,True,1,0,1.0,0,1,1.7144730781760933,0,0.0,0.0
2132.823529411765,12.086,0,True,1,0,1.0,0,1,0,0,0,0.0
2176.9411764705883,12.336,1,False,1,2.2666666666666666,1.0,1.0,1,0.07083333333333333,0.03125,7.560589264348162e-05,0.00010884728344239904
2221.0588235294117,12.586,0,False,1,2.2666666666666666,1.0,1.0,1,0.07083333333333333,0.03125,7.560589264348162e-05,0.00016327092516359856
2265.176470588235,12.836,1,True,2,2.2666666666666666,1.0,1.0,1,0.1583881484062351,0.0625,0.0006651307533106299,0.000705156684840601
2309.294117647059,13.086,0,True,1,2.2666666666666666,1.0,1.0,1,0.1583881484062351,0.0625,0.0006651307533106299,0.0010664138579586024
2353.4117647058824,13.336,1,False,1,2.2666666666666666,1.0,1.0,1,0.2553932153453659,0.09375,0.0023911218687825996,0.0023893912141462375
2397.529411764706,13.586,0,False,1,2.2666666666666666,1.0,1.0,1,0.2553932153453659,0.09375,0.0023911218687825996,0.003381624231286964
2441.6470588235293,13.836,1,True,1,2.2666666666666666,1.0,1.0,1,0.35416666666666663,0.125,0.005868410279075503,0.005822073093958088
2485.764705882353,14.086,0,True,1,2.2666666666666666,1.0,1.0,1,0.35416666666666663,0.125,0.005868410279075503,0.007774432184094991
2529.8823529411766,14.336,1,False,1,2.2666666666666666,1.0,1.0,1,0.4535546334848267,0.15625,0.011711776389207488,0.011666134915085186
2574.0,14.586,0,False,1,2.2666666666666666,1.0,1.0,1,0.4535546334848267,0.15625,0.011711776389207488,0.014909220524243677
2618.1176470588234,14.836,1,True,1,2.2666666666666666,1.0,1.0,1,0.5532260187100546,0.1875,0.020536043626501913,0.020585062977983532
2662.2352941176473,15.086,0,True,1,2.2666666666666666,1.0,1.0,1,0.5532260187100546,0.1875,0.020536043626501913,0.02545007079547484
2706.3529411764707,15.336,1,False,1,2.2666666666666666,1.0,1.0,1,0.6530510657249128,0.21875,0.03295605085214165,0.03324254498446984
2750.470588235294,15.586,0,False,1,2.2666666666666666,1.0,1.0,1,0.6530510657249128,0.21875,0.03295605085214165,0.04006095989984046
2794.5882352941176,15.836,1,True,2,2.2666666666666666,1.0,1.0,1,0.7529686617353708,0.25,0.049586643140581595,0.05030235706597759
3500.4705882352937,19.836,1,True,1,0.2833333333333335,1.0,2.0,1,0.807672793098669,0.3125,0.08457231920566664,0.0678004398206052
3544.5882352941176,20.086,0,True,1,0.25185185185185194,1.0,1.0,1,0.7068013268021451,0.25,0.04685700135990855,0.07488333187601783
3588.705882352941,20.336,1,False,1,2.2666666666666666,1.0,1.0,1,0.8654466698578575,0.34375,0.1100361870921439,0.09490147988476541
3632.8235294117644,20.586,0,False,1,2.2666666666666666,1.0,1.0,1,0.7640747529215489,0.28125,0.06440401373649869,0.10362812062015456
3676.941176470588,20.836,1,True,1,2.2666666666666666,1.0,1.0,1,0.9654696364586567,0.375,0.14565088803288725,0.12751166901987668
3721.0588235294113,21.086,0,True,1,2.2666666666666666,1.0,1.0,1,0.8640577074937105,0.3125,0.08972967302718801,0.13881735548877006
3765.176470588235,21.336,1,False,1,2.2666666666666666,1.0,1.0,1,1.065520879158926,0.40625,0.18820053532122108,0.16690155367891937
3809.2941176470586,21.586,0,False,1,2.2666666666666666,1.0,1.0,1,0.9640802145832531,0.34375,0.12094452417889544,0.18111986752890857
3853.411764705882,21.836,1,True,1,2.2666666666666666,1.0,1.0,1,1.1655931165582847,0.4375,0.2382999021147104,0.21373899867139026
3897.5294117647054,22.086,0,True,1,2.2666666666666666,1.0,1.0,1,1.0641311210875004,0.375,0.15866339563155546,0.2312030063403272
3941.6470588235293,22.336,1,False,1,2.2666666666666666,1.0,1.0,1,1.2656813687721502,0.46875,0.2965637855283979,0.2686907200316423
3985.7647058823527,22.586,0,False,1,2.2666666666666666,1.0,1.0,1,1.1642031051442159,0.40625,0.20350112356329392,0.28973315563985697
4029.882352941176,22.836,1,True,2,2.2666666666666666,1.0,1.0,1,1.365782114976718,0.5,0.3636069981441396,0.3324226712846796
4073.9999999999995,23.086,0,True,1,2.2666666666666666,1.0,1.0,1,1.2642911617314947,0.4375,0.25607254890712555,0.3573760476538795
4118.117647058823,23.336,1,False,1,2.2666666666666666,1.0,1.0,1,1.4658927956600558,0.53125,0.44004436288864407,0.40560028376832247
4162.235294117647,23.586,0,False,1,2.2666666666666666,1.0,1.0,1,1.364391753742947,0.46875,0.31699251564814807,0.4347969622930506
4206.35294117647,23.836,1,True,1,2.2666666666666666,1.0,1.0,1,1.5660115055740416,0.5625,0.5264907098188925,0.4888886215111313
4250.470588235294,24.086,0,True,1,2.2666666666666666,1.0,1.0,1,1.464502310744364,0.5,0.3868758698031888,0.5226608575159556
4294.588235294117,24.336,1,False,1,2.2666666666666666,1.0,1.0,1,1.6661367972819467,0.59375,0.6235608740352768,0.5829524841115779
4338.7058823529405,24.586,0,False,1,2.2666666666666666,1.0,1.0,1,1.5646209199399876,0.53125,0.46633745878394084,0.6216324570947203
4382.823529411764,24.836,1,True,1,2.2666666666666666,1.0,1.0,1,1.766267551467799,0.625,0.7318696942866889,0.6884564768981277
4426.941176470588,25.086,0,True,1,2.2666666666666666,1.0,1.0,1,1.664746128542298,0.5625,0.5559921309854234,0.7323763111757666
4471.058823529412,25.336,1,False,1,2.2666666666666666,1.0,1.0,1,1.86640288896144,0.65625,0.8520320120140542,0.8060650598935901
4515.176470588235,25.586,0,False,1,2.2666666666666666,1.0,1.0,1,1.764876813356595,0.59375,0.6564547355119724,0.8555568389858489
4559.294117647059,25.836,1,True,1,2.2666666666666666,1.0,1.0,1,1.9665421096237956,0.6875,0.984662670679617,0.9364425826925017
4603.411764705882,26.086,0,True,1,2.2666666666666666,1.3,1.0,1,1.8650120923456057,0.634375,0.792770082027391,0.9942921501711944
4647.529411764705,26.336,1,False,1,2.2666666666666666,1.0,1.0,1,2.0666846489893067,0.71875,1.1303765152871459,1.0826513324292397
4691.647058823529,26.586,0,False,1,2.2666666666666666,1.0,1.0,1,1.96515126321395,0.665625,0.9192625757621535,1.1468211931467396
4735.764705882352,26.836,1,True,1,2.2666666666666666,1.0,1.0,1,2.166830046924987,0.75,1.2897883920325548,1.2429902121041716
4779.882352941177,27.086,0,True,1,2.2666666666666666,1.0,1.0,1,2.0652937598491596,0.696875,1.0585359809379276,1.3138163118821873
4824.0,27.336,1,False,1,2.2666666666666666,1.0,1.0,1,2.2669779245926227,0.78125,1.4635131480453918,1.4181308321848094
4868.117647058823,27.586,0,False,1,2.2666666666666666,1.0,1.0,1,2.165439120842887,0.728125,1.211205147296969,1.4959484688989082
4912.235294117647,27.836,1,True,1,2.2666666666666666,1.0,1.0,1,2.3671279672565344,0.8125,1.652165631194775,1.6087435667435346
4956.35294117647,28.086,0,True,1,2.2666666666666666,1.0,1.0,1,2.2655869663568864,0.759375,1.3778849249009941,1.6938875162318463
5000.470588235294,28.336,1,False,1,2.2666666666666666,1.0,1.0,1,2.4672799112768447,0.84375,1.8563606899417886,1.815497791301591
5044.588235294117,28.586,0,False,1,2.2666666666666666,1.0,1.0,1,2.365736980862417,0.790625,1.5591901640645005,1.9083024050241
5088.7058823529405,28.836,1,True,1,2.2666666666666666,1.0,1.0,1,2.5674335341459065,0.875,2.076713173225863,2.0390620678044407
5132.823529411764,29.086,0,True,1,2.2666666666666666,1.0,1.0,1,2.4658889000841655,0.821875,1.755735715304121,2.1398613493788785
5176.941176470588,29.336,1,False,1,2.2666666666666666,1.0,1.0,1,2.667588646768473,0.90625,2.313837930376346,2.280104289948817
5221.058823529412,29.586,0,False,1,2.2666666666666666,1.0,1.0,1,2.5660425010005214,0.853125,1.9681364292996801,2.38923195570665
5265.176470588235,29.836,1,True,1,2.2666666666666666,1.0,1.0,1,2.7677450874174823,0.9375,2.568349811042993,2.5392917984340304
5309.294117647059,30.086,0,True,1,2.2666666666666666,1.0,1.0,1,2.666197594096914,0.884375,2.1970071568639153,2.6570813257571024
5353.411764705882,30.336,1,False,1,2.2666666666666666,1.0,1.0,1,2.8679027169560003,0.96875,2.840863665140804,2.8172914731568692
5397.529411764705,30.586,0,False,1,2.2666666666666666,1.0,1.0,1,2.766354017301433,0.915625,2.442962748918706,2.9440761393769193
5441.647058823529,30.836,1,True,1,2.2666666666666666,1.0,1.0,1,2.968061415026322,1.0,3.1319943428058825,3.1147698075575905
5485.764705882352,31.086,0,True,1,2.2666666666666666,1.0,1.0,1,2.8665116311914427,0.946875,2.7066180564762155,3.2508827214998632
5529.882352941177,31.336,1,False,1,2.2666666666666666,1.0,1.0,1,3.020572680182148,1.0,3.181801269134005,3.4148095489981434
5574.0,31.586,0,False,1,2.2666666666666666,1.0,1.0,1,2.9666703151709193,0.978125,2.9885879306238223,3.560854190896084
5618.117647058823,31.836,1,True,1,2.2666666666666666,1.0,1.0,1,3.0260967966628534,1.0,3.187045939859227,3.71546020943178
5662.235294117647,32.086,0,True,1,2.2666666666666666,1.0,1.0,1,3.019202482942852,0.9787878787878787,3.0406729970459154,3.8560155298020717
5706.35294117647,32.336,1,False,1,2.2666666666666666,1.0,1.0,1,3.0313004793936016,1.0,3.19198724877965,4.002047550356148
5750.470588235294,32.586,0,False,1,2.2666666666666666,1.0,1.0,1,3.0247675175576147,0.9794117647058823,3.049813334852492,4.134947495905013
5794.588235294117,32.836,1,True,1,2.2666666666666666,1.0,1.0,1,3.0362108279977678,1.0,3.1966507773059747,4.273110170351862
5838.7058823529405,33.086,0,True,1,2.2666666666666666,1.0,1.0,1,3.0300097450169488,0.9799999999999999,3.0584418731382326,4.398973554573442
5882.823529411764,33.336,1,False,1,2.2666666666666666,1.0,1.0,1,3.0408519696012166,1.0,3.2010593092018147,4.529895799043846
5926.941176470588,33.586,0,False,1,2.2666666666666666,1.0,1.0,1,3.0349564656525896,0.9805555555555555,3.066600414369276,4.6492759550796965
5971.058823529412,33.836,1,True,1,2.2666666666666666,1.0,1.0,1,3.0452454555692716,1.0,3.2052332028520643,4.773520904377512
6015.176470588235,34.086,0,True,1,2.2666666666666666,1.0,1.0,1,3.0396319852858493,0.981081081081081,3.074326330624664,4.886914164612051
6059.294117647059,34.336,1,False,1,2.2666666666666666,1.0,1.0,1,3.0494105963451976,1.0,3.2091907056300615,5.00498759215158
6103.411764705882,34.586,0,False,1,2.2666666666666666,1.0,1.0,1,3.044058014902206,0.981578947368421,3.0816531352052023,5.112840479148979
6147.529411764705,34.836,1,True,1,2.2666666666666666,1.0,1.0,1,3.053364745372826,1.0,3.212948220604506,5.225197952041824
6191.647058823529,35.086,0,True,1,2.2666666666666666,1.0,1.0,1,3.0482540079691676,0.982051282051282,3.0886109679966074,5.3279133041777165
6235.764705882352,35.336,1,False,1,2.2666666666666666,1.0,1.0,1,3.0571235409137314,1.0,3.2165205338080636,5.434966290194458
6279.882352941177,35.586,0,False,1,2.2666666666666666,1.0,1.0,1,3.052237446461324,0.9824999999999999,3.095227009391702,5.532908502087895
6324.0,35.836,1,True,1,2.2666666666666666,1.0,1.0,1,3.0607011128689243,1.0,3.219921008707678,5.6350296037283885
6368.117647058823,36.086,0,True,1,2.2666666666666666,1.0,1.0,1,3.056024084468218,0.9829268292682927,3.1015258347423824,5.72852912754193
6412.235294117647,36.336,1,False,1,2.2666666666666666,1.0,1.0,1,3.0641102603750805,1.0,3.223161753268961,5.826056585694629
6500.470588235294,36.836,1,True,1,2.2666666666666666,1.0,1.0,1,3.067362604882991,1.0,3.2262537640171094,5.921446390648692
6544.588235294117,37.086,0,False,1,1.1333333333333333,1.0,1.0,1,3.040596336713111,0.9833333333333333,3.0900147437693053,6.0077757777148655
6588.7058823529405,37.336,1,False,1,2.2666666666666666,1.0,1.0,1,3.070468722578695,1.0,3.229207050706728,6.099030599258399
6676.941176470588,37.836,1,True,1,2.2666666666666666,1.0,1.0,1,3.073438259328267,1.0,3.2320307445788274,6.188350033196781
6721.058823529412,38.086,0,True,1,1.1333333333333333,1.0,1.0,1,3.0067529588689457,0.983720930232558,3.0614229601386014,6.267383018945565
6765.176470588235,38.336,1,False,1,2.2666666666666666,1.0,1.0,1,3.0762800307794484,1.0,3.234733192671755,6.352976681614495
6853.411764705882,38.836,1,True,1,2.2666666666666666,1.0,1.0,1,3.0790021098093905,1.0,3.2373220402379923,6.436812035572444
6897.529411764705,39.086,0,False,1,1.1333333333333333,1.0,1.0,1,2.974466443627741,0.984090909090909,3.0341369722022895,6.509286226304721
6941.647058823529,39.336,1,False,1,2.2666666666666666,1.0,1.0,1,3.081611903146345,1.0,3.239804302980851,6.5897532000495564
7029.882352941177,39.836,1,True,1,2.2666666666666666,1.0,1.0,1,3.0841162186974547,1.0,3.242186430548479,6.668617561682421
7074.0,40.086,0,True,1,1.1333333333333333,1.0,1.0,1,2.9436317589249503,0.9844444444444443,3.008070237725356,6.735177959525089
7118.117647058823,40.336,1,False,1,2.2666666666666666,1.0,1.0,1,3.086521324871883,1.0,3.2444743624952386,6.810987405484378
7206.35294117647,40.836,1,True,1,2.2666666666666666,1.0,1.0,1,3.0888330029880944,1.0,3.2466735777328233,6.885331691842559
7250.470588235294,41.086,0,False,1,1.1333333333333333,1.0,1.0,1,2.9141531143830823,0.9847826086956522,2.9831436503645206,6.946544607496454
7294.588235294117,41.336,1,False,1,2.2666666666666666,1.0,1.0,1,3.0910565936880334,1.0,3.248789138337893,7.018110018415494
7382.823529411764,41.836,1,True,1,2.2666666666666666,1.0,1.0,1,3.093197038142887,1.0,3.250825728453608,7.08833208144325
7426.941176470588,42.086,0,True,1,1.1333333333333333,1.0,1.0,1,2.885942966558896,0.9851063829787233,2.9592847607400716,7.14469662401942
7471.058823529412,42.336,1,False,1,2.2666666666666666,1.0,1.0,1,3.095258914719829,1.0,3.2527876889143217,7.212383814258651
7515.176470588235,42.586,0,False,1,2.2666666666666666,1.0,1.0,1,2.875588248323337,0.9854166666666666,2.9517329017774125,7.266132849098631
7559.294117647059,42.836,1,True,1,2.2666666666666666,1.0,1.0,1,3.097246471682609,1.0,3.2546790481321457,7.331429252558094
7603.411764705882,43.086,0,True,1,2.2666666666666666,1.0,1.0,1,2.882392931172384,0.9857142857142857,2.959865090352347,7.383355234202605
7647.529411764705,43.336,1,False,1,2.2666666666666666,1.0,1.0,1,3.0991636564176477,1.0,3.256503549707877,7.446388098325112
7691.647058823529,43.586,0,False,1,2.2666666666666666,1.0,1.0,1,2.88892260179921,0.986,2.9676782209910457,7.49658449213946
7735.764705882352,43.836,1,True,1,2.2666666666666666,1.0,1.0,1,3.1010141416088848,1.0,3.2582646771645623,7.557472090736998
7824.0,44.336,1,False,1,2.2666666666666666,1.0,1.0,1,3.10280134872669,1.0,3.259965676147552,7.61730988582456
7912.235294117647,44.836,0,True,2,0.9066666666666666,1.0,1.0,1,2.8763790951965356,0.9862745098039215,2.957872636024767,7.664198449726073
8000.470588235294,45.336,1,False,1,2.2666666666666666,1.0,1.0,1,3.1061984831750005,1.0,3.263199199693251,7.722122403723812
8088.7058823529405,45.836,0,False,2,1.1333333333333333,1.0,1.0,1,2.8484841336115183,0.9865384615384615,2.9338720814922357,7.766312324404537
8176.941176470588,46.336,1,False,1,2.2666666666666666,1.0,1.0,1,3.1093781592737835,1.0,3.2662260389276216,7.822423102614484
8265.176470588234,46.836,0,True,2,1.1333333333333333,1.0,1.0,1,2.824750788841084,0.9867924528301886,2.9136364227545446,7.8641912833799426
8353.411764705883,47.336,1,False,1,2.2666666666666666,1.0,1.0,1,3.112360610605187,1.0,3.2690653970893107,7.9185817370029765
8441.64705882353,47.836,1,True,1,2.2666666666666666,1.0,1.0,1,3.113783524040452,1.0,3.2704201312042125,7.972084864672528
8529.882352941177,48.336,1,False,1,2.2666666666666666,1.0,1.0,1,3.115163635938343,1.0,3.2717341699277154,8.02472191608488
8618.117647058823,48.836,1,True,1,2.2666666666666666,1.0,1.0,1,3.1165028490004283,1.0,3.273009319850432,8.076513486731908
8706.35294117647,49.336,1,False,1,2.2666666666666666,1.0,1.0,1,3.1178029547925,1.0,3.2742472821875936,8.127479541564146
8794.588235294117,49.836,1,True,2,2.2666666666666666,1.0,1.0,1,3.119065641742392,1.0,3.2754496603516716,8.17763943774327
8853.35294117647,50.169,0,False,1,0.3400340034003402,1.0,1.0,1,2.791578184616923,0.9870370370370369,2.8846700040093496,8.213021671706683
9147.529411764706,51.836,1,True,1,0.5666666666666667,1.0,2.0,1,3.103404661600143,1.0140845070422535,3.3575034338449377,8.264562947600696
9191.64705882353,52.086,0,True,1,0.5912015301686658,1.0,1.0,1,2.7523761465175793,0.9872727272727272,2.8501288660293205,8.297450294143623
9235.764705882353,52.336,1,False,1,2.2666666666666666,1.0,1.0,1,3.087858792224307,1.0138888888888888,3.3409588882702157,8.346903125952457
9279.882352941177,52.586,0,False,1,2.2666666666666666,1.0,1.0,1,2.738946760302416,0.9874999999999999,2.839193103682024,8.378227701063256
9324.0,52.836,1,True,1,2.2666666666666666,1.0,1.0,1,3.089482280491834,1.0136986301369864,3.3412292285828347,8.426263743421877
9368.117647058823,53.086,0,True,1,2.2666666666666666,1.0,1.0,1,2.7472063687888757,0.987719298245614,2.848108308069799,8.456773318533148
9412.235294117647,53.336,1,False,1,2.2666666666666666,1.0,1.0,1,3.0910615862288746,1.0135135135135136,3.3414912359825735,8.50345400079624
9456.35294117647,53.586,0,False,1,2.2666666666666666,1.0,1.0,1,2.7551786325607353,0.9879310344827585,2.856722608192598,8.599846070677364
9500.470588235294,53.836,1,True,1,2.2666666666666666,1.0,1.0,1,3.092598488909094,1.0133333333333334,3.3417452846554716,8.712603866649449
9544.588235294117,54.086,0,True,1,2.2666666666666666,1.0,1.0,1,2.7628782905882803,0.988135593220339,2.8650509644581015,8.809274402381046
9588.70588235294,54.336,1,False,1,2.2666666666666666,1.0,1.0,1,3.0940946737094044,1.013157894736842,3.3419917269529,8.922037962747133
9632.823529411764,54.586,0,False,1,2.2666666666666666,1.0,1.0,1,2.770319090735275,0.9883333333333333,2.873107363246519,9.018960447138834
9676.941176470587,54.836,1,True,2,2.2666666666666666,1.0,1.0,1,3.0955517376746764,1.0129870129870129,3.342230894947689,9.131712185697861
9721.05882352941,55.086,0,True,1,2.2666666666666666,1.0,1.0,1,2.7775138716905317,0.9885245901639343,2.8809048947706297,9.22883953714445
9765.176470588234,55.336,1,False,1,2.2666666666666666,1.0,1.0,1,3.096971195405043,1.0128205128205128,3.3424631018599875,9.34154087215681
9809.294117647058,55.586,0,False,1,2.2666666666666666,1.0,1.0,1,2.7844746369040076,0.9887096774193548,2.888455823599819,9.438805677142216
9853.411764705883,55.836,1,True,1,2.2666666666666666,1.0,1.0,1,3.0983544843083934,1.0126582278481013,3.342688643365301,9.551397291100805
9897.529411764706,56.086,0,True,1,2.2666666666666666,1.0,1.0,1,2.7912126214231487,0.9888888888888888,2.8957716526401938,9.648711780206494
9941.64705882353,56.336,1,False,1,2.2666666666666666,1.0,1.0,1,3.099702969456337,1.0125,3.342907798795862,9.761113620993793
9985.764705882353,56.586,0,False,1,2.2666666666666666,1.0,1.0,1,2.7977383524123325,0.9890625,2.9028631812668584,9.858369643708391
10029.882352941177,56.836,1,True,1,2.2666666666666666,1.0,1.0,1,3.1010179480781495,1.0123456790123457,3.3431208322452908,9.970480922630612
10074.0,57.086,0,True,1,2.2666666666666666,1.0,1.0,1,2.804061704041142,0.9892307692307691,2.9097405582212663,10.067549924875356
10118.117647058823,57.336,1,False,1,2.2666666666666666,1.0,1.0,1,3.102300653723786,1.0121951219512195,3.3433279935854396,10.179249115661804
10162.235294117647,57.586,0,False,1,2.2666666666666666,1.0,1.0,1,2.8101919473434234,0.9893939393939394,2.916413329814445,10.275982119253557
10206.35294117647,57.836,1,True,1,2.2666666666666666,1.0,1.0,1,3.103552260124055,1.0120481927710843,3.3435295194034373,10.385946464157104
10250.470588235294,58.086,0,True,1,2.2666666666666666,1.0,1.0,1,2.8161377955766493,0.9895522388059701,2.9228904839140606,10.482990125181722
10294.588235294117,58.336,1,False,1,2.2666666666666666,1.0,1.0,1,3.1047738847733473,1.0119047619047619,3.343725633866075,10.592101880811542
10338.70588235294,58.586,0,False,1,2.2666666666666666,1.0,1.0,1,2.821907445548351,0.9897058823529411,2.929180490138641,10.68876570582389
10382.823529411764,58.836,1,True,2,2.2666666666666666,1.0,1.0,1,3.1059665922579156,1.011764705882353,3.3439165495180236,10.796682185448532
10426.941176470587,59.086,0,True,1,2.2666666666666666,1.0,1.0,1,2.8275086153218254,0.989855072463768,2.935291336634433,10.892697660644785
10471.05882352941,59.336,1,False,1,2.2666666666666666,1.0,1.0,1,3.1071313973505283,1.0116279069767442,3.344102468019653,10.999184695389506
10515.176470588234,59.586,0,False,1,2.2666666666666666,1.0,1.0,1,2.832948578665904,0.99,2.9412305637686003,11.094347315740976
10559.294117647058,59.836,1,True,1,2.2666666666666666,1.0,1.0,1,3.108269267890422,1.0114942528735633,3.344283580829704,11.199149999400117
10603.411764705883,60.086,0,True,1,2.2666666666666666,1.0,1.0,1,2.8382341965721314,0.9901408450704225,2.947005295035781,11.29323475458392
10647.529411764706,60.336,1,False,1,2.2666666666666666,1.0,1.0,1,3.1093811274657255,1.0113636363636365,3.3444600698375413,11.39607744248963
10691.64705882353,60.586,0,False,1,2.2666666666666666,1.0,1.0,1,2.8433719461265334,0.9902777777777777,2.952622265442855,11.488838803519146
10735.764705882353,60.836,1,True,1,2.2666666666666666,1.0,1.0,1,3.11046785791399,1.0112359550561798,3.3446321079492516,11.589425111716402
10779.882352941177,61.086,0,True,1,2.2666666666666666,1.0,1.0,1,2.8483679469914573,0.9904109589041096,2.9580878476084043,11.680597018553046
10824.0,61.336,1,False,1,2.2666666666666666,1.0,1.0,1,3.111530301655043,1.011111111111111,3.3447998596314408,11.7786098231658
10868.117647058823,61.586,0,False,1,2.2666666666666666,1.0,1.0,1,2.853227985725143,0.9905405405405405,2.963408075788399,11.867905673198967
10912.235294117647,61.836,1,True,1,2.2666666666666666,1.0,1.0,1,3.1125692638691547,1.010989010989011,3.3449634814162543,11.963007109921849
10956.35294117647,62.086,0,True,1,2.2666666666666666,1.0,1.0,1,2.8579575381422413,0.9906666666666666,2.968588668017601,12.050119747230353
11000.470588235294,62.336,1,False,1,2.2666666666666666,1.0,1.0,1,3.1135855145323346,1.0108695652173914,3.3451231223707585,12.14195121090661
11044.588235294117,62.586,0,False,1,2.2666666666666666,1.0,1.0,1,2.8625617898969544,0.9907894736842104,2.9736350465366312,12.226552916230858
11088.70588235294,62.836,1,True,2,2.2666666666666666,1.0,1.0,1,3.114579790319594,1.010752688172043,3.345278924533606,12.314735060492083
11132.823529411764,63.086,0,True,1,2.2666666666666666,1.0,1.0,1,2.8670456554514687,0.9909090909090909,2.978552356657433,12.396477541856749
11176.941176470587,63.336,1,False,1,2.2666666666666666,1.0,1.0,1,3.115552796386043,1.0106382978723405,3.3454310233215825,12.480610278808602
11221.05882352941,63.586,0,False,1,2.2666666666666666,1.0,1.0,1,2.8714137955755614,0.991025641025641,2.9833454842044733,12.559124662742999
11265.176470588234,63.836,1,True,2,2.2666666666666666,1.0,1.0,1,3.116505208034879,1.0105263157894737,3.3455795479083976,12.638787162686368
11441.64705882353,64.836,0,True,2,0.9066666666666666,1.0,1.0,1,2.8635146012352575,0.9911392405063291,2.9767318134704643,12.712478808921544
11618.117647058823,65.836,0,False,2,1.1333333333333333,1.0,1.0,1.5,2.845619237965703,0.9974999999999999,3.0003283069344824,12.775575072891272
11706.35294117647,66.336,1,False,1,2.2666666666666666,1.0,1.0,1,3.08636693484975,1.010204081632653,3.3141005925485767,12.856382146285808
11794.588235294117,66.836,0,True,2,1.1333333333333333,1.0,1.0,1.05,2.8301786504137167,0.9981481481481481,2.98993032188747,12.913748654059582
11971.05882352941,67.836,0,False,2,1.1333333333333333,1.0,1.0,1.5750000000000002,2.815117030249651,1.0051829268292682,3.0202591425299117,12.979941484801115
12147.529411764706,68.836,1,True,1,1.1333333333333333,1.0,1.0,1,3.0660504832433806,1.00990099009901,3.292329105975411,13.041649735756584
12191.64705882353,69.086,0,True,1,0.9066666666666666,1.0,1.0,1,2.7984952206665006,1.0051204819277109,3.004053325712059,13.102144355151696
12235.764705882353,69.336,1,False,1,2.2666666666666666,1.0,1.0,1,3.059481545645054,1.0098039215686274,3.285303748017953,13.157250007702944
12279.882352941177,69.586,0,False,1,2.2666666666666666,1.0,1.0,1,2.7917695172914097,1.0050595238095237,2.997274954494556,13.21189176971712
12324.0,69.836,1,True,1,2.2666666666666666,1.0,1.0,1,3.0609066766584334,1.0097087378640777,3.2860337927291545,13.26013206761508
12368.117647058823,70.086,0,True,1,2.2666666666666666,1.0,1.0,1,2.796666641523233,1.005,3.0015539003131093,13.30880057524678
12412.235294117647,70.336,1,False,1,2.2666666666666666,1.0,1.0,1,3.062304267056187,1.0096153846153846,3.2867493191912605,13.349629841765722
12456.35294117647,70.586,0,False,1,2.2666666666666666,1.0,1.0,1,2.8014492031632328,1.0049418604651164,3.0057326154290465,13.391807471544157
12500.470588235294,70.836,1,True,2,2.2666666666666666,1.0,1.0,1,3.0636751075469357,1.0095238095238095,3.2874507557633743,13.424659298050774
12544.588235294117,71.086,0,True,1,2.2666666666666666,1.0,1.0,1,2.8061211759075158,1.0048850574712644,3.0098145763072104,13.45980779740175
12588.70588235294,71.336,1,False,1,2.2666666666666666,1.0,1.0,1,3.0650199588566487,1.009433962264151,3.28813851413385,13.484095042781822
12632.823529411764,71.586,0,False,1,2.2666666666666666,1.0,1.0,1,2.8106863517751313,1.0048295454545455,3.0138031007018786,13.511655524668045
12676.941176470587,71.836,1,True,2,2.2666666666666666,1.0,1.0,1,3.066339553136457,1.0093457943925233,3.288812990122708,13.526770314782084
12721.05882352941,72.086,0,True,1,2.2666666666666666,1.0,1.0,1,2.815148351373687,1.0047752808988764,3.0177013565976027,13.546163252645876
12765.176470588234,72.336,1,False,1,2.2666666666666666,1.0,1.0,1,3.0676345952918744,1.0092592592592593,3.2894745644381964,13.551476979811731
12809.294117647058,72.586,0,False,1,2.2666666666666666,1.0,1.0,1,2.819510633476673,1.0047222222222223,3.0215123705534097,13.562102202800009
12853.411764705881,72.836,1,True,1,2.2666666666666666,1.0,1.0,1,3.0689057642385085,1.0091743119266054,3.2901236033904873,13.56575723531293
12897.529411764706,73.086,0,True,1,2.2666666666666666,1.0,1.0,1,2.8237765039657345,1.0046703296703297,3.025239035496187,13.566993923765613
13029.882352941177,73.836,0,False,2,1.5111111111111113,1.0,1.0,1,2.8221436974389102,1.0046195652173913,3.023363603387825,13.561470923677955
13206.35294117647,74.836,0,True,2,1.1333333333333333,1.0,1.0,1,2.8118694507698985,1.0045698924731183,3.013281850635157,13.560546686479928
13382.823529411764,75.836,0,False,2,1.1333333333333333,1.0,1.0,1,2.798937014753321,1.0045212765957447,3.0006879067018906,13.554091828210913
13471.05882352941,76.336,0,True,2,2.2666666666666666,1.0,1.0,1,2.794707780483179,1.0044736842105262,2.9963713532182044,13.552288578846237
13559.294117647058,76.836,0,False,2,2.2666666666666666,1.0,1.0,1,2.799010010869263,1.0044270833333333,3.000162404803186,13.545658631339677
13735.764705882353,77.836,1,True,2,1.1333333333333333,1.0,1.0,1,3.0271093051153293,1.008695652173913,3.2464781227190924,13.552003385729826
13779.882352941177,78.086,0,True,1,0.9066666666666666,1.0,1.0,1,2.79331919294237,1.004381443298969,2.9944713941789756,13.545032657565896
13824.0,78.336,1,False,2,2.2666666666666666,1.0,1.0,1,3.021679230183136,1.0086206896551724,3.240731133394924,13.550908208936768
13868.117647058823,78.586,0,False,1,2.2666666666666666,1.0,1.0,1,2.787622797438487,1.0043367346938776,2.988783154206407,13.543604710810982
13912.235294117647,78.836,1,True,2,2.2666666666666666,1.0,1.0,1,3.0232575821070258,1.0085470085470085,3.2417568437292954,13.549254182577382
13956.35294117647,79.086,0,True,1,2.2666666666666666,1.0,1.0,1,2.7918659147212206,1.0042929292929292,2.992534118588859,13.541943715394325
14000.470588235294,79.336,1,False,2,2.2666666666666666,1.0,1.0,1,3.024809067086607,1.0084745762711864,3.242764765521095,13.547379974232873
14044.588235294117,79.586,0,False,1,2.2666666666666666,1.0,1.0,1,2.796023737753495,1.0042499999999999,2.9962097056145787,13.540066742621615
14088.70588235294,79.836,1,True,2,2.2666666666666666,1.0,1.0,1,3.026334365342838,1.0084033613445378,3.243755357229929,13.545301653692697
14132.823529411764,80.086,0,True,1,2.2666666666666666,1.0,1.0,1,2.800098812833661,1.004207920792079,2.9998121618838147,13.537989439174408
14176.941176470587,80.336,1,False,2,2.2666666666666666,1.0,1.0,1,3.027834134325944,1.0083333333333333,3.244729061705569,13.543033965455217
14221.05882352941,80.586,0,False,1,2.2666666666666666,1.0,1.0,1,2.804093585904239,1.0041666666666667,3.003343645722685,13.535726171465123
14265.176470588234,80.836,1,True,1,2.2666666666666666,1.0,1.0,1,3.0293090096603517,1.0082644628099173,3.2456863068462916,13.540590461144943
14309.294117647058,81.086,0,True,1,2.2666666666666666,1.0,1.0,1,2.8080104074478083,1.004126213592233,3.0068062314697914,13.533290152561731
14353.411764705881,81.336,1,False,1,2.2666666666666666,1.0,1.0,1,3.030759606042947,1.0081967213114753,3.246627506224179,13.533977607191362
14397.529411764706,81.586,0,False,1,2.2666666666666666,1.0,1.0,1,2.8118515370990482,1.0040865384615385,3.010201913515894,13.531284547708045
14441.64705882353,81.836,1,True,1,2.2666666666666666,1.0,1.0,1,3.0321865180973453,1.008130081300813,3.2475530596793467,13.531903582182675
14485.764705882353,82.086,0,True,1,2.2666666666666666,1.0,1.0,1,2.815619147991943,1.004047619047619,3.0135326101130357,13.52453097716113
14618.117647058823,82.836,1,False,1,1.1333333333333333,1.0,1.0,1,3.027132930007325,1.0080645161290323,3.24223686367096,13.530632033796726
14706.35294117647,83.336,1,True,1,2.2666666666666666,1.0,1.0,1,3.022097679281832,1.008,3.23694746752645,13.53070674827405
14794.588235294117,83.836,0,False,2,0.6476190476190476,1.0,1.0,1,2.808528687504877,1.004009433962264,3.0065592045892835,13.52292030540556
14882.823529411764,84.336,1,True,1,2.2666666666666666,1.0,1.0,1,3.0249982100996142,1.0078740157480315,3.2388930746246323,13.529829224205264
14971.05882352941,84.836,0,True,2,1.1333333333333333,1.0,1.0,1,2.793957710546042,1.0039719626168224,2.9924962801571153,13.52148451052889
15059.294117647058,85.336,1,True,1,2.2666666666666666,1.0,1.0,1,3.0396642383513237,1.015625,3.305782274668044,13.52363037342539
15147.529411764706,85.836,0,False,2,1.1333333333333333,1.0,1.0,1,2.7828763310684295,1.0039351851851852,2.981756084848913,13.522742476345131
15235.764705882353,86.336,1,True,1,2.2666666666666666,1.0,1.0,1,3.052160129731003,1.015625,3.3180098810346053,13.525223725599597
15324.0,86.836,0,True,2,1.1333333333333333,1.0,1.0,1,2.7719992339480117,1.0038990825688072,2.971219968294624,13.51592931826238
15412.235294117647,87.336,1,False,1,1.1333333333333333,1.0,1.0,1,3.0459057230072624,1.015625,3.3118891281265888,13.527021909812804
15500.470588235294,87.836,1,True,2,2.2666666666666666,1.0,1.0,1,3.0396384471474915,1.015625,3.30575704239784,13.528944131513079
15588.70588235294,88.336,0,False,1,0.7555555555555556,1.0,1.0,1,2.7588981039989022,1.0038636363636364,2.9585877869163193,13.519083384095113
15676.941176470587,88.836,0,True,1,2.2666666666666666,1.0,1.0,1,2.7532162471919137,1.0038288288288288,2.9529909083703796,13.518871015748356
15765.176470588234,89.336,0,False,1,2.2666666666666666,1.0,1.0,1,2.757273201512497,1.003794642857143,2.956618824788495,13.508877630403362
15853.411764705881,89.836,0,True,1,2.2666666666666666,1.0,1.0,1,2.761258028668413,1.0037610619469026,2.9601823976561175,13.509162734877584
15941.64705882353,90.336,0,False,1,2.2666666666666666,1.0,1.0,1,2.7651726352188866,1.0037280701754385,2.963683321064334,13.499343902493164
16029.882352941177,90.836,0,True,2,2.2666666666666666,1.0,1.0,1,2.7690188611139273,1.003695652173913,2.967123230253281,13.499588808010602
16118.117647058823,91.336,0,False,1,2.2666666666666666,1.0,1.0,1,2.7727984825780547,1.0036637931034482,2.9705037041406706,13.489938547596498
16206.35294117647,91.836,0,True,2,2.2666666666666666,1.0,1.0,1,2.7765132148454956,1.0036324786324786,2.9738262677213507,13.490145996142033
16294.588235294117,92.336,0,False,2,2.2666666666666666,1.0,1.0,1,2.7801647147556983,1.0036016949152542,2.97709239434548,13.48065862825535
16382.823529411764,92.836,0,True,2,2.2666666666666666,1.0,1.0,1,2.7837545832174246,1.0035714285714286,2.980303507882427,13.471222214937093
16471.058823529413,93.336,0,False,2,2.2666666666666666,1.0,1.0,1,2.787284367549106,1.0035416666666666,2.983460984776981,13.472085621798506
16559.29411764706,93.836,0,True,2,2.2666666666666666,1.0,1.0,1,2.7907555637026635,1.0035123966942148,2.986566156004093,13.46275141776965
16647.529411764706,94.336,0,False,2,2.2666666666666666,1.0,1.0,1,2.794169618377501,1.0034836065573771,2.989620308927898,13.464632484912578
16735.764705882353,94.836,1,True,1,2.2666666666666666,1.0,1.0,1,3.0281602381126054,1.0078125,3.2415250981808983,13.463799021138474
16824.0,95.336,1,False,1,2.2666666666666666,1.0,1.0,1,3.0281602381126054,1.0078125,3.2415250981808983,13.474862702303833
16912.235294117647,95.836,0,True,2,0.7555555555555556,1.0,1.0,1,2.7888491455559263,1.0034552845528455,2.984400440719269,13.465257483971317
17000.470588235294,96.336,1,False,1,2.2666666666666666,1.0,1.0,1,3.0281602381126054,1.0078125,3.2415250981808983,13.464282502349226
17088.70588235294,96.836,0,False,3,1.1333333333333333,1.0,1.0,1,2.7770684408109587,1.0034274193548387,2.973066767190124,13.454204810845914
17176.941176470587,97.336,1,False,1,2.2666666666666666,1.0,1.0,1,3.0281602381126054,1.0078125,3.2415250981808983,13.45314246433505
17265.176470588234,97.836,1,True,1,2.2666666666666666,1.0,1.0,1,3.0281602381126054,1.0078125,3.2415250981808983,13.452038346266889
17353.41176470588,98.336,1,False,1,2.2666666666666666,1.0,1.0,1,3.0281602381126054,1.0078125,3.2415250981808983,13.450893657329267
17441.647058823528,98.836,0,True,3,0.5666666666666667,1.0,1.0,1,2.764437716395282,1.0034,2.9609380458956887,13.453467107898852
17529.882352941175,99.336,1,False,1,2.2666666666666666,1.0,1.0,1,3.0281602381126054,1.0078125,3.2415250981808983,13.449553745150936
17618.11764705882,99.836,0,False,2,1.1333333333333333,1.0,1.0,1,2.7519681514595877,1.0033730158730159,2.9489720592836663,13.452888930710822
17706.35294117647,100.336,0,True,1,2.2666666666666666,1.0,1.0,1,2.7491902911049078,1.0033464566929133,2.9461796313545845,13.439568215002863
17794.58823529412,100.836,0,False,1,2.2666666666666666,1.0,1.0,1,2.7527696848287575,1.0033203125,2.949402166495716,13.443286909864526
17882.823529411766,101.336,0,True,1,2.2666666666666666,1.0,1.0,1,2.7670947407454007,1.0111328125,3.0120094345906954,13.432178313846928
17971.058823529413,101.836,0,False,2,2.2666666666666666,1.0,1.0,1,2.7795880915672453,1.0111328125,3.0240097999707367,13.438113614968177
18059.29411764706,102.336,0,True,1,2.2666666666666666,1.0,1.0,1,2.7795880915672453,1.0111328125,3.0240097999707367,13.427401096826497
18147.529411764706,102.836,0,False,2,2.2666666666666666,1.0,1.0,1,2.7795880915672453,1.0111328125,3.0240097999707367,13.433045732617824
18235.764705882353,103.336,0,True,1,2.2666666666666666,1.0,1.0,1,2.7795880915672453,1.0111328125,3.0240097999707367,13.42232464231819
18324.0,103.836,0,False,2,2.2666666666666666,1.0,1.0,1,2.7795880915672453,1.0111328125,3.0240097999707367,13.427688261150841
18412.235294117647,104.336,0,True,1,2.2666666666666666,1.0,1.0,1,2.7795880915672453,1.0111328125,3.0240097999707367,13.416958855348996
18500.470588235294,104.836,0,False,2,2.2666666666666666,1.0,1.0,1,2.7795880915672453,1.0111328125,3.0240097999707367,13.422050633663153
18588.70588235294,105.336,0,True,1,2.2666666666666666,1.0,1.0,1,2.790740671977041,1.0111328125,3.034727630253251,13.41167480084897
18676.941176470587,105.836,1,False,1,1.1333333333333333,1.0,1.0,1,2.9655584340982655,1.0078125,3.181258192066862,13.421809378122584
18765.176470588234,106.336,1,True,1,2.2666666666666666,1.0,1.0,1,2.9592909839032915,1.0078125,3.175231627478244,13.416166622358093
18853.41176470588,106.836,1,False,1,2.2666666666666666,1.0,1.0,1,2.9592909839032915,1.0078125,3.175231627478244,13.42584306530302
18941.647058823528,107.336,1,True,1,2.2666666666666666,1.0,1.0,1,2.9592909839032915,1.0078125,3.175231627478244,13.420192699274768
19029.882352941175,107.836,0,False,2,0.4533333333333333,1.0,1.0,1,2.791849486055542,1.0111328125,3.03579349308623,13.424917342469193
19118.11764705882,108.336,0,True,2,2.2666666666666666,1.0,1.0,1,2.7818141684709805,1.0111328125,3.0261487002464715,13.414229197573608
19206.35294117647,108.836,0,False,2,2.2666666666666666,1.0,1.0,1,2.7818141684709805,1.0111328125,3.0261487002464715,13.418389120671051
19294.58823529412,109.336,1,True,1,2.2666666666666666,1.0,1.0,1,2.9592909839032906,1.0078125,3.1752316274782433,13.412724171644575
19382.823529411766,109.836,0,True,2,1.1333333333333333,1.0,1.0,1,2.7755603884890245,1.0111328125,3.020140337038488,13.416449301681386
19471.058823529413,110.336,0,False,2,2.2666666666666666,1.0,1.0,1,2.769292485887469,1.0111328125,3.0141199967503773,13.405341103725679
19559.29411764706,110.836,0,True,2,2.2666666666666666,1.0,1.0,1,2.769292485887469,1.0111328125,3.0141199967503773,13.408637940401434
19647.529411764706,111.336,0,False,2,2.2666666666666666,1.0,1.0,1,2.769292485887469,1.0111328125,3.0141199967503773,13.397522942523787
19735.764705882353,111.836,0,True,3,2.2666666666666666,1.0,1.0,1,2.769292485887469,1.0111328125,3.0141199967503773,13.400601225851444
19824.0,112.336,1,True,1,2.2666666666666666,1.0,1.0,1,2.9592909839032906,1.0078125,3.1752316274782433,13.394915869495282
19912.235294117647,112.836,1,False,1,2.2666666666666666,1.0,1.0,1,2.9592909839032906,1.0078125,3.1752316274782433,13.403218173105984
20000.470588235294,113.336,1,True,1,2.2666666666666666,1.0,1.0,1,2.9592909839032906,1.0078125,3.1752316274782433,13.397526374838094
20088.70588235294,113.836,1,False,1,2.2666666666666666,1.0,1.0,1,2.9592909839032906,1.0078125,3.1752316274782433,13.405622485120553
20176.941176470587,114.336,1,True,1,2.2666666666666666,1.0,1.0,1,2.9592909839032906,1.0078125,3.1752316274782433,13.399924413555723
20265.176470588234,114.836,1,False,1,2.2666666666666666,1.0,1.0,1,2.9592909839032906,1.0078125,3.1752316274782433,13.407820121322613
20353.41176470588,115.336,1,True,1,2.2666666666666666,1.0,1.0,1,2.9592909839032897,1.0078125,3.1752316274782424,13.402115938615387
21676.941176470587,122.836,1,True,1,0.1511111111111111,1.0,2.0,1,2.9476272486675157,1.015625,3.2158805556413284,13.411188378072849
21721.058823529413,123.086,0,True,1,0.10074074074074074,1.0,3.25,1,2.757353283259879,1.0287109375,3.114417524883881,13.403426239388045
21765.176470588234,123.336,1,False,1,2.2666666666666666,1.0,1.0,1,2.935917176414068,1.015625,3.204462980571097,13.411923896018036
21809.29411764706,123.586,0,False,1,2.2666666666666666,1.0,1.0,1,2.745362159172313,1.0287109375,3.1025315976122743,13.403754895204402
21853.41176470588,123.836,1,True,2,2.2666666666666666,1.0,1.0,1,2.9359171764140677,1.015625,3.2044629805710967,13.412068131136168
21941.647058823528,124.336,0,True,2,1.5111111111111113,1.0,1.0,1,2.7411914426841473,1.0287109375,3.098398964446217,13.40375402593066
22118.11764705882,125.336,0,False,1,1.1333333333333333,1.0,1.0,1,2.730760706646452,1.0263671875,3.073142080073972,13.407456691278389
22206.35294117647,125.836,0,True,2,2.2666666666666666,1.0,1.0,1,2.724492688199793,1.0263671875,3.06696219376978,13.39807631970538
22382.823529411766,126.836,1,False,1,1.1333333333333333,1.0,1.0,1,2.9129674865654542,1.01796875,3.1976046717500046,13.405803820643818
22471.058823529413,127.336,0,False,2,0.7555555555555556,1.0,1.0,1,2.716157727809474,1.0263671875,3.0587471664511643,13.39614086944369
22647.529411764706,128.336,0,True,2,1.1333333333333173,1.0,1.0,1,2.701543524906031,1.0263671875,3.0443508668074046,13.398526975910482
22824.000000000004,129.336,0,False,1,1.1333333333333333,1.0,1.0,1,2.6890218761050644,1.0263671875,3.0320237265705905,13.387957060285464
22912.23529411765,129.836,0,True,2,2.2666666666666666,1.0,1.0,1,2.682753746254753,1.0263671875,3.025855699640177,13.389553178553767
23000.470588235297,130.336,1,False,1,2.2666666666666666,1.0,1.0,1,2.877482657691013,1.01796875,3.162914997137949,13.383394688576525
23088.705882352944,130.836,1,True,1,2.2666666666666666,1.0,1.0,1,2.877482657691013,1.01796875,3.162914997137949,13.38945375675121
23176.94117647059,131.336,1,False,1,2.2666666666666666,1.0,1.0,1,2.877482657691013,1.01796875,3.162914997137949,13.38329025522951
23265.176470588238,131.836,1,True,1,2.2666666666666666,1.0,1.0,1,2.877482657691013,1.01796875,3.162914997137949,13.389572483122162
23441.64705882353,132.836,0,False,2,0.3777777777777778,1.0,1.0,1,2.6723393832032944,1.0263671875,3.0156117286357693,13.39008817920285
23706.352941176472,134.336,0,True,2,0.7555555555555556,1.0,1.0,1,2.653549617558456,1.0263671875,2.9971424018085178,13.37939331650124
23794.58823529412,134.836,0,False,1,2.2666666666666666,1.0,1.0,1,2.6451886985042177,1.0263671875,2.988929519528819,13.379359547240403
23882.823529411766,135.336,0,True,1,2.2666666666666666,1.0,1.0,1,2.6451886985042177,1.0263671875,2.988929519528819,13.378302417226795
23971.058823529413,135.836,0,False,2,2.2666666666666666,1.0,1.0,1,2.6451886985042177,1.0263671875,2.988929519528819,13.368065051493492
24059.29411764706,136.336,1,True,1,2.2666666666666666,1.0,1.0,1,2.83156982155147,1.01796875,3.118101794140443,13.37191329629929
24235.764705882353,137.336,0,True,1,0.7555555555555556,1.0,1.0,1,2.636854123918916,1.0263671875,2.980745895392345,13.3616368481314
24324.000000000004,137.836,0,False,2,2.2666666666666666,1.0,1.0,1,2.6284931217262018,1.0263671875,2.9725397412121928,13.360802227926973
24412.23529411765,138.336,0,True,1,2.2666666666666666,1.0,1.0,1,2.6284931217262018,1.0263671875,2.9725397412121928,13.350224252860551
24588.705882352944,139.336,1,True,1,0.7555555555555556,1.0,1.0,1,2.8065388712713077,1.01796875,3.0937051204172854,13.353333636607662
24676.94117647059,139.836,0,False,2,0.7555555555555556,1.0,1.0,1,2.6201586313388856,1.0263671875,2.964363044140964,13.34245561846749
24853.411764705885,140.836,0,True,2,1.1333333333333333,1.0,1.0,1,2.6055442257299135,1.0263671875,2.950033695424816,13.340576215065159
24941.64705882353,141.336,1,False,1,2.2666666666666666,1.0,1.0,1,2.7856569854119266,1.01796875,3.073371696398451,13.333352719304244
25118.117647058825,142.336,0,False,2,0.7555555555555556,1.0,1.0,1,2.590941521934882,1.0263671875,2.935726599694985,13.330852828905899
25294.58823529412,143.336,1,False,1,1.1333333333333333,1.0,1.0,1,2.7762674883504403,1.01015625,3.014646476851752,13.321624609304168
25382.823529411766,143.836,0,True,2,0.7555555555555556,1.0,1.0,1,2.574246032375196,1.0263671875,2.9193824887810034,13.318438651312869
25471.058823529413,144.336,0,False,1,2.2666666666666666,1.0,1.0,1,2.565884708808642,1.0263671875,2.911202586856685,13.305697250283917
25559.29411764706,144.836,0,True,1,2.2666666666666666,1.0,1.0,1,2.565884708808642,1.0263671875,2.911202586856685,13.302103748826799
25647.529411764706,145.336,0,False,1,2.2666666666666666,1.0,1.0,1,2.565884708808642,1.0263671875,2.911202586856685,13.289340024833248
25735.764705882353,145.836,0,True,1,2.2666666666666666,1.0,1.0,1,2.5721531698238653,1.0263671875,2.917334693369588,13.285824842116396
25912.23529411765,146.836,0,False,2,1.1333333333333333,1.0,1.0,1,2.578406391392154,1.0263671875,2.9234539374778254,13.273452605498607
26176.94117647059,148.336,0,True,2,0.7555555555555556,1.0,1.0,1,2.576320289560322,1.0263671875,2.9214123048028453,13.26994926448404
26265.176470588238,148.836,0,False,2,2.2666666666666666,1.0,1.0,1,2.5805009335634583,1.0263671875,2.9255040578919647,13.266647269351253
26353.411764705885,149.336,0,True,2,2.2666666666666666,1.0,1.0,1,2.593022579470427,1.0263671875,2.937764865264445,13.264099161071439
26441.64705882353,149.836,0,False,2,2.2666666666666666,1.0,1.0,1,2.605544225729914,1.0263671875,2.9500336954248163,13.262389977176863
26529.88235294118,150.336,0,True,1,2.2666666666666666,1.0,1.0,1,2.6117975449481863,1.0263671875,2.95616373055545,13.261033284034045
26618.117647058825,150.836,0,False,1,2.2666666666666666,1.0,1.0,1,2.6117975449481863,1.0263671875,2.95616373055545,13.259548672517829
26706.352941176472,151.336,0,True,1,2.2666666666666666,1.0,1.0,1,2.6117975449481863,1.0263671875,2.95616373055545,13.249752829863494
26794.58823529412,151.836,0,False,2,2.2666666666666666,1.0,1.0,1,2.6193213293177027,1.0263671875,2.9635417851479975,13.248709197196268
26882.823529411766,152.336,1,False,1,2.2666666666666666,1.0,1.0,1,2.723048572494367,1.01015625,2.9636723432879473,13.239360627551955
26971.058823529413,152.836,1,True,1,2.2666666666666666,1.0,1.0,1,2.723048572494367,1.01015625,2.9636723432879473,13.238513333861667
27059.29411764706,153.336,1,False,1,2.2666666666666666,1.0,1.0,1,2.723048572494367,1.01015625,2.9636723432879473,13.229130154506931
27147.529411764706,153.836,1,True,1,2.2666666666666666,1.0,1.0,1,2.723048572494367,1.01015625,2.9636723432879473,13.228156295073145
27206.29411764706,154.169,0,True,1,0.4857836833833408,1.0,1.0,1,2.6232487629097205,1.0263671875,2.9673942695757667,13.218864692166987
27265.058823529413,154.502,1,False,1,1.70170170170171,1.0,1.0,1,2.71992934314013,1.01015625,2.9606883584649824,13.217666124211213
27324.000000000004,154.836,0,False,1,1.6991504247876021,1.0,1.0,1,2.6227966735116053,1.0263671875,2.966950768564808,13.208326131879614
27382.764705882353,155.169,1,True,1,1.6991504247876021,1.0,1.0,1,2.7136732296009596,1.01015625,2.9547047509133466,13.206804109161007
27441.529411764706,155.502,0,True,1,1.70170170170171,1.0,1.0,1,2.6334535039894913,1.0263671875,2.9774078411160594,13.197784106413149
27500.470588235297,155.836,1,False,1,1.6991504247876021,1.0,1.0,1,2.7074030059347556,1.01015625,2.9487093321666675,13.195940625161208
27588.705882352944,156.336,1,True,1,2.2666666666666666,1.0,1.0,1,2.704266076806993,1.01015625,2.9457105211822916,13.185818785955876
27676.94117647059,156.836,1,False,1,2.2666666666666666,1.0,1.0,1,2.704266076806993,1.01015625,2.9457105211822916,13.183757283043908
27765.176470588238,157.336,1,True,1,2.2666666666666666,1.0,1.0,1,2.704266076806993,1.01015625,2.9457105211822916,13.173603685712688
27853.411764705885,157.836,1,False,1,2.2666666666666666,1.0,1.0,1,2.704266076806993,1.01015625,2.9457105211822916,13.17142760506043
27941.64705882353,158.336,1,True,1,2.2666666666666666,1.0,1.0,1,2.704266076806993,1.01015625,2.9457105211822916,13.161242777530987
28029.88235294118,158.836,1,False,1,2.2666666666666666,1.0,1.0,1,2.704266076806993,1.01015625,2.9457105211822916,13.158954311889643
28118.117647058825,159.336,1,True,1,2.2666666666666666,1.0,1.0,1,2.704266076806993,1.01015625,2.9457105211822916,13.148948864442701
28206.352941176472,159.836,0,False,2,0.2614982310413781,1.0,1.0,1,2.6391442409449883,1.0263671875,2.9829941974466005,13.140379925587428
28294.58823529412,160.336,1,True,1,2.2666666666666666,1.0,1.0,1,2.704266076806993,1.01015625,2.9457105211822916,13.138326757902782
28382.823529411766,160.836,1,False,1,2.2666666666666666,1.0,1.0,1,2.7042660768069924,1.01015625,2.9457105211822916,13.128434137212803
28471.058823529413,161.336,0,True,2,0.7555555555555556,1.0,1.0,1,2.628987706786489,1.0263671875,2.9730250706241774,13.12777713600989
28559.29411764706,161.836,1,False,1,2.2666666666666666,1.0,1.0,1,2.7230557981450354,1.01015625,2.9636792561271137,13.116233831813966
28647.529411764706,162.336,1,True,1,2.2666666666666666,1.0,1.0,1,2.7293094419740163,1.01015625,2.9696629987281713,13.115825784634625
28735.764705882353,162.836,1,False,1,2.2666666666666666,1.0,1.0,1,2.7293094419740163,1.01015625,2.9696629987281713,13.1040717988168
28824.000000000004,163.336,1,True,1,2.2666666666666666,1.0,1.0,1,2.7355774477832755,1.01015625,2.9756621412318847,13.104221687448959
28912.23529411765,163.836,1,False,1,2.2666666666666666,1.0,1.0,1,2.7480990977217443,1.01015625,2.9876516102417745,13.093281204325955
29000.470588235297,164.336,1,True,1,2.2666666666666666,1.0,1.0,1,2.7543528071410406,1.01015625,2.9936419720558245,13.082749759100897
29088.705882352944,164.836,1,False,2,2.2666666666666666,1.0,1.0,1,2.7543528071410406,1.01015625,2.9936419720558245,13.083932563988535
29147.470588235297,165.169,0,False,1,0.2956778850334813,1.0,1.0,1,2.6097611012378032,1.0263671875,2.9541672190927293,13.083972255285486
29206.235294117647,165.502,1,True,1,1.70170170170171,1.0,1.0,1,2.7512335574125717,1.01015625,2.990653873683518,13.085120672286873
29265.176470588238,165.836,0,True,1,1.6991504247876021,1.0,1.0,1,2.5957168892202493,1.0263671875,2.940404102072717,13.08445330932887
29353.411764705885,166.336,1,False,1,1.3589128697042316,1.0,1.0,1,2.7431006722236573,1.01015625,2.9828648377261056,13.085100535660604
29441.64705882353,166.836,1,True,1,2.2666666666666666,1.0,1.0,1,2.738081409901361,1.01015625,2.9780591587111562,13.085469537809118
29529.88235294118,167.336,1,False,1,2.2666666666666666,1.0,1.0,1,2.738081409901361,1.01015625,2.9780591587111562,13.085724475373882
29706.352941176472,168.336,0,False,2,0.4533333333333333,1.0,1.0,1,2.582581963689655,1.0263671875,2.9275411779375755,13.084162715195944
29882.823529411766,169.336,0,True,2,1.1333333333333333,1.0,1.0,1,2.5662919856907007,1.0263671875,2.9116009418455375,13.081952890326043
29971.058823529413,169.836,0,False,2,2.2666666666666666,1.0,1.0,1,2.5600235072726507,1.0263671875,2.905470749703137,13.079427869368416
30059.29411764706,170.336,0,True,2,2.2666666666666666,1.0,1.0,1,2.5600235072726507,1.0263671875,2.905470749703137,13.076796308233387
30235.764705882353,171.336,1,True,1,1.1333333333333333,1.0,1.0,1,2.738081409901361,1.01015625,2.9780591587111562,13.076509263535666
30324.000000000004,171.836,0,False,2,0.7555555555555556,1.0,1.0,1,2.5516893737113344,1.0263671875,2.8973236926200774,13.073394973802593
30412.23529411765,172.336,0,True,1,2.2666666666666666,1.0,1.0,1,2.543327930494635,1.0263671875,2.889153661931946,13.061505190731035
30500.470588235297,172.836,0,False,1,2.2666666666666666,1.0,1.0,1,2.543327930494635,1.0263671875,2.889153661931946,13.049615407659482
30588.705882352944,173.336,0,True,1,2.2666666666666666,1.0,1.0,1,2.543327930494635,1.0263671875,2.889153661931946,13.04640157299087
30676.94117647059,173.836,0,False,1,2.2666666666666666,1.0,1.0,1,2.543327930494635,1.0263671875,2.889153661931946,13.034511789919314
30765.176470588238,174.336,0,True,1,2.2666666666666666,1.0,1.0,1,2.5433279304946352,1.0263671875,2.8891536619319464,13.031680378187986
30853.411764705885,174.836,0,False,1,2.2666666666666666,1.0,1.0,1,2.5433279304946352,1.0263671875,2.8891536619319464,13.01979059511643
30941.64705882353,175.336,0,True,1,2.2666666666666666,1.0,1.0,1,2.5433279304946352,1.0263671875,2.8891536619319464,13.007900812044873
31029.88235294118,175.836,0,False,2,2.2666666666666666,1.0,1.0,1,2.543327930494635,1.0263671875,2.889153661931946,12.99601102897332
31074.000000000004,176.086,1,True,1,0.26666666666666666,1.0,1.0,1,2.7270552478792,1.01015625,2.967505902524484,12.99623264282316
31118.117647058825,176.336,0,True,1,2.2666666666666666,1.0,1.0,1,2.543327930494635,1.0263671875,2.889153661931946,12.984342859751603
31162.23529411765,176.586,1,False,1,2.2666666666666666,1.0,1.0,1,2.7222523638680474,1.01015625,2.962910617572186,12.984813177198852
31206.352941176472,176.836,0,False,1,2.2666666666666666,1.0,1.0,1,2.543327930494635,1.0263671875,2.889153661931946,12.982888996246224
31250.470588235297,177.086,1,True,1,2.2666666666666666,1.0,1.0,1,2.728506005572793,1.01015625,2.9688941451645054,12.983546698245211
31294.58823529412,177.336,0,True,1,2.2666666666666666,1.0,1.0,1,2.543327930494635,1.0263671875,2.889153661931946,12.979401275728701
31338.705882352944,177.586,1,False,1,2.2666666666666666,1.0,1.0,1,2.728506005572793,1.01015625,2.9688941451645054,12.977541552970047
31382.823529411766,177.836,0,False,1,2.2666666666666666,1.0,1.0,1,2.543327930494635,1.0263671875,2.889153661931946,12.972991211874815
31471.058823529413,178.336,1,True,1,1.5111111111111113,1.0,1.0,1,2.7243353087459035,1.01015625,2.964903409368784,12.970996832960676
31559.29411764706,178.836,0,True,2,1.1333333333333333,1.0,1.0,1,2.537074814279242,1.0263671875,2.8830461500097053,12.966240411053006
31647.529411764706,179.336,1,True,1,2.2666666666666666,1.0,1.0,1,2.7201582171837857,1.01015625,2.960907294830622,12.964111194492848
31735.764705882353,179.836,1,False,1,2.2666666666666666,1.0,1.0,1,2.7201582171837857,1.01015625,2.960907294830622,12.961981977932693
31824.000000000004,180.336,0,False,2,0.7555555555555556,1.0,1.0,1,2.5224722725107744,1.0263671875,2.8687918961987626,12.95674458632026
31912.23529411765,180.836,0,True,2,2.2666666666666666,1.0,1.0,1,2.5141106711331074,1.0263671875,2.86063499305217,12.950870319913454
32000.470588235297,181.336,0,False,2,2.2666666666666666,1.0,1.0,1,2.521634872913773,1.0263671875,2.867974823126031,12.94029945373802
32088.705882352944,181.836,1,False,1,2.2666666666666666,1.0,1.0,1,2.732679899767297,1.01015625,2.972888676602892,12.93347195995028
32176.94117647059,182.336,1,True,1,2.2666666666666666,1.0,1.0,1,2.732679899767297,1.01015625,2.972888676602892,12.926644466162541
32265.176470588238,182.836,1,False,1,2.2666666666666666,1.0,1.0,1,2.732679899767297,1.01015625,2.972888676602892,12.9198169723748
32353.411764705885,183.336,1,True,1,2.2666666666666666,1.0,1.0,1,2.732679899767297,1.01015625,2.972888676602892,12.917694426262369
32441.64705882353,183.836,0,True,2,0.4533333333333333,1.0,1.0,1,2.5253829793584504,1.0224609375,2.8482805090152983,12.91169276440356
32529.88235294118,184.336,0,False,1,2.2666666666666666,1.0,1.0,1,2.527892275112669,1.0220703125,2.848381469817445,12.905694509183068
32618.117647058825,184.836,0,True,1,2.2666666666666666,1.0,1.0,1,2.54041391948102,1.017578125,2.8336898507335055,12.894170142513062
32706.352941176472,185.336,0,False,2,2.2666666666666666,1.0,1.0,1,2.5541911049718684,1.017578125,2.846937711584111,12.888325907049486
32794.58823529412,185.836,0,True,3,2.2666666666666666,1.0,1.0,1,2.561693064950453,1.017578125,2.854155569824127,12.882928357362813
32912.117647058825,186.502,0,False,3,1.70170170170171,1.0,1.0,1,2.558573948521569,1.017578125,2.851154224176142,12.877429535708531
33029.82352941177,187.169,1,False,2,1.6991504247876021,1.0,1.0,1,2.7191306590446103,1.01015625,2.959924370613876,12.875600856729754
33147.529411764706,187.836,1,True,1,1.6991504247876021,1.0,1.0,1,2.723303142379232,1.01015625,2.9639158937194487,12.873906860472013
33235.76470588236,188.336,0,True,1,0.6179571065067238,1.0,1.0,1,2.5463593942097416,1.017578125,2.839405688235367,12.862575358662719
33324.0,188.836,1,False,1,1.1333333333333333,1.0,1.0,1,2.730592980857939,1.01015625,2.97089134598085,12.85568047057063
33412.23529411765,189.336,0,False,1,1.1333333333333333,1.0,1.0,1,2.530982088142996,1.017578125,2.8246261114472873,12.843850273510181
33500.470588235294,189.836,1,True,1,1.1333333333333333,1.0,1.0,1,2.724339333637962,1.01015625,2.9649072602356754,12.836753469274862
33588.705882352944,190.336,0,True,1,1.1333333333333333,1.0,1.0,1,2.518460444060709,1.017578125,2.812600411829831,12.824517498803099
33676.94117647059,190.836,1,False,1,1.1333333333333333,1.0,1.0,1,2.711817684272717,1.01015625,2.9529303523915584,12.817016567497635
33765.17647058824,191.336,0,False,1,1.1333333333333333,1.0,1.0,1,2.5059388003631873,1.017578125,2.8005831010723723,12.804375106673048
33853.41176470588,191.836,0,True,2,2.2666666666666666,1.0,1.0,1,2.4996701380115462,1.017578125,2.7945701058057875,12.790159170478988
33941.64705882353,192.336,1,False,1,2.2666666666666666,1.0,1.0,1,2.693027933107403,1.01015625,2.934970695295054,12.784104241908722
34029.882352941175,192.836,0,False,2,1.1333333333333333,1.0,1.0,1,2.4934171570562276,1.017578125,2.788574287629837,12.770071247652366
34118.117647058825,193.336,1,False,1,2.2666666666666666,1.0,1.0,1,2.6930279331074027,1.01015625,2.9349706952950534,12.764417376268709
34206.352941176476,193.836,0,True,2,1.1333333333333333,1.0,1.0,1,2.485062384636541,1.017578125,2.780566469410827,12.75011418070854
34294.58823529412,194.336,1,False,1,2.2666666666666666,1.0,1.0,1,2.6930279331074027,1.01015625,2.9349706952950534,12.744599753408039
34382.82352941177,194.836,0,False,2,1.1333333333333333,1.0,1.0,1,2.4829745612335308,1.017578125,2.778565950742658,12.734660110419119
34471.05882352941,195.336,1,False,1,2.2666666666666666,1.0,1.0,1,2.6930279331074027,1.01015625,2.9349706952950534,12.730206428529177
34559.29411764706,195.836,0,True,2,1.1333333333333333,1.0,1.0,1,2.4829745612335308,1.017578125,2.778565950742658,12.716067145435188
34647.529411764706,196.336,1,False,1,2.2666666666666666,1.0,1.0,1,2.6930279331074027,1.01015625,2.9349706952950534,12.71189065653735
34735.76470588236,196.836,0,False,2,1.1333333333333333,1.0,1.0,1,2.4767216332647286,1.017578125,2.7725759452443373,12.702720376176172
34824.0,197.336,1,False,1,2.2666666666666666,1.0,1.0,1,2.6930279331074027,1.01015625,2.9349706952950534,12.699445594597432
34912.23529411765,197.836,0,True,2,1.1333333333333333,1.0,1.0,1,2.464199990892287,1.017578125,2.760587390811118,12.690494861583113
35000.470588235294,198.336,1,False,1,2.2666666666666666,1.0,1.0,1,2.6930279331074023,1.01015625,2.9349706952950534,12.682803522210772
35088.705882352944,198.836,0,False,2,1.1333333333333333,1.0,1.0,1,2.459183683114679,1.017578125,2.755787126380677,12.669066137259207
35176.94117647059,199.336,1,False,1,2.2666666666666666,1.0,1.0,1,2.7180785089170816,1.01015625,2.95891796928449,12.662182831295935
35265.17647058824,199.836,1,True,1,2.2666666666666666,1.0,1.0,1,2.7306001584348305,1.01015625,2.9708982151204752,12.655703765033953
35323.94117647059,200.169,0,True,1,0.8502125531382856,1.0,1.0,1,2.4526231374915732,1.017578125,2.749511292753313,12.646724954232575
35382.705882352944,200.502,1,False,1,1.70170170170171,1.0,1.0,1,2.739995442454064,1.01015625,2.9798916197533525,12.646142875109948
35441.64705882353,200.836,0,False,1,1.6991504247876021,1.0,1.0,1,2.441652676590649,1.017578125,2.739022439105962,12.637710463544742
35500.41176470588,201.169,1,True,1,1.6991504247876021,1.0,1.0,1,2.746260970942162,1.01015625,2.9858911962153845,12.637607943869812
35559.17647058824,201.502,0,True,1,1.70170170170171,1.0,1.0,1,2.43539652974511,1.017578125,2.7330440558275937,12.628973808575083
35618.117647058825,201.836,1,False,2,1.6991504247876021,1.0,1.0,1,2.7462515950792303,1.01015625,2.9858822171071036,12.62451243081565
35706.352941176476,202.336,0,False,2,1.3589128697042316,1.0,1.0,1,2.4272640114110158,1.017578125,2.725276022971299,12.615892318479819
35794.58823529412,202.836,0,True,2,2.2666666666666666,1.0,1.0,1,2.4222441526563157,1.017578125,2.7204830849281647,12.60738737552286
35882.82352941177,203.336,0,False,2,2.2666666666666666,1.0,1.0,1,2.4222441526563157,1.017578125,2.7204830849281647,12.598882432565901
35971.05882352941,203.836,0,True,1,2.2666666666666666,1.0,1.0,1,2.422244152656315,1.017578125,2.7204830849281643,12.586289104665296
36029.82352941177,204.169,1,False,1,1.3605442176870775,1.0,1.0,1,2.7381136005464692,1.01015625,2.9780899761996746,12.586752281380623
36088.58823529412,204.502,0,False,1,1.70170170170171,1.0,1.0,1,2.419125145956601,1.017578125,2.7175058215772956,12.578906282262283
36147.529411764706,204.836,1,True,2,1.6991504247876021,1.0,1.0,1,2.729970044637485,1.01015625,2.9702951870689063,12.575428255357641
36235.76470588236,205.336,1,False,1,2.2666666666666666,1.0,1.0,1,2.726833130514891,1.01015625,2.967293364351393,12.576493387049446
36324.0,205.836,0,True,2,0.8495752123938011,1.0,1.0,1,2.417118030896953,1.017578125,2.7155902249389046,12.566402574924355
36412.23529411765,206.336,0,False,1,2.2666666666666666,1.0,1.0,1,2.424502359206028,1.017578125,2.722639026272379,12.559764020122989
36500.470588235294,206.836,0,True,2,2.2666666666666666,1.0,1.0,1,2.4370240002543317,1.017578125,2.734599050060247,12.55380503047124
36588.705882352944,207.336,0,False,1,2.2666666666666666,1.0,1.0,1,2.4495456417272776,1.017578125,2.746568201234169,12.548249906162614
36676.94117647059,207.836,0,True,2,2.2666666666666666,1.0,1.0,1,2.4641604101529433,1.017578125,2.7605495091604255,12.543166541767533
36765.17647058824,208.336,0,False,1,2.2666666666666666,1.0,1.0,1,2.4724940586810407,1.017578125,2.7685273677070747,12.538145457083656
36853.41176470588,208.836,0,True,2,2.2666666666666666,1.0,1.0,1,2.47249405868104,1.017578125,2.7685273677070743,12.53291789571772
36941.64705882353,209.336,0,False,1,2.2666666666666666,1.0,1.0,1,2.47249405868104,1.017578125,2.7685273677070743,12.527759223504308
37029.882352941175,209.836,0,True,2,2.2666666666666666,1.0,1.0,1,2.47249405868104,1.017578125,2.7685273677070743,12.522462486590962
37118.117647058825,210.336,0,False,2,2.2666666666666666,1.0,1.0,1,2.47249405868104,1.017578125,2.7685273677070743,12.516752043216348
37206.352941176476,210.836,0,True,2,2.2666666666666666,1.0,1.0,1,2.47249405868104,1.017578125,2.7685273677070743,12.510627622674061
